[
  {
    "id": "10001",
    "name": "LALEZAR KONAKLARI DURAĞI",
    "lat": 40.8302039,
    "lon": 31.1715546,
    "routes": [
      "10030",
      "10090",
      "10130",
      "10190",
      "10210",
      "10220",
      "10221",
      "10230",
      "10250",
      "10270",
      "10280",
      "10281",
      "10330",
      "10340",
      "10360",
      "10410",
      "20050",
      "20051",
      "20053",
      "20120"
    ]
  },
  {
    "id": "10002",
    "name": "YENİKENT POLİS MERKEZİ DURAĞI",
    "lat": 40.8657764,
    "lon": 31.216743,
    "routes": [
      "10230"
    ]
  },
  {
    "id": "10003",
    "name": "ŞEHİR MEZARLIĞI DURAĞI",
    "lat": 40.8279715,
    "lon": 31.1731077,
    "routes": [
      "10090",
      "10130",
      "10190",
      "10210",
      "10220",
      "10221",
      "10230",
      "10250",
      "10270",
      "10280",
      "10281",
      "10330",
      "10340",
      "10360",
      "10410",
      "20050",
      "20051",
      "20053",
      "20120"
    ]
  },
  {
    "id": "10004",
    "name": "İSMET PAŞA OKUL DURAĞI",
    "lat": 40.8264533,
    "lon": 31.1702257,
    "routes": [
      "10030",
      "10090",
      "10130",
      "10210",
      "10230",
      "10250",
      "10270",
      "10280",
      "10281",
      "10330",
      "10340",
      "10360",
      "10430",
      "20050",
      "20051",
      "20053",
      "20120"
    ]
  },
  {
    "id": "10005",
    "name": "ŞEHİT CİHAN AKSARI",
    "lat": 40.8439544,
    "lon": 31.1156763,
    "routes": [
      "10030",
      "10090",
      "10130",
      "10190",
      "10210",
      "10220",
      "10221",
      "10230",
      "10250",
      "10270",
      "10280",
      "10281",
      "10330",
      "10340",
      "10360",
      "10410",
      "20050",
      "20051",
      "20053",
      "20120"
    ]
  },
  {
    "id": "10006",
    "name": "ŞEHİT CİHAN AKSARI",
    "lat": 40.8437678,
    "lon": 31.1156227,
    "routes": [
      "10030",
      "10090",
      "10130",
      "10190",
      "10210",
      "10220",
      "10221",
      "10230",
      "10250",
      "10270",
      "10280",
      "10281",
      "10330",
      "10340",
      "10360",
      "10410",
      "20050",
      "20051",
      "20053",
      "20120"
    ]
  },
  {
    "id": "10007",
    "name": "FÜPAŞ FİDANLIK",
    "lat": 40.8433274,
    "lon": 31.1195454,
    "routes": [
      "10030",
      "10090",
      "10130",
      "10190",
      "10210",
      "10220",
      "10221",
      "10230",
      "10250",
      "10270",
      "10280",
      "10281",
      "10330",
      "10340",
      "10410",
      "20050",
      "20051",
      "20053",
      "20120"
    ]
  },
  {
    "id": "10008",
    "name": "FÜPAŞ FİDANLIK",
    "lat": 40.8434817,
    "lon": 31.1195387,
    "routes": [
      "10030",
      "10090",
      "10130",
      "10190",
      "10210",
      "10220",
      "10221",
      "10230",
      "10250",
      "10270",
      "10280",
      "10281",
      "10330",
      "10340",
      "10410",
      "20050",
      "20051",
      "20053",
      "20120"
    ]
  },
  {
    "id": "10009",
    "name": "TÜRKOĞLU SİTESİ",
    "lat": 40.8426071,
    "lon": 31.1229263,
    "routes": [
      "10030",
      "10090",
      "10130",
      "10190",
      "10210",
      "10220",
      "10221",
      "10230",
      "10250",
      "10270",
      "10280",
      "10281",
      "10330",
      "10340",
      "10410",
      "20050",
      "20051",
      "20053",
      "20120"
    ]
  },
  {
    "id": "10010",
    "name": "TÜRKOĞLU SİTESİ",
    "lat": 40.8429337,
    "lon": 31.1221672,
    "routes": [
      "10030",
      "10090",
      "10130",
      "10190",
      "10210",
      "10220",
      "10221",
      "10230",
      "10250",
      "10270",
      "10280",
      "10281",
      "10330",
      "10340",
      "10410",
      "20050",
      "20051",
      "20053",
      "20120"
    ]
  },
  {
    "id": "10011",
    "name": "ZAFER HALI SAHA",
    "lat": 40.8420998,
    "lon": 31.1256272,
    "routes": [
      "10030",
      "10090",
      "10130",
      "10190",
      "10210",
      "10220",
      "10221",
      "10230",
      "10250",
      "10270",
      "10280",
      "10281",
      "10330",
      "10340",
      "10410",
      "20050",
      "20051",
      "20053",
      "20120"
    ]
  },
  {
    "id": "10012",
    "name": "ZAFER HALI SAHA",
    "lat": 40.8422338,
    "lon": 31.12552,
    "routes": [
      "10030",
      "10090",
      "10130",
      "10190",
      "10210",
      "10220",
      "10221",
      "10230",
      "10250",
      "10270",
      "10280",
      "10281",
      "10330",
      "10340",
      "10410",
      "20050",
      "20051",
      "20053",
      "20120"
    ]
  },
  {
    "id": "10013",
    "name": "AZİZİYE 1050 BULVARI",
    "lat": 40.8426281,
    "lon": 31.1277255,
    "routes": [
      "10030",
      "10090",
      "10130",
      "10190",
      "10210",
      "10220",
      "10221",
      "10230",
      "10250",
      "10270",
      "10280",
      "10281",
      "10330",
      "10340",
      "10410",
      "20050",
      "20051",
      "20053",
      "20120"
    ]
  },
  {
    "id": "10014",
    "name": "AZİZİYE 1050 BULVARI",
    "lat": 40.8425442,
    "lon": 31.1276067,
    "routes": [
      "10030",
      "10090",
      "10130",
      "10190",
      "10210",
      "10220",
      "10221",
      "10230",
      "10250",
      "10270",
      "10280",
      "10281",
      "10330",
      "10340",
      "10410",
      "20050",
      "20051",
      "20053",
      "20120"
    ]
  },
  {
    "id": "10015",
    "name": "PAZARYERİ 1053. SOKAK DURAĞI",
    "lat": 40.8442034,
    "lon": 31.1295224,
    "routes": [
      "10030",
      "10090",
      "10110",
      "10120",
      "10130",
      "10160",
      "10190",
      "10200",
      "10210",
      "10220",
      "10221",
      "10230",
      "10240",
      "10250",
      "10260",
      "10270",
      "10280",
      "10281",
      "10320",
      "10330",
      "10340",
      "10360",
      "10370",
      "10410",
      "20030",
      "20050",
      "20051",
      "20053",
      "20120",
      "40041",
      "40042",
      "40043"
    ]
  },
  {
    "id": "10016",
    "name": "ESKİ PAZARYERİ",
    "lat": 40.845182,
    "lon": 31.1344276,
    "routes": [
      "10420"
    ]
  },
  {
    "id": "10017",
    "name": "ESKİ PAZARYERİ",
    "lat": 40.8455229,
    "lon": 31.1341437,
    "routes": [
      "10420"
    ]
  },
  {
    "id": "10018",
    "name": "ESKİ PAZARYERİ ORTASI",
    "lat": 40.8465577,
    "lon": 31.1383249,
    "routes": [
      "10420"
    ]
  },
  {
    "id": "10019",
    "name": "MERGİÇ MEYDAN",
    "lat": 40.8462473,
    "lon": 31.1192973,
    "routes": [
      "10360"
    ]
  },
  {
    "id": "10020",
    "name": "MERGİÇ MEYDAN",
    "lat": 40.8460849,
    "lon": 31.1193295,
    "routes": [
      "10360"
    ]
  },
  {
    "id": "10021",
    "name": "MERGİÇ CAMİ",
    "lat": 40.8467261,
    "lon": 31.1209683,
    "routes": [
      "10360"
    ]
  },
  {
    "id": "10022",
    "name": "MERGİÇ CAMİ",
    "lat": 40.8468215,
    "lon": 31.1209281,
    "routes": [
      "10360"
    ]
  },
  {
    "id": "10023",
    "name": "MERGİÇ DEĞİRMEN",
    "lat": 40.847209,
    "lon": 31.1226044,
    "routes": [
      "10360"
    ]
  },
  {
    "id": "10024",
    "name": "MERGİÇ DEĞİRMEN",
    "lat": 40.8473084,
    "lon": 31.1226098,
    "routes": [
      "10360"
    ]
  },
  {
    "id": "10025",
    "name": "MERGİÇ TALEBE YURDU",
    "lat": 40.8468985,
    "lon": 31.1248279,
    "routes": [
      "10360"
    ]
  },
  {
    "id": "10026",
    "name": "MERGİÇ TALEBE YURDU",
    "lat": 40.8468012,
    "lon": 31.1248467,
    "routes": [
      "10110",
      "10360"
    ]
  },
  {
    "id": "10031",
    "name": "KÜCÜK SANAYİ PETROL OFİSİ",
    "lat": 40.8517516,
    "lon": 31.1240715,
    "routes": [
      "10110"
    ]
  },
  {
    "id": "10032",
    "name": "HAL DURAĞI",
    "lat": 40.8494631,
    "lon": 31.1253966,
    "routes": [
      "10110"
    ]
  },
  {
    "id": "10033",
    "name": "HAL DURAĞI",
    "lat": 40.849522,
    "lon": 31.1256032,
    "routes": [
      "10110"
    ]
  },
  {
    "id": "10037",
    "name": "ESKİ HALK PAZARI",
    "lat": 40.8470538,
    "lon": 31.1417037,
    "routes": [
      "10030",
      "10120",
      "10130",
      "10310",
      "10311"
    ]
  },
  {
    "id": "10038",
    "name": "ESKİ HALK PAZARI",
    "lat": 40.8475028,
    "lon": 31.1421014,
    "routes": [
      "10030",
      "10120",
      "10130",
      "10300",
      "10301",
      "20150"
    ]
  },
  {
    "id": "10039",
    "name": "SOSYAL HİZMETLER DURAĞI",
    "lat": 40.8451896,
    "lon": 31.1413741,
    "routes": [
      "10030",
      "10120",
      "10130",
      "10300",
      "10301",
      "10370",
      "20150"
    ]
  },
  {
    "id": "10040",
    "name": "SOSYAL HİZMETLER DURAĞI",
    "lat": 40.8452969,
    "lon": 31.1410963,
    "routes": [
      "10030",
      "10120",
      "10130",
      "10310",
      "10311",
      "10370"
    ]
  },
  {
    "id": "10041",
    "name": "15 TEMMUZ LİSESİ",
    "lat": 40.8428023,
    "lon": 31.1402995,
    "routes": [
      "10030",
      "10120",
      "10130"
    ]
  },
  {
    "id": "10042",
    "name": "HALK EĞİTİM",
    "lat": 40.8428763,
    "lon": 31.1405919,
    "routes": [
      "10030",
      "10120",
      "10130",
      "20010"
    ]
  },
  {
    "id": "10043",
    "name": "15 TEMMUZ ANADOLU LİSESİ",
    "lat": 40.8436211,
    "lon": 31.1401162,
    "routes": [
      "10310",
      "10311",
      "10370"
    ]
  },
  {
    "id": "10044",
    "name": "15 TEMMUZ ANADOLU LİSESİ",
    "lat": 40.8435506,
    "lon": 31.1400763,
    "routes": [
      "10300",
      "10301",
      "10370",
      "20150"
    ]
  },
  {
    "id": "10045",
    "name": "DEVLET HASTANESİ ACİL",
    "lat": 40.8437495,
    "lon": 31.1381747,
    "routes": [
      "10300",
      "10301",
      "10370",
      "20150"
    ]
  },
  {
    "id": "10046",
    "name": "DEVLET HASTANESİ ACİL",
    "lat": 40.8439321,
    "lon": 31.1376932,
    "routes": [
      "10310",
      "10311",
      "10370",
      "20010"
    ]
  },
  {
    "id": "10048",
    "name": "GÜNLÜ CAMİ",
    "lat": 40.8435416,
    "lon": 31.1355066,
    "routes": [
      "10030",
      "10090",
      "10110",
      "10120",
      "10130",
      "10160",
      "10190",
      "10200",
      "10210",
      "10220",
      "10221",
      "10230",
      "10240",
      "10250",
      "10260",
      "10270",
      "10280",
      "10281",
      "10320",
      "10330",
      "10340",
      "10360",
      "10370",
      "10410",
      "10420",
      "20030",
      "20050",
      "20051",
      "20053",
      "20120",
      "40041",
      "40042",
      "40043"
    ]
  },
  {
    "id": "10049",
    "name": "GÜNLÜ CAMİ",
    "lat": 40.8436866,
    "lon": 31.1353423,
    "routes": [
      "10030",
      "10090",
      "10110",
      "10120",
      "10130",
      "10160",
      "10190",
      "10200",
      "10210",
      "10220",
      "10221",
      "10230",
      "10240",
      "10250",
      "10260",
      "10270",
      "10280",
      "10281",
      "10320",
      "10340",
      "10360",
      "10370",
      "10410",
      "10420",
      "20030",
      "20050",
      "20051",
      "20053",
      "20120",
      "40041",
      "40042",
      "40043"
    ]
  },
  {
    "id": "10050",
    "name": "DİŞ HASTANESİ",
    "lat": 40.8418745,
    "lon": 31.1357566,
    "routes": [
      "10030",
      "10090",
      "10110",
      "10120",
      "10130",
      "10160",
      "10190",
      "10200",
      "10210",
      "10220",
      "10221",
      "10230",
      "10240",
      "10250",
      "10260",
      "10270",
      "10280",
      "10281",
      "10310",
      "10311",
      "10320",
      "10330",
      "10340",
      "10360",
      "10410",
      "10420",
      "20010",
      "20030",
      "20050",
      "20051",
      "20053",
      "20120",
      "40041",
      "40042",
      "40043"
    ]
  },
  {
    "id": "10051",
    "name": "DİŞ HASTANESİ",
    "lat": 40.8418674,
    "lon": 31.1358746,
    "routes": [
      "10030",
      "10090",
      "10110",
      "10120",
      "10130",
      "10160",
      "10190",
      "10200",
      "10210",
      "10220",
      "10221",
      "10230",
      "10240",
      "10250",
      "10260",
      "10270",
      "10280",
      "10281",
      "10300",
      "10301",
      "10320",
      "10330",
      "10340",
      "10360",
      "10410",
      "10420",
      "20030",
      "20050",
      "20051",
      "20053",
      "20120",
      "20150",
      "40041",
      "40042",
      "40043"
    ]
  },
  {
    "id": "10052",
    "name": "AL GÜN SİTESİ",
    "lat": 40.8397014,
    "lon": 31.1285348,
    "routes": [
      "10260",
      "10270",
      "20120"
    ]
  },
  {
    "id": "10053",
    "name": "AL GÜN SİTESİ",
    "lat": 40.8397561,
    "lon": 31.1282773,
    "routes": [
      "10260",
      "10270",
      "20120"
    ]
  },
  {
    "id": "10054",
    "name": "BAĞDAT CAMİ",
    "lat": 40.8374834,
    "lon": 31.1289747,
    "routes": [
      "10260",
      "10270",
      "20120"
    ]
  },
  {
    "id": "10055",
    "name": "BAĞDAT CAMİ",
    "lat": 40.8373251,
    "lon": 31.1291195,
    "routes": [
      "10260",
      "10270",
      "20120"
    ]
  },
  {
    "id": "10056",
    "name": "GÜNLÜ PUSAT YAPI",
    "lat": 40.8375768,
    "lon": 31.1313404,
    "routes": [
      "10260",
      "10270",
      "20120"
    ]
  },
  {
    "id": "10057",
    "name": "GÜNLÜ PUSAT YAPI",
    "lat": 40.8377005,
    "lon": 31.131268,
    "routes": [
      "10260",
      "10270",
      "20120"
    ]
  },
  {
    "id": "10058",
    "name": "BELMEK SPOR MERKEZİ",
    "lat": 40.8381203,
    "lon": 31.1338935,
    "routes": [
      "10260",
      "10270",
      "20120"
    ]
  },
  {
    "id": "10872",
    "name": "KONURALP MERKEZ DURAĞI",
    "lat": 40.9048332,
    "lon": 31.1472807,
    "routes": [
      "10010",
      "10090",
      "10100",
      "10110",
      "10140",
      "20013"
    ]
  },
  {
    "id": "10870",
    "name": "KONURALP BELEDİYE DURAĞI",
    "lat": 40.9047348,
    "lon": 31.1495097,
    "routes": [
      "10010",
      "10090",
      "10100",
      "10110",
      "10140",
      "20013"
    ]
  },
  {
    "id": "10868",
    "name": "ÜSKÜBÜ İLK OKULU DURAĞI",
    "lat": 40.904821,
    "lon": 31.1524601,
    "routes": [
      "10010",
      "10090",
      "10100",
      "10110",
      "10140",
      "10160",
      "20013"
    ]
  },
  {
    "id": "10861",
    "name": "KONURALP LİSE DURAĞI",
    "lat": 40.9056663,
    "lon": 31.1536001,
    "routes": [
      "10010",
      "10090",
      "20013"
    ]
  },
  {
    "id": "10860",
    "name": "GÖLCÜK BAŞI CAMI DURAĞI",
    "lat": 40.9052467,
    "lon": 31.1573122,
    "routes": [
      "10010",
      "10090",
      "20013"
    ]
  },
  {
    "id": "10857",
    "name": "GÖLCÜK BAŞI İÇ YOL DURAĞI",
    "lat": 40.9050298,
    "lon": 31.16004,
    "routes": [
      "10010",
      "10090",
      "20013"
    ]
  },
  {
    "id": "10855",
    "name": "GÖLCÜK BAŞI ALA FIRIN DURAĞI",
    "lat": 40.9041196,
    "lon": 31.1626364,
    "routes": [
      "10010",
      "10090",
      "20013"
    ]
  },
  {
    "id": "10853",
    "name": "GÖLCÜK BAŞI DURAĞI",
    "lat": 40.9039959,
    "lon": 31.1640634,
    "routes": [
      "10010",
      "10090",
      "20013"
    ]
  },
  {
    "id": "10851",
    "name": "GÖLCÜK BAŞI USTA KARDEŞLER DURAĞI",
    "lat": 40.902289,
    "lon": 31.1663888,
    "routes": [
      "10010",
      "10090",
      "20013"
    ]
  },
  {
    "id": "10850",
    "name": "GÖLCÜK BAŞI ACADEMİA TOWER DURAĞI",
    "lat": 40.9016118,
    "lon": 31.1687277,
    "routes": [
      "10010",
      "10090",
      "20013"
    ]
  },
  {
    "id": "10842",
    "name": "TEKNO PARK DURAĞI",
    "lat": 40.9007842,
    "lon": 31.174781,
    "routes": [
      "10010",
      "10030",
      "10050",
      "10060",
      "10070",
      "10080",
      "10140",
      "10160",
      "10420",
      "10430",
      "20010",
      "20011",
      "20012",
      "20013",
      "20034",
      "20035"
    ]
  },
  {
    "id": "11267",
    "name": "ÜNİVERSİTE VADİ DURAĞI",
    "lat": 40.9035388,
    "lon": 31.1727779,
    "routes": [
      "10010",
      "10050",
      "10070",
      "10140",
      "10160",
      "10420",
      "20010",
      "20011",
      "20012",
      "20013"
    ]
  },
  {
    "id": "10840",
    "name": "CAHİT ZARİF OĞLU DURAĞI",
    "lat": 40.9061248,
    "lon": 31.1722669,
    "routes": [
      "10010",
      "10030",
      "10050",
      "10060",
      "10070",
      "10080",
      "10140",
      "10160",
      "10420",
      "20010",
      "20011",
      "20012",
      "20013",
      "20034",
      "20035"
    ]
  },
  {
    "id": "10838",
    "name": "ÜNİVERSİTE POLİKİLİNİK DURAĞI",
    "lat": 40.9040162,
    "lon": 31.1744998,
    "routes": [
      "10010",
      "10030",
      "10050",
      "10060",
      "10070",
      "10080",
      "10140",
      "10420",
      "20010",
      "20011",
      "20012",
      "20013",
      "20014",
      "20034",
      "20035"
    ]
  },
  {
    "id": "10836",
    "name": "ÜNİVERSİTE ORMAN FAKÜLTESİ DURAĞI",
    "lat": 40.9064488,
    "lon": 31.1782576,
    "routes": [
      "10010",
      "10030",
      "10050",
      "10060",
      "10080",
      "10420",
      "20010",
      "20011",
      "20012",
      "20013",
      "20034",
      "20035"
    ]
  },
  {
    "id": "10837",
    "name": "ÜNİVERSİTE EĞİTİM FAKÜLTESİ DURAĞI",
    "lat": 40.9069475,
    "lon": 31.1813904,
    "routes": [
      "10010",
      "10030",
      "10050",
      "10060",
      "10080",
      "10420",
      "20010",
      "20011",
      "20012",
      "20013",
      "20034",
      "20035"
    ]
  },
  {
    "id": "10832",
    "name": "ÜNİVERSİTE FEN EDEBİYAT DURAĞI",
    "lat": 40.9064285,
    "lon": 31.1853614,
    "routes": [
      "10010",
      "10030",
      "10050",
      "10060",
      "10070",
      "10080",
      "10420",
      "20010",
      "20011",
      "20012",
      "20013",
      "20034",
      "20035"
    ]
  },
  {
    "id": "11311",
    "name": "ÜNİVERSİTE KEMER KAPI",
    "lat": 40.902893,
    "lon": 31.1829273,
    "routes": [
      "10010",
      "10050",
      "10420",
      "20010",
      "20011",
      "20012",
      "20013"
    ]
  },
  {
    "id": "11310",
    "name": "ÜNİVERSİTE GİRİŞ DURAĞI",
    "lat": 40.90088,
    "lon": 31.1831875,
    "routes": [
      "10010",
      "10420"
    ]
  },
  {
    "id": "11168",
    "name": "ÜNİVERSİTE GİRİŞ DURAĞI",
    "lat": 40.9008961,
    "lon": 31.183453,
    "routes": [
      "10010",
      "10030",
      "10050",
      "10060",
      "10070",
      "10420",
      "10430",
      "20010",
      "20011",
      "20012",
      "20013",
      "20014",
      "20034",
      "20035"
    ]
  },
  {
    "id": "11309",
    "name": "ÜNİVERSİTE KEMER KAPI",
    "lat": 40.9029255,
    "lon": 31.1831874,
    "routes": [
      "10010",
      "10030",
      "10050",
      "10060",
      "10420",
      "20010",
      "20011",
      "20012",
      "20013"
    ]
  },
  {
    "id": "10833",
    "name": "ÜNİVERSİTE FEN EDEBİYAT DURAĞI",
    "lat": 40.9067387,
    "lon": 31.1853185,
    "routes": [
      "10010",
      "10030",
      "10050",
      "10060",
      "10070",
      "10080",
      "20011",
      "20012",
      "20013",
      "20034",
      "20035"
    ]
  },
  {
    "id": "10834",
    "name": "ÜNİVERSİTE KAMPÜS DURAĞI",
    "lat": 40.904153,
    "lon": 31.180791,
    "routes": [
      "10010",
      "10030",
      "10050",
      "10060",
      "10070",
      "10080",
      "10420",
      "20010",
      "20011",
      "20012",
      "20013",
      "20034",
      "20035"
    ]
  },
  {
    "id": "10835",
    "name": "ÜNİVERSİTE KAMPÜS PARK DURAĞI",
    "lat": 40.9037921,
    "lon": 31.1783339,
    "routes": [
      "10010",
      "10030",
      "10050",
      "10060",
      "10070",
      "10080",
      "10420",
      "20010",
      "20011",
      "20012",
      "20013",
      "20034",
      "20035"
    ]
  },
  {
    "id": "11133",
    "name": "KAMPÜS ORTA CAFE",
    "lat": 40.9051494,
    "lon": 31.177355,
    "routes": [
      "10010",
      "10030",
      "10050",
      "10070",
      "10080",
      "10420",
      "20010",
      "20011",
      "20012",
      "20013",
      "20034",
      "20035"
    ]
  },
  {
    "id": "10839",
    "name": "CAHİT ZARİF OĞLU DURAĞI",
    "lat": 40.9059683,
    "lon": 31.1716942,
    "routes": [
      "10010",
      "10030",
      "10050",
      "10060",
      "10070",
      "10080",
      "10140",
      "10420",
      "20010",
      "20011",
      "20012",
      "20013",
      "20014",
      "20034",
      "20035"
    ]
  },
  {
    "id": "11266",
    "name": "ÜNİVERSİTE VADİ DURAĞI",
    "lat": 40.9034719,
    "lon": 31.1727095,
    "routes": [
      "10010",
      "10030",
      "10050",
      "10060",
      "10070",
      "10140",
      "10420",
      "20010",
      "20011",
      "20012",
      "20013",
      "20014"
    ]
  },
  {
    "id": "10841",
    "name": "TEKNO PARK DURAĞI",
    "lat": 40.9009428,
    "lon": 31.1735181,
    "routes": [
      "10010",
      "10030",
      "10050",
      "10060",
      "10070",
      "10080",
      "10140",
      "10420",
      "10430",
      "20010",
      "20011",
      "20012",
      "20013",
      "20014",
      "20034",
      "20035"
    ]
  },
  {
    "id": "10849",
    "name": "GÖLCÜK BAŞI ACADEMİA TOWER DURAĞI",
    "lat": 40.9016787,
    "lon": 31.1687867,
    "routes": [
      "10010",
      "10090",
      "10140",
      "20013"
    ]
  },
  {
    "id": "10852",
    "name": "GÖLCÜK BAŞI USTA KARDEŞLER DURAĞI",
    "lat": 40.9023822,
    "lon": 31.166421,
    "routes": [
      "10010",
      "10090",
      "10140",
      "20013"
    ]
  },
  {
    "id": "10854",
    "name": "GÖLCÜK BAŞI DURAĞI",
    "lat": 40.904079,
    "lon": 31.1640821,
    "routes": [
      "10010",
      "10090",
      "10140",
      "20013"
    ]
  },
  {
    "id": "10856",
    "name": "GÖLCÜK BAŞI ALA FIRIN DURAĞI",
    "lat": 40.9041855,
    "lon": 31.1626109,
    "routes": [
      "10010",
      "10090",
      "10140",
      "20013"
    ]
  },
  {
    "id": "10858",
    "name": "GÖLCÜK BAŞI İÇ YOL DURAĞI",
    "lat": 40.9051129,
    "lon": 31.1600776,
    "routes": [
      "10010",
      "10090",
      "10140",
      "20013"
    ]
  },
  {
    "id": "10859",
    "name": "GÖLCÜK BAŞI CAMI DURAĞI",
    "lat": 40.906013,
    "lon": 31.1569233,
    "routes": [
      "10010",
      "10090",
      "10140",
      "20013"
    ]
  },
  {
    "id": "10862",
    "name": "KONURALP LİSE DURAĞI",
    "lat": 40.9057383,
    "lon": 31.153639,
    "routes": [
      "10010",
      "10090",
      "10140",
      "20013"
    ]
  },
  {
    "id": "10869",
    "name": "ÜSKÜBÜ İLK OKULU DURAĞI",
    "lat": 40.9049203,
    "lon": 31.1525218,
    "routes": [
      "10010",
      "10090",
      "10100",
      "10110",
      "10140",
      "20013"
    ]
  },
  {
    "id": "10871",
    "name": "KONURALP BELEDİYE DURAĞI",
    "lat": 40.9047759,
    "lon": 31.1494809,
    "routes": [
      "10010",
      "10090",
      "10100",
      "10110",
      "10140",
      "20013"
    ]
  },
  {
    "id": "10873",
    "name": "KONURALP MERKEZ DURAĞI",
    "lat": 40.9049482,
    "lon": 31.1471775,
    "routes": [
      "10010",
      "10090",
      "10100",
      "10140",
      "20013"
    ]
  },
  {
    "id": "10843",
    "name": "ÜNİVERSİTE KAVŞAĞI DURAĞI",
    "lat": 40.9007148,
    "lon": 31.1712356,
    "routes": [
      "10030",
      "10050",
      "10060",
      "10070",
      "10080",
      "10090",
      "10140",
      "10420",
      "10430",
      "20010",
      "20011",
      "20012",
      "20014",
      "20034",
      "20035"
    ]
  },
  {
    "id": "10845",
    "name": "ÜNİVERSİTE CAFELER DURAĞI",
    "lat": 40.8983944,
    "lon": 31.170152,
    "routes": [
      "10030",
      "10050",
      "10060",
      "10070",
      "10080",
      "10090",
      "10140",
      "10420",
      "10430",
      "20010",
      "20011",
      "20012",
      "20014",
      "20034",
      "20035"
    ]
  },
  {
    "id": "10847",
    "name": "BEÇİ SAPAK DURAĞI",
    "lat": 40.8956107,
    "lon": 31.1681296,
    "routes": [
      "10030",
      "10050",
      "10060",
      "10070",
      "10080",
      "10090",
      "10140",
      "10420",
      "10430",
      "20011",
      "20012",
      "20014",
      "20034",
      "20035"
    ]
  },
  {
    "id": "10900",
    "name": "BEÇİ SAPAK D655 DURAĞI",
    "lat": 40.8935417,
    "lon": 31.1671251,
    "routes": [
      "10030",
      "10050",
      "10060",
      "10070",
      "10090",
      "10100",
      "10110",
      "10140",
      "10160",
      "10420",
      "10430",
      "20010",
      "20011",
      "20014",
      "20034",
      "20035",
      "20050",
      "20051",
      "20053"
    ]
  },
  {
    "id": "10901",
    "name": "YAPILOJİ DURAĞI",
    "lat": 40.8822178,
    "lon": 31.1703826,
    "routes": [
      "10030",
      "10070",
      "10090",
      "10100",
      "10110",
      "10140",
      "10160",
      "10420",
      "20010",
      "20011",
      "20014",
      "20035",
      "20050",
      "20051",
      "20053"
    ]
  },
  {
    "id": "10903",
    "name": "ÇAM KÖY CAMİ DURAĞI",
    "lat": 40.8803217,
    "lon": 31.1700608,
    "routes": [
      "10030",
      "10070",
      "10090",
      "10100",
      "10110",
      "10140",
      "10160",
      "10420",
      "10430",
      "20010",
      "20011",
      "20014",
      "20035",
      "20050",
      "20051",
      "20053"
    ]
  },
  {
    "id": "10904",
    "name": "ÇAMKÖY MEZARLIK DURAĞI",
    "lat": 40.8784762,
    "lon": 31.1697738,
    "routes": [
      "10030",
      "10070",
      "10090",
      "10100",
      "10110",
      "10140",
      "10160",
      "10420",
      "10430",
      "20010",
      "20011",
      "20014",
      "20035",
      "20050",
      "20051",
      "20053"
    ]
  },
  {
    "id": "10907",
    "name": "YIĞILCA SAPAK DURAĞI",
    "lat": 40.8758195,
    "lon": 31.169409,
    "routes": [
      "10030",
      "10070",
      "10090",
      "10100",
      "10110",
      "10160",
      "10280",
      "10281",
      "10420",
      "20010",
      "20011",
      "20014",
      "20035",
      "20050",
      "20051",
      "20053"
    ]
  },
  {
    "id": "10909",
    "name": "DELTA TUĞLA FABRİKA DURAĞI",
    "lat": 40.87327,
    "lon": 31.1689422,
    "routes": [
      "10030",
      "10070",
      "10090",
      "10100",
      "10110",
      "10160",
      "10280",
      "10281",
      "10420",
      "10430",
      "20010",
      "20011",
      "20014",
      "20035",
      "20050",
      "20051",
      "20053"
    ]
  },
  {
    "id": "10911",
    "name": "SANCAKLAR MEZARLIK DURAĞI",
    "lat": 40.8695382,
    "lon": 31.1683442,
    "routes": [
      "10030",
      "10070",
      "10090",
      "10100",
      "10110",
      "10160",
      "10280",
      "10281",
      "10420",
      "10430",
      "20010",
      "20011",
      "20014",
      "20035",
      "20050",
      "20051",
      "20053"
    ]
  },
  {
    "id": "10914",
    "name": "PRESTİJ SAPAK DURAĞI",
    "lat": 40.865606,
    "lon": 31.1676561,
    "routes": [
      "10030",
      "10070",
      "10090",
      "10100",
      "10110",
      "10160",
      "10280",
      "10281",
      "10420",
      "10430",
      "20010",
      "20011",
      "20014",
      "20035",
      "20050",
      "20051",
      "20053"
    ]
  },
  {
    "id": "10915",
    "name": "ZİGANA ERMEK DURAĞI",
    "lat": 40.8632988,
    "lon": 31.1675288,
    "routes": [
      "10030",
      "10090",
      "10100",
      "10110",
      "10160",
      "10280",
      "10281",
      "10420",
      "20010",
      "20011",
      "20014",
      "20030",
      "20050",
      "20051",
      "20053"
    ]
  },
  {
    "id": "10918",
    "name": "MEHMET AKİF İNAN DURAĞI",
    "lat": 40.8617572,
    "lon": 31.1672606,
    "routes": [
      "10030",
      "10090",
      "10100",
      "10110",
      "10160",
      "10280",
      "10281",
      "10420",
      "20010",
      "20011",
      "20014",
      "20030",
      "20050",
      "20051",
      "20053"
    ]
  },
  {
    "id": "10919",
    "name": "PTT DURAĞI",
    "lat": 40.860327,
    "lon": 31.1670433,
    "routes": [
      "10030",
      "10090",
      "10100",
      "10110",
      "10160",
      "10280",
      "10281",
      "10420",
      "10430",
      "20010",
      "20011",
      "20014",
      "20030",
      "20050",
      "20051",
      "20053"
    ]
  },
  {
    "id": "10921",
    "name": "BEYCİLER SAPAK DURAĞI",
    "lat": 40.8577893,
    "lon": 31.1666222,
    "routes": [
      "10030",
      "10090",
      "10100",
      "10110",
      "10160",
      "10280",
      "10281",
      "10420",
      "10430",
      "20010",
      "20011",
      "20014",
      "20030",
      "20050",
      "20051",
      "20053"
    ]
  },
  {
    "id": "10925",
    "name": "BEYCİLER GALERİ DURAĞI",
    "lat": 40.856359,
    "lon": 31.1662708,
    "routes": [
      "10030",
      "10090",
      "10100",
      "10110",
      "10160",
      "10280",
      "10281",
      "10420",
      "10430",
      "20010",
      "20011",
      "20014",
      "20030",
      "20050",
      "20051",
      "20053"
    ]
  },
  {
    "id": "10449",
    "name": "DTK HALI SAHA",
    "lat": 40.855791,
    "lon": 31.1645139,
    "routes": [
      "10030",
      "10130"
    ]
  },
  {
    "id": "10454",
    "name": "SERVET BUCURGAT DURAĞI",
    "lat": 40.8561552,
    "lon": 31.162108,
    "routes": [
      "10030",
      "10130"
    ]
  },
  {
    "id": "10455",
    "name": "KÖRPEŞLER ANA OKULU",
    "lat": 40.8562434,
    "lon": 31.1606006,
    "routes": [
      "10030",
      "10130"
    ]
  },
  {
    "id": "10460",
    "name": "KÖRPEŞLER MUHTARLIK",
    "lat": 40.8560618,
    "lon": 31.1566618,
    "routes": [
      "10030",
      "10130"
    ]
  },
  {
    "id": "10462",
    "name": "AŞIYAN",
    "lat": 40.8559898,
    "lon": 31.1523689,
    "routes": [
      "10030",
      "10120",
      "10130"
    ]
  },
  {
    "id": "10463",
    "name": "AŞIYAN",
    "lat": 40.8566187,
    "lon": 31.1493796,
    "routes": [
      "10030",
      "10120",
      "10130"
    ]
  },
  {
    "id": "10466",
    "name": "HAMİT ŞERİFOĞLU",
    "lat": 40.8562495,
    "lon": 31.1465083,
    "routes": [
      "10030",
      "10120",
      "10130"
    ]
  },
  {
    "id": "10467",
    "name": "FEN LİSESİ",
    "lat": 40.8564402,
    "lon": 31.1440514,
    "routes": [
      "10030",
      "10120",
      "10130",
      "10300",
      "10301",
      "20150"
    ]
  },
  {
    "id": "10388",
    "name": "ÖĞRETMEN LİSESİ",
    "lat": 40.855859,
    "lon": 31.1421376,
    "routes": [
      "10030",
      "10120",
      "10130"
    ]
  },
  {
    "id": "10387",
    "name": "EKŞİOĞLU",
    "lat": 40.8531983,
    "lon": 31.1419941,
    "routes": [
      "10030",
      "10120",
      "10130"
    ]
  },
  {
    "id": "10385",
    "name": "FMA GARAJ DURAĞI",
    "lat": 40.8498669,
    "lon": 31.1418708,
    "routes": [
      "10030",
      "10120",
      "10130"
    ]
  },
  {
    "id": "10566",
    "name": "EMNİYET MÜDÜRLÜĞÜ DURAĞI",
    "lat": 40.8404441,
    "lon": 31.1370589,
    "routes": [
      "10030",
      "10090",
      "10110",
      "10160",
      "10190",
      "10200",
      "10210",
      "10220",
      "10221",
      "10230",
      "10240",
      "10250",
      "10300",
      "10301",
      "10320",
      "10330",
      "10340",
      "10360",
      "10410",
      "10420",
      "20030",
      "20050",
      "20051",
      "20053",
      "20150",
      "40041",
      "40042",
      "40043"
    ]
  },
  {
    "id": "11132",
    "name": "YENİ PAZARYERİ",
    "lat": 40.8448066,
    "lon": 31.1316784,
    "routes": [
      "10030",
      "10090",
      "10110",
      "10120",
      "10130",
      "10160",
      "10190",
      "10200",
      "10210",
      "10220",
      "10221",
      "10230",
      "10240",
      "10250",
      "10260",
      "10270",
      "10280",
      "10281",
      "10320",
      "10330",
      "10340",
      "10360",
      "10370",
      "10410",
      "10420",
      "20030",
      "20050",
      "20051",
      "20053",
      "20120"
    ]
  },
  {
    "id": "11115",
    "name": "YENİ PAZARYERİ SON DURAK",
    "lat": 40.8435649,
    "lon": 31.1272286,
    "routes": [
      "10030",
      "10090",
      "10110",
      "10120",
      "10130",
      "10160",
      "10190",
      "10200",
      "10210",
      "10220",
      "10221",
      "10230",
      "10240",
      "10250",
      "10260",
      "10270",
      "10280",
      "10281",
      "10320",
      "10330",
      "10340",
      "10360",
      "10370",
      "10410",
      "20030",
      "20050",
      "20051",
      "20053",
      "20120",
      "40041",
      "40042",
      "40043"
    ]
  },
  {
    "id": "11116",
    "name": "YENİ PAZARYERİ SON DURAK",
    "lat": 40.8431529,
    "lon": 31.1274995,
    "routes": [
      "10030",
      "10090",
      "10110",
      "10120",
      "10130",
      "10160",
      "10190",
      "10200",
      "10210",
      "10220",
      "10221",
      "10230",
      "10240",
      "10250",
      "10260",
      "10270",
      "10280",
      "10281",
      "10330",
      "10340",
      "10360",
      "10370",
      "10410",
      "20030",
      "20050",
      "20051",
      "20053",
      "20120",
      "40041",
      "40042",
      "40043"
    ]
  },
  {
    "id": "10501",
    "name": "PAZARYERİ HACI HİLMİ",
    "lat": 40.8438165,
    "lon": 31.1296426,
    "routes": [
      "10030",
      "10090",
      "10110",
      "10120",
      "10130",
      "10160",
      "10190",
      "10200",
      "10210",
      "10220",
      "10221",
      "10230",
      "10240",
      "10250",
      "10260",
      "10270",
      "10280",
      "10281",
      "10330",
      "10340",
      "10360",
      "10370",
      "10410",
      "20030",
      "20050",
      "20051",
      "20053",
      "20120",
      "40041",
      "40042",
      "40043"
    ]
  },
  {
    "id": "10502",
    "name": "YENİ PAZARYERİ",
    "lat": 40.8443875,
    "lon": 31.131689,
    "routes": [
      "10030",
      "10090",
      "10110",
      "10120",
      "10130",
      "10160",
      "10190",
      "10200",
      "10210",
      "10220",
      "10221",
      "10230",
      "10240",
      "10250",
      "10260",
      "10270",
      "10280",
      "10281",
      "10320",
      "10330",
      "10340",
      "10360",
      "10370",
      "10410",
      "10420",
      "20030",
      "20050",
      "20051",
      "20053",
      "20120",
      "40041",
      "40042",
      "40043"
    ]
  },
  {
    "id": "10565",
    "name": "EMNİYET MÜDÜRLÜĞÜ DURAĞI",
    "lat": 40.8402678,
    "lon": 31.1368459,
    "routes": [
      "10030",
      "10090",
      "10110",
      "10160",
      "10190",
      "10200",
      "10210",
      "10220",
      "10221",
      "10230",
      "10240",
      "10250",
      "10280",
      "10281",
      "10310",
      "10311",
      "10320",
      "10330",
      "10340",
      "10360",
      "10410",
      "10420",
      "20010",
      "20030",
      "20050",
      "20051",
      "20053",
      "40041",
      "40042",
      "40043"
    ]
  },
  {
    "id": "10384",
    "name": "FMA GARAJ DURAĞI",
    "lat": 40.8497744,
    "lon": 31.142006,
    "routes": [
      "10030",
      "10120",
      "10130"
    ]
  },
  {
    "id": "10386",
    "name": "EKŞİOĞLU",
    "lat": 40.85318,
    "lon": 31.1421974,
    "routes": [
      "10030",
      "10120",
      "10130"
    ]
  },
  {
    "id": "10389",
    "name": "ÖĞRETMEN LİSESİ",
    "lat": 40.8558807,
    "lon": 31.1423631,
    "routes": [
      "10030",
      "10120",
      "10130"
    ]
  },
  {
    "id": "10468",
    "name": "FEN LİSESİ",
    "lat": 40.8563347,
    "lon": 31.144148,
    "routes": [
      "10030",
      "10120",
      "10130",
      "10310",
      "10311"
    ]
  },
  {
    "id": "10465",
    "name": "HAMİT ŞERİFOĞLU",
    "lat": 40.8561379,
    "lon": 31.1465807,
    "routes": [
      "10030",
      "10120",
      "10130"
    ]
  },
  {
    "id": "10464",
    "name": "MEMUR-SEN",
    "lat": 40.8564715,
    "lon": 31.1494117,
    "routes": [
      "10030",
      "10120",
      "10130"
    ]
  },
  {
    "id": "10461",
    "name": "MEMUR-SEN",
    "lat": 40.8559014,
    "lon": 31.1522333,
    "routes": [
      "10030",
      "10120",
      "10130"
    ]
  },
  {
    "id": "10459",
    "name": "KÖRPEŞLER MUHTARLIK",
    "lat": 40.8560202,
    "lon": 31.1567261,
    "routes": [
      "10030",
      "10130",
      "10300",
      "10301",
      "20150"
    ]
  },
  {
    "id": "10456",
    "name": "KÖRPEŞLER ANA OKULU",
    "lat": 40.8560962,
    "lon": 31.1606562,
    "routes": [
      "10030",
      "10130"
    ]
  },
  {
    "id": "10453",
    "name": "SERVET BUCURGAT DURAĞI",
    "lat": 40.8560405,
    "lon": 31.1621483,
    "routes": [
      "10030",
      "10130"
    ]
  },
  {
    "id": "10450",
    "name": "DTK HALI SAHA",
    "lat": 40.8556307,
    "lon": 31.1643638,
    "routes": [
      "10030",
      "10130"
    ]
  },
  {
    "id": "10924",
    "name": "BEYCİLER GALERİ DURAĞI",
    "lat": 40.8563854,
    "lon": 31.1667322,
    "routes": [
      "10030",
      "10090",
      "10100",
      "10110",
      "10160",
      "10280",
      "10281",
      "10420",
      "10430",
      "20010",
      "20011",
      "20014",
      "20030",
      "20050",
      "20051",
      "20053"
    ]
  },
  {
    "id": "10922",
    "name": "BEYCİLER SAPAK DURAĞI",
    "lat": 40.8583836,
    "lon": 31.1671211,
    "routes": [
      "10030",
      "10090",
      "10100",
      "10110",
      "10160",
      "10280",
      "10281",
      "10420",
      "10430",
      "20010",
      "20011",
      "20014",
      "20030",
      "20050",
      "20051",
      "20053"
    ]
  },
  {
    "id": "10920",
    "name": "PTT DURAĞI",
    "lat": 40.860465,
    "lon": 31.1674429,
    "routes": [
      "10030",
      "10090",
      "10100",
      "10110",
      "10160",
      "10280",
      "10281",
      "10420",
      "10430",
      "20010",
      "20011",
      "20014",
      "20030",
      "20050",
      "20051",
      "20053"
    ]
  },
  {
    "id": "10917",
    "name": "MEHMET AKİF İNAN DURAĞI",
    "lat": 40.8617612,
    "lon": 31.1676387,
    "routes": [
      "10030",
      "10090",
      "10100",
      "10110",
      "10160",
      "10280",
      "10281",
      "10420",
      "10430",
      "20010",
      "20011",
      "20014",
      "20030",
      "20050",
      "20051",
      "20053"
    ]
  },
  {
    "id": "10916",
    "name": "ZİGANA ERMEK DURAĞI",
    "lat": 40.8635899,
    "lon": 31.1679767,
    "routes": [
      "10030",
      "10090",
      "10100",
      "10110",
      "10160",
      "10280",
      "10281",
      "10420",
      "10430",
      "20010",
      "20011",
      "20014",
      "20050",
      "20051",
      "20053"
    ]
  },
  {
    "id": "10913",
    "name": "PRESTİJ SAPAK DURAĞI",
    "lat": 40.8657379,
    "lon": 31.1682797,
    "routes": [
      "10030",
      "10070",
      "10090",
      "10100",
      "10110",
      "10160",
      "10280",
      "10281",
      "10420",
      "10430",
      "20010",
      "20011",
      "20014",
      "20035",
      "20050",
      "20051",
      "20053"
    ]
  },
  {
    "id": "10912",
    "name": "SANCAKLAR MEZARLIK DURAĞI",
    "lat": 40.8697349,
    "lon": 31.1687706,
    "routes": [
      "10030",
      "10070",
      "10090",
      "10100",
      "10110",
      "10160",
      "10280",
      "10281",
      "10420",
      "10430",
      "20010",
      "20011",
      "20014",
      "20035",
      "20050",
      "20051",
      "20053"
    ]
  },
  {
    "id": "10910",
    "name": "DELTA TUĞLA FABRİKA DURAĞI",
    "lat": 40.8724811,
    "lon": 31.1692963,
    "routes": [
      "10030",
      "10070",
      "10090",
      "10100",
      "10110",
      "10160",
      "10280",
      "10281",
      "10420",
      "10430",
      "20010",
      "20011",
      "20014",
      "20035",
      "20050",
      "20051",
      "20053"
    ]
  },
  {
    "id": "10908",
    "name": "YIĞILCA SAPAK DURAĞI",
    "lat": 40.8758678,
    "lon": 31.1698708,
    "routes": [
      "10030",
      "10070",
      "10090",
      "10100",
      "10110",
      "10160",
      "10280",
      "10281",
      "10420",
      "10430",
      "20010",
      "20011",
      "20014",
      "20035",
      "20050",
      "20051",
      "20053"
    ]
  },
  {
    "id": "10906",
    "name": "YIĞILCA SAPAK DURAĞI",
    "lat": 40.8770809,
    "lon": 31.169983,
    "routes": [
      "10030",
      "10070",
      "10090",
      "10100",
      "10110",
      "10140",
      "10160",
      "10420",
      "10430",
      "20010",
      "20011",
      "20014",
      "20035",
      "20050",
      "20051",
      "20053"
    ]
  },
  {
    "id": "10905",
    "name": "ÇAMKÖY MEZARLIK DURAĞI",
    "lat": 40.8789517,
    "lon": 31.1702458,
    "routes": [
      "10030",
      "10070",
      "10090",
      "10100",
      "10110",
      "10140",
      "10160",
      "10420",
      "10430",
      "20010",
      "20011",
      "20014",
      "20035",
      "20050",
      "20051",
      "20053"
    ]
  },
  {
    "id": "10902",
    "name": "ÇAM KÖY CAMİ DURAĞI",
    "lat": 40.88107,
    "lon": 31.1705624,
    "routes": [
      "10030",
      "10070",
      "10090",
      "10100",
      "10110",
      "10140",
      "10160",
      "10420",
      "10430",
      "20010",
      "20011",
      "20014",
      "20035",
      "20050",
      "20051",
      "20053"
    ]
  },
  {
    "id": "10848",
    "name": "BEÇİ SAPAK DURAĞI",
    "lat": 40.895218,
    "lon": 31.1677386,
    "routes": [
      "10030",
      "10050",
      "10060",
      "10070",
      "10080",
      "10090",
      "10140",
      "10160",
      "10420",
      "10430",
      "20010",
      "20011",
      "20012",
      "20034",
      "20035"
    ]
  },
  {
    "id": "10846",
    "name": "ÜNİVERSİTE CAFELER DURAĞI",
    "lat": 40.8983764,
    "lon": 31.1704558,
    "routes": [
      "10030",
      "10050",
      "10060",
      "10070",
      "10080",
      "10090",
      "10140",
      "10160",
      "10420",
      "10430",
      "20010",
      "20011",
      "20012",
      "20034",
      "20035"
    ]
  },
  {
    "id": "10844",
    "name": "ÜNİVERSİTE KAVŞAĞI DURAĞI",
    "lat": 40.9000224,
    "lon": 31.1712053,
    "routes": [
      "10030",
      "10050",
      "10060",
      "10070",
      "10080",
      "10090",
      "10140",
      "10160",
      "10420",
      "10430",
      "20010",
      "20011",
      "20012",
      "20034",
      "20035"
    ]
  },
  {
    "id": "10821",
    "name": "BEÇİ ORHAN GAZİ CAMİ DURAĞI",
    "lat": 40.9003792,
    "lon": 31.1864249,
    "routes": [
      "10030",
      "10080",
      "10430",
      "20014",
      "20035"
    ]
  },
  {
    "id": "10807",
    "name": "KAZIKOĞLU CAMİ DURAĞI",
    "lat": 40.8660109,
    "lon": 31.2122975,
    "routes": [
      "10050",
      "20034"
    ]
  },
  {
    "id": "11022",
    "name": "1. CADDE PARK DURAĞI",
    "lat": 40.8676224,
    "lon": 31.2202972,
    "routes": [
      "10050",
      "10130",
      "10140",
      "10150",
      "10190",
      "20034"
    ]
  },
  {
    "id": "11020",
    "name": "1. CADDE DURAĞI",
    "lat": 40.8678526,
    "lon": 31.2235843,
    "routes": [
      "10050",
      "10130",
      "10140",
      "10150",
      "10190",
      "20034"
    ]
  },
  {
    "id": "11018",
    "name": "GENÇLİK MERKEZİ DURAĞI",
    "lat": 40.868165,
    "lon": 31.2265722,
    "routes": [
      "10050",
      "10130",
      "10140",
      "10150",
      "10190",
      "10221",
      "10350",
      "20034"
    ]
  },
  {
    "id": "11044",
    "name": "BAHÇEŞEHİR İTFAİYE DURAĞI",
    "lat": 40.8676234,
    "lon": 31.2301074,
    "routes": [
      "10050",
      "10130",
      "10140",
      "10150",
      "10190",
      "10350",
      "20034"
    ]
  },
  {
    "id": "11046",
    "name": "ZÜBEYDE HANIM KIZ MESLEK DURAĞI",
    "lat": 40.8653455,
    "lon": 31.2301932,
    "routes": [
      "10050",
      "10130",
      "10140",
      "10150",
      "10190",
      "10350",
      "20034"
    ]
  },
  {
    "id": "11048",
    "name": "4. CADDE DURAĞI",
    "lat": 40.8635524,
    "lon": 31.2295683,
    "routes": [
      "10050",
      "10130",
      "10140",
      "10150",
      "10190",
      "10350",
      "20034"
    ]
  },
  {
    "id": "11050",
    "name": "BAHÇELİEVLER TELEKOM DURAĞI",
    "lat": 40.8621507,
    "lon": 31.2291096,
    "routes": [
      "10050",
      "10130",
      "10150",
      "10190",
      "10350",
      "20034"
    ]
  },
  {
    "id": "11053",
    "name": "BAHÇELİEVLER TEVHİT CAMİ DURAĞI",
    "lat": 40.8598686,
    "lon": 31.2288012,
    "routes": [
      "10050",
      "10130",
      "10150",
      "20034"
    ]
  },
  {
    "id": "11056",
    "name": "ZAHİDÜL KEVSERİ KIZ YURDU DURAĞI",
    "lat": 40.858548,
    "lon": 31.2286349,
    "routes": [
      "10050",
      "10130",
      "10150",
      "20034"
    ]
  },
  {
    "id": "11057",
    "name": "ATATÜRK LİSESİ DURAĞI",
    "lat": 40.8570691,
    "lon": 31.2284605,
    "routes": [
      "10050",
      "10130",
      "10150",
      "20034"
    ]
  },
  {
    "id": "11058",
    "name": "9. CADDE DURAĞI",
    "lat": 40.855582,
    "lon": 31.2271006,
    "routes": [
      "10050",
      "10130",
      "10140",
      "10150",
      "10210",
      "10350",
      "10410",
      "20034"
    ]
  },
  {
    "id": "11060",
    "name": "AFAD DURAĞI",
    "lat": 40.853882,
    "lon": 31.2243433,
    "routes": [
      "10050",
      "10130",
      "10140",
      "10150",
      "10190",
      "10210",
      "10350",
      "10410",
      "20034"
    ]
  },
  {
    "id": "11059",
    "name": "9. CADDE DURAĞI",
    "lat": 40.8553558,
    "lon": 31.2271583,
    "routes": [
      "10050",
      "10130",
      "10140",
      "10150",
      "10190",
      "10210",
      "10350",
      "20034"
    ]
  },
  {
    "id": "11061",
    "name": "9. CADDE DURAĞI",
    "lat": 40.8561278,
    "lon": 31.2285088,
    "routes": [
      "10050",
      "10130",
      "10140",
      "10150",
      "10190",
      "10210",
      "10350",
      "20034"
    ]
  },
  {
    "id": "11063",
    "name": "ANIT MEYDAN DURAĞI",
    "lat": 40.856848,
    "lon": 31.2307109,
    "routes": [
      "10050",
      "10130",
      "10150",
      "10210",
      "10350",
      "20034"
    ]
  },
  {
    "id": "11065",
    "name": "BAHÇELİEVLER SAĞLIK OCAĞI DURAĞI",
    "lat": 40.8602784,
    "lon": 31.2313895,
    "routes": [
      "10050",
      "10130",
      "10150",
      "10210",
      "10350",
      "20034"
    ]
  },
  {
    "id": "11134",
    "name": "BAHÇELİEVLER MAHALLESİ",
    "lat": 40.8635889,
    "lon": 31.2331665,
    "routes": [
      "10050",
      "10130",
      "10150",
      "10210",
      "10350",
      "20034"
    ]
  },
  {
    "id": "11069",
    "name": "BAHÇELİEVLER ANA OKULU DURAĞI",
    "lat": 40.8643252,
    "lon": 31.2347932,
    "routes": [
      "10050",
      "10130",
      "10150",
      "10210",
      "10350",
      "20034"
    ]
  },
  {
    "id": "11071",
    "name": "BAYRAK TEPE SPOR OKULU DURAĞI",
    "lat": 40.8656498,
    "lon": 31.2375103,
    "routes": [
      "10050",
      "10130",
      "10150",
      "10210",
      "10350",
      "20034"
    ]
  },
  {
    "id": "11073",
    "name": "ESENTEPE SEYİR PARK DURAĞI",
    "lat": 40.8645971,
    "lon": 31.2408362,
    "routes": [
      "10050",
      "10130",
      "10150",
      "10210",
      "10350",
      "20034"
    ]
  },
  {
    "id": "11075",
    "name": "ESENTEPE CADDE DURAĞI",
    "lat": 40.8636579,
    "lon": 31.2407142,
    "routes": [
      "10050",
      "10130",
      "10150",
      "10210",
      "10350",
      "20034"
    ]
  },
  {
    "id": "10973",
    "name": "HAZRETİ ÖMER CAMİ DURAĞI",
    "lat": 40.8619397,
    "lon": 31.2404446,
    "routes": [
      "10050",
      "10130",
      "10150",
      "10210",
      "10350",
      "20034"
    ]
  },
  {
    "id": "11078",
    "name": "KADIGİL DURAĞI",
    "lat": 40.8610786,
    "lon": 31.2402716,
    "routes": [
      "10050",
      "10130",
      "10150",
      "10210",
      "10350",
      "20034"
    ]
  },
  {
    "id": "11079",
    "name": "ESENTEPE MAHALLE DURAĞI",
    "lat": 40.8592478,
    "lon": 31.2394924,
    "routes": [
      "10050",
      "10130",
      "10150",
      "10210",
      "10350",
      "20034"
    ]
  },
  {
    "id": "11082",
    "name": "ESENTEPE BÜFE DURAĞI",
    "lat": 40.8582944,
    "lon": 31.2387414,
    "routes": [
      "10050",
      "10130",
      "10150",
      "10210",
      "10350",
      "20034"
    ]
  },
  {
    "id": "11100",
    "name": "YEŞİLTEPE MERDİVEN DURAĞI",
    "lat": 40.8568764,
    "lon": 31.2418474,
    "routes": [
      "10050",
      "10130",
      "10150",
      "10350",
      "20034"
    ]
  },
  {
    "id": "11097",
    "name": "YEŞİLTEPE SOKAK DURAĞI",
    "lat": 40.8550586,
    "lon": 31.240686,
    "routes": [
      "10050",
      "10130",
      "10150",
      "10350",
      "20034"
    ]
  },
  {
    "id": "11096",
    "name": "YEŞİLTEPE MEYDAN DURAĞI",
    "lat": 40.8534985,
    "lon": 31.2408094,
    "routes": [
      "10050",
      "10130",
      "10150",
      "10350",
      "20034"
    ]
  },
  {
    "id": "11093",
    "name": "YEŞİLTEPE UMUT CAMİ DURAĞI",
    "lat": 40.8528879,
    "lon": 31.2426172,
    "routes": [
      "10050",
      "10130",
      "10150",
      "10350",
      "20034"
    ]
  },
  {
    "id": "11091",
    "name": "YEŞİLTEPE 14. BÖLGE DURAĞI",
    "lat": 40.8517172,
    "lon": 31.2437491,
    "routes": [
      "10050",
      "10130",
      "10150",
      "10350",
      "20034"
    ]
  },
  {
    "id": "11088",
    "name": "YEŞİLTEPE CADDE DURAĞI",
    "lat": 40.8502808,
    "lon": 31.2402408,
    "routes": [
      "10050",
      "10130",
      "10350"
    ]
  },
  {
    "id": "10350",
    "name": "SALLAR MUHTARLIK",
    "lat": 40.8500698,
    "lon": 31.2361585,
    "routes": [
      "10050",
      "10130",
      "10340",
      "10350"
    ]
  },
  {
    "id": "10352",
    "name": "SALLAR MERKEZ",
    "lat": 40.8503041,
    "lon": 31.234289,
    "routes": [
      "10050",
      "10340",
      "10350"
    ]
  },
  {
    "id": "10351",
    "name": "SALLAR MUHTARLIK",
    "lat": 40.8497584,
    "lon": 31.2362349,
    "routes": [
      "10050",
      "10130",
      "10140",
      "10150",
      "10340",
      "10350",
      "10410",
      "20034"
    ]
  },
  {
    "id": "11087",
    "name": "YEŞİLTEPE HUZUR EVİ DURAĞI",
    "lat": 40.8498223,
    "lon": 31.2375532,
    "routes": [
      "10050",
      "10130",
      "10140",
      "10150",
      "10350",
      "10410",
      "20034"
    ]
  },
  {
    "id": "11142",
    "name": "YEŞİLTEPE CADDE DURAĞI",
    "lat": 40.8501712,
    "lon": 31.2404627,
    "routes": [
      "10050",
      "10130",
      "10140",
      "10150",
      "10350",
      "10410",
      "20034"
    ]
  },
  {
    "id": "11089",
    "name": "YEŞİLTEPE CADDE DURAĞI",
    "lat": 40.8506905,
    "lon": 31.2419627,
    "routes": [
      "10050",
      "10130",
      "10140",
      "10150",
      "10350",
      "10410",
      "20034"
    ]
  },
  {
    "id": "11090",
    "name": "YEŞİLTEPE 14. BÖLGE DURAĞI",
    "lat": 40.8513764,
    "lon": 31.2435774,
    "routes": [
      "10050",
      "10130",
      "10140",
      "10150",
      "10350",
      "10410",
      "20034"
    ]
  },
  {
    "id": "11092",
    "name": "YEŞİLTEPE YOKUŞ DURAĞI",
    "lat": 40.8524172,
    "lon": 31.2444384,
    "routes": [
      "10050",
      "10130",
      "10140",
      "10150",
      "10350",
      "10410",
      "20034"
    ]
  },
  {
    "id": "11094",
    "name": "YEŞİLTEPE UMUT CAMİ DURAĞI",
    "lat": 40.8530968,
    "lon": 31.2426119,
    "routes": [
      "10050",
      "10130",
      "10140",
      "10150",
      "10350",
      "10410",
      "20034"
    ]
  },
  {
    "id": "11095",
    "name": "YEŞİLTEPE MEYDAN DURAĞI",
    "lat": 40.8537075,
    "lon": 31.2409516,
    "routes": [
      "10050",
      "10130",
      "10140",
      "10150",
      "10350",
      "10410",
      "20034"
    ]
  },
  {
    "id": "11098",
    "name": "YEŞİLTEPE SOKAK DURAĞI",
    "lat": 40.8549998,
    "lon": 31.2409221,
    "routes": [
      "10050",
      "10130",
      "10140",
      "10350",
      "10410",
      "20034"
    ]
  },
  {
    "id": "11099",
    "name": "YEŞİLTEPE MERDİVEN DURAĞI",
    "lat": 40.856852,
    "lon": 31.2421532,
    "routes": [
      "10050",
      "10130",
      "10140",
      "10150",
      "10350",
      "10410",
      "20034"
    ]
  },
  {
    "id": "11085",
    "name": "ESENTEPE MUHTARLIK DURAĞI",
    "lat": 40.8561967,
    "lon": 31.235512,
    "routes": [
      "10050",
      "10130",
      "10140",
      "10210",
      "10350",
      "20034"
    ]
  },
  {
    "id": "11084",
    "name": "ESENTEPE YOKUŞ DURAĞI",
    "lat": 40.8568622,
    "lon": 31.2364776,
    "routes": [
      "10050",
      "10130",
      "10140",
      "10150",
      "10210",
      "10350",
      "20034"
    ]
  },
  {
    "id": "11081",
    "name": "ESENTEPE BÜFE DURAĞI",
    "lat": 40.8582254,
    "lon": 31.2388433,
    "routes": [
      "10050",
      "10130",
      "10140",
      "10150",
      "10210",
      "10350",
      "20034"
    ]
  },
  {
    "id": "11080",
    "name": "ESENTEPE MAHALLE DURAĞI",
    "lat": 40.8592215,
    "lon": 31.2396105,
    "routes": [
      "10050",
      "10130",
      "10140",
      "10150",
      "10210",
      "10350",
      "20034"
    ]
  },
  {
    "id": "11077",
    "name": "KADIGİL DURAĞI",
    "lat": 40.8610573,
    "lon": 31.240391,
    "routes": [
      "10050",
      "10130",
      "10140",
      "10150",
      "10210",
      "10350",
      "20034"
    ]
  },
  {
    "id": "10974",
    "name": "HAZRETİ ÖMER CAMİ",
    "lat": 40.8619235,
    "lon": 31.2405868,
    "routes": [
      "10050",
      "10130",
      "10140",
      "10150",
      "10210",
      "10350",
      "20034"
    ]
  },
  {
    "id": "11076",
    "name": "ESENTEPE CADDE DURAĞI",
    "lat": 40.8636214,
    "lon": 31.2408362,
    "routes": [
      "10050",
      "10130",
      "10140",
      "10150",
      "10210",
      "10350",
      "20034"
    ]
  },
  {
    "id": "11074",
    "name": "ESENTEPE SEYİR PARK DURAĞI",
    "lat": 40.8647634,
    "lon": 31.2409033,
    "routes": [
      "10050",
      "10130",
      "10140",
      "10150",
      "10210",
      "10350",
      "20034"
    ]
  },
  {
    "id": "11072",
    "name": "BAYRAK TEPE SPOR OKULU DURAĞI",
    "lat": 40.8657776,
    "lon": 31.2374137,
    "routes": [
      "10050",
      "10130",
      "10140",
      "10150",
      "10210",
      "10350",
      "20034"
    ]
  },
  {
    "id": "11070",
    "name": "BAHÇELİEVLER ANA OKULU DURAĞI",
    "lat": 40.8645169,
    "lon": 31.2347852,
    "routes": [
      "10050",
      "10130",
      "10140",
      "10150",
      "10210",
      "10350",
      "20034"
    ]
  },
  {
    "id": "11067",
    "name": "BAHÇELİEVLER MAHALLE DURAĞI",
    "lat": 40.8637897,
    "lon": 31.2331624,
    "routes": [
      "10050",
      "10130",
      "10140",
      "10150",
      "10210",
      "10350",
      "20034"
    ]
  },
  {
    "id": "11066",
    "name": "BAHÇELİEVLER SAĞLIK OCAĞI DURAĞI",
    "lat": 40.8604772,
    "lon": 31.2311535,
    "routes": [
      "10050",
      "10130",
      "10140",
      "10350",
      "20034"
    ]
  },
  {
    "id": "11062",
    "name": "ANIT MEYDAN DURAĞI",
    "lat": 40.8570549,
    "lon": 31.2305312,
    "routes": [
      "10050",
      "10130",
      "10140",
      "10150",
      "10350",
      "10410",
      "20034"
    ]
  },
  {
    "id": "11055",
    "name": "ZAHİDÜL KEVSERİ KIZ YURDU DURAĞI",
    "lat": 40.8585094,
    "lon": 31.2289539,
    "routes": [
      "10050",
      "10130",
      "10140",
      "10150",
      "10350",
      "20034"
    ]
  },
  {
    "id": "11054",
    "name": "BAHÇELİEVLER TEVHİT CAMİ DURAĞI",
    "lat": 40.8598747,
    "lon": 31.2290533,
    "routes": [
      "10050",
      "10130",
      "10140",
      "10150",
      "10350",
      "20034"
    ]
  },
  {
    "id": "11049",
    "name": "BAHÇELİEVLER TELEKOM DURAĞI",
    "lat": 40.8621385,
    "lon": 31.2294073,
    "routes": [
      "10050",
      "10130",
      "10140",
      "10150",
      "10190",
      "10350",
      "20034"
    ]
  },
  {
    "id": "11047",
    "name": "4. CADDE DURAĞI",
    "lat": 40.8638688,
    "lon": 31.2299786,
    "routes": [
      "10050",
      "10130",
      "10140",
      "10150",
      "10190",
      "10350",
      "20034"
    ]
  },
  {
    "id": "11045",
    "name": "ZÜBEYDE HANIM KIZ MESLEK DURAĞI",
    "lat": 40.8654145,
    "lon": 31.2305339,
    "routes": [
      "10050",
      "10130",
      "10140",
      "10150",
      "10190",
      "10350",
      "20034"
    ]
  },
  {
    "id": "11043",
    "name": "BAHÇEŞEHİR İTFAİYE DURAĞI",
    "lat": 40.8678364,
    "lon": 31.2302603,
    "routes": [
      "10050",
      "10130",
      "10140",
      "10150",
      "10190",
      "10350",
      "20034"
    ]
  },
  {
    "id": "11017",
    "name": "3. BÖLGE HİCRET CAMİ DURAĞI",
    "lat": 40.8686274,
    "lon": 31.2271248,
    "routes": [
      "10050",
      "10130",
      "10140",
      "10150",
      "10190",
      "10220",
      "10221",
      "10350",
      "20034"
    ]
  },
  {
    "id": "11019",
    "name": "1. CADDE DURAĞI",
    "lat": 40.8680342,
    "lon": 31.2233496,
    "routes": [
      "10050",
      "10130",
      "10140",
      "10150",
      "10190",
      "10220",
      "20034"
    ]
  },
  {
    "id": "11021",
    "name": "1. CADDE PARK DURAĞI",
    "lat": 40.8678668,
    "lon": 31.2204809,
    "routes": [
      "10050",
      "10130",
      "10140",
      "10150",
      "10190",
      "10220",
      "10221",
      "20034"
    ]
  },
  {
    "id": "10679",
    "name": "TOTAL ENERDİES DURAĞI",
    "lat": 40.8605989,
    "lon": 31.211509,
    "routes": [
      "10060",
      "10130",
      "10150",
      "10190",
      "10210",
      "10220",
      "10221",
      "10410"
    ]
  },
  {
    "id": "10678",
    "name": "GO PETROL DURAĞI",
    "lat": 40.8586048,
    "lon": 31.2093256,
    "routes": [
      "10060",
      "10130",
      "10150",
      "10190",
      "10210",
      "10220",
      "10221",
      "10410"
    ]
  },
  {
    "id": "10676",
    "name": "KUYUMCUHACIALİ ALT GEÇİT DURAĞI",
    "lat": 40.8560831,
    "lon": 31.2061177,
    "routes": [
      "10060",
      "10130",
      "10150",
      "10190",
      "10210",
      "10220",
      "10221",
      "10410"
    ]
  },
  {
    "id": "10673",
    "name": "PARK ARENA DURAĞI",
    "lat": 40.8535513,
    "lon": 31.2023251,
    "routes": [
      "10060",
      "10130",
      "10150",
      "10190",
      "10210",
      "10220",
      "10221",
      "10410"
    ]
  },
  {
    "id": "10672",
    "name": "YAHYALAR EKMEK DURAĞI",
    "lat": 40.8511735,
    "lon": 31.1977492,
    "routes": [
      "10060",
      "10130",
      "10150",
      "10190",
      "10200",
      "10210",
      "10220",
      "10221",
      "10410"
    ]
  },
  {
    "id": "10670",
    "name": "KUŞCUOĞLU SİTELER DURAĞI",
    "lat": 40.8484852,
    "lon": 31.1924358,
    "routes": [
      "10060",
      "10130",
      "10150",
      "10190",
      "10200",
      "10210",
      "10220",
      "10221",
      "10410"
    ]
  },
  {
    "id": "10667",
    "name": "TAÇMAHAL DURAĞI",
    "lat": 40.8474586,
    "lon": 31.1903597,
    "routes": [
      "10060",
      "10130",
      "10150",
      "10190",
      "10200",
      "10210",
      "10220",
      "10221",
      "10410"
    ]
  },
  {
    "id": "10665",
    "name": "ALLI TURNA SİTE DURAĞI",
    "lat": 40.8461255,
    "lon": 31.1878143,
    "routes": [
      "10060",
      "10130",
      "10150",
      "10190",
      "10200",
      "10210",
      "10220",
      "10221",
      "10410"
    ]
  },
  {
    "id": "10663",
    "name": "TOKİ SAPAK DURAĞI",
    "lat": 40.8441858,
    "lon": 31.1844642,
    "routes": [
      "10060",
      "10070",
      "10190",
      "10200",
      "10210",
      "10220",
      "10221",
      "10340",
      "10410",
      "20035"
    ]
  },
  {
    "id": "10662",
    "name": "BAĞLANTI YOLU HALKMAR DURAĞI",
    "lat": 40.8420856,
    "lon": 31.1812134,
    "routes": [
      "10060",
      "10070",
      "10190",
      "10200",
      "10210",
      "10220",
      "10221",
      "10340",
      "10410",
      "20035"
    ]
  },
  {
    "id": "10660",
    "name": "BAĞLANTI YOLU TRAFO",
    "lat": 40.840513,
    "lon": 31.1788973,
    "routes": [
      "10060",
      "10070",
      "10190",
      "10200",
      "10210",
      "10220",
      "10221",
      "10240",
      "10340",
      "10370",
      "10410",
      "20035"
    ]
  },
  {
    "id": "11135",
    "name": "HAYDAR GÖRDEBİL DURAĞI",
    "lat": 40.83545,
    "lon": 31.1705704,
    "routes": [
      "10060",
      "10070",
      "10120",
      "10150",
      "10240",
      "10340",
      "10360",
      "20035"
    ]
  },
  {
    "id": "10583",
    "name": "TERMİNAL DURAĞI",
    "lat": 40.8267196,
    "lon": 31.1681766,
    "routes": [
      "10060",
      "10150",
      "10300",
      "10301",
      "10310",
      "10311",
      "10430",
      "20011",
      "20014",
      "20035"
    ]
  },
  {
    "id": "10584",
    "name": "TERMİNAL ÇEVRE YOL DURAĞI",
    "lat": 40.82883,
    "lon": 31.167054,
    "routes": [
      "10060",
      "10070",
      "10100",
      "10120",
      "10150",
      "10240",
      "10250",
      "10300",
      "10301",
      "10310",
      "10311",
      "10340",
      "10360",
      "20011",
      "20035",
      "40041",
      "40042",
      "40043"
    ]
  },
  {
    "id": "10585",
    "name": "YENİ CAMİ DURAĞI",
    "lat": 40.8316165,
    "lon": 31.1683227,
    "routes": [
      "10060",
      "10070",
      "10100",
      "10120",
      "10150",
      "10240",
      "10250",
      "10300",
      "10301",
      "10310",
      "10311",
      "10340",
      "10360",
      "20011",
      "20035",
      "20150",
      "40041",
      "40042",
      "40043"
    ]
  },
  {
    "id": "10586",
    "name": "HAYDAR GÖRDEBİL DURAĞI",
    "lat": 40.8352999,
    "lon": 31.1709888,
    "routes": [
      "10060",
      "10070",
      "10100",
      "10120",
      "10240",
      "10250",
      "10340",
      "10360",
      "20035",
      "40041",
      "40042",
      "40043"
    ]
  },
  {
    "id": "10597",
    "name": "BAZLAMACI DURAĞI",
    "lat": 40.8354196,
    "lon": 31.1720053,
    "routes": [
      "10060",
      "10070",
      "10100",
      "10120",
      "10250",
      "10360",
      "20035",
      "40041",
      "40042",
      "40043"
    ]
  },
  {
    "id": "10599",
    "name": "FATİH ORTA OKUL DURAĞI",
    "lat": 40.8340772,
    "lon": 31.1746795,
    "routes": [
      "10060",
      "10070",
      "10100",
      "10120",
      "10250",
      "10360",
      "20035",
      "40041",
      "40042",
      "40043"
    ]
  },
  {
    "id": "10601",
    "name": "BİZİM MARKET DURAĞI",
    "lat": 40.833234,
    "lon": 31.1763103,
    "routes": [
      "10060",
      "10070",
      "10100",
      "10120",
      "10250",
      "20035",
      "40041",
      "40042",
      "40043"
    ]
  },
  {
    "id": "10603",
    "name": "ALGÜN AGORA DURAĞI",
    "lat": 40.8320945,
    "lon": 31.1785446,
    "routes": [
      "10060",
      "10070",
      "10100",
      "10120",
      "10250",
      "20035",
      "40041",
      "40042",
      "40043"
    ]
  },
  {
    "id": "10605",
    "name": "KAPSAN DURAĞI",
    "lat": 40.8307154,
    "lon": 31.1812322,
    "routes": [
      "10060",
      "10070",
      "10100",
      "10120",
      "10250",
      "20035",
      "40041",
      "40042",
      "40043"
    ]
  },
  {
    "id": "10607",
    "name": "MESKAP DURAĞI",
    "lat": 40.8296459,
    "lon": 31.1833069,
    "routes": [
      "10060",
      "10070",
      "10100",
      "10120",
      "10250",
      "20035",
      "40041",
      "40042",
      "40043"
    ]
  },
  {
    "id": "10609",
    "name": "KADIN EMEĞİ MERKEZİ",
    "lat": 40.8276255,
    "lon": 31.1870901,
    "routes": [
      "10060",
      "10070",
      "10100",
      "10120",
      "10250",
      "20035",
      "40041",
      "40042",
      "40043"
    ]
  },
  {
    "id": "10611",
    "name": "ADELET SARAYI DURAĞI",
    "lat": 40.8266371,
    "lon": 31.1899105,
    "routes": [
      "10060",
      "10070",
      "10100",
      "10120",
      "10250",
      "20035",
      "40041",
      "40042",
      "40043"
    ]
  },
  {
    "id": "10613",
    "name": "KÜLTÜR MERKEZİ DURAĞI",
    "lat": 40.8259338,
    "lon": 31.1919771,
    "routes": [
      "10060",
      "10070",
      "10100",
      "10120",
      "10250",
      "20035",
      "40041",
      "40042",
      "40043"
    ]
  },
  {
    "id": "10615",
    "name": "SOĞANCI YURT DURAĞI",
    "lat": 40.8250935,
    "lon": 31.1943857,
    "routes": [
      "10060",
      "10070",
      "10100",
      "10120",
      "20035",
      "40041",
      "40042",
      "40043"
    ]
  },
  {
    "id": "10647",
    "name": "AKPINAR SAPAĞI DURAĞI",
    "lat": 40.8240503,
    "lon": 31.1969231,
    "routes": [
      "10060",
      "10100",
      "10120",
      "10360",
      "20035"
    ]
  },
  {
    "id": "10645",
    "name": "JANDARMA ALAY KOMUTANLIĞI DURAĞI",
    "lat": 40.8222844,
    "lon": 31.200359,
    "routes": [
      "10060",
      "10100",
      "10120",
      "10360",
      "20035",
      "40041",
      "40042",
      "40043"
    ]
  },
  {
    "id": "10643",
    "name": "HACIALİLER SAPAK",
    "lat": 40.8203663,
    "lon": 31.2041329,
    "routes": [
      "10060",
      "10120",
      "10360",
      "20035",
      "20150",
      "40041",
      "40042",
      "40043"
    ]
  },
  {
    "id": "10642",
    "name": "GÖKÇE KÖY DURAĞI",
    "lat": 40.8191098,
    "lon": 31.2067265,
    "routes": [
      "10060",
      "10120",
      "10360",
      "20035",
      "20150",
      "40041",
      "40042",
      "40043"
    ]
  },
  {
    "id": "10641",
    "name": "GÖKÇE KÖY DURAĞI",
    "lat": 40.8193859,
    "lon": 31.2069975,
    "routes": [
      "10060",
      "10070",
      "10100",
      "10120",
      "10150",
      "10360",
      "20035",
      "40041",
      "40042",
      "40043"
    ]
  },
  {
    "id": "10232",
    "name": "HACIALİLER SAPAK",
    "lat": 40.8206444,
    "lon": 31.2046505,
    "routes": [
      "10060",
      "10070",
      "20035"
    ]
  },
  {
    "id": "10644",
    "name": "JANDARMA ALAY KOMUTANLIĞI DURAĞI",
    "lat": 40.8226417,
    "lon": 31.2008472,
    "routes": [
      "10060",
      "10070",
      "10100",
      "10120",
      "10150",
      "20035",
      "20150",
      "40041",
      "40042",
      "40043"
    ]
  },
  {
    "id": "10646",
    "name": "AKPINAR SAPAĞI DURAĞI",
    "lat": 40.8244339,
    "lon": 31.197135,
    "routes": [
      "10060",
      "10070",
      "10100",
      "10120",
      "10150",
      "10360",
      "20035",
      "20150",
      "40041",
      "40042",
      "40043"
    ]
  },
  {
    "id": "10614",
    "name": "SOĞANCI YURT DURAĞI",
    "lat": 40.8252519,
    "lon": 31.1944984,
    "routes": [
      "10060",
      "10070",
      "10100",
      "10120",
      "10150",
      "10360",
      "20035",
      "40041",
      "40042",
      "40043"
    ]
  },
  {
    "id": "10612",
    "name": "KÜLTÜR MERKEZİ DURAĞI",
    "lat": 40.8260465,
    "lon": 31.1921112,
    "routes": [
      "10060",
      "10070",
      "10100",
      "10120",
      "10150",
      "10250",
      "10360",
      "20035",
      "40041",
      "40042",
      "40043"
    ]
  },
  {
    "id": "10610",
    "name": "ADELET SARAYI DURAĞI",
    "lat": 40.8267802,
    "lon": 31.1899359,
    "routes": [
      "10060",
      "10070",
      "10100",
      "10120",
      "10150",
      "10250",
      "10360",
      "20035",
      "40041",
      "40042",
      "40043"
    ]
  },
  {
    "id": "10608",
    "name": "KADIN EMEĞİ MERKEZİ",
    "lat": 40.8277605,
    "lon": 31.1872269,
    "routes": [
      "10060",
      "10070",
      "10100",
      "10120",
      "10150",
      "10250",
      "10360",
      "20035",
      "40041",
      "40042",
      "40043"
    ]
  },
  {
    "id": "10606",
    "name": "MESKAP DURAĞI",
    "lat": 40.8297393,
    "lon": 31.1833592,
    "routes": [
      "10060",
      "10070",
      "10100",
      "10120",
      "10150",
      "10250",
      "10360",
      "20035",
      "40041",
      "40042",
      "40043"
    ]
  },
  {
    "id": "10604",
    "name": "KAPSAN DURAĞI",
    "lat": 40.8308474,
    "lon": 31.1812778,
    "routes": [
      "10060",
      "10070",
      "10100",
      "10120",
      "10150",
      "10250",
      "10360",
      "20035",
      "40041",
      "40042",
      "40043"
    ]
  },
  {
    "id": "10602",
    "name": "ALGÜN AGORA DURAĞI",
    "lat": 40.832199,
    "lon": 31.1786251,
    "routes": [
      "10060",
      "10070",
      "10100",
      "10120",
      "10150",
      "10250",
      "10360",
      "20035",
      "40041",
      "40042",
      "40043"
    ]
  },
  {
    "id": "10600",
    "name": "BİZİM MARKET DURAĞI",
    "lat": 40.8333517,
    "lon": 31.1764015,
    "routes": [
      "10060",
      "10070",
      "10100",
      "10120",
      "10150",
      "10250",
      "10360",
      "20035",
      "40041",
      "40042",
      "40043"
    ]
  },
  {
    "id": "10598",
    "name": "FATİH ORTA OKUL DURAĞI",
    "lat": 40.8341979,
    "lon": 31.1747305,
    "routes": [
      "10060",
      "10070",
      "10100",
      "10120",
      "10150",
      "10250",
      "10360",
      "20035",
      "40041",
      "40042",
      "40043"
    ]
  },
  {
    "id": "10596",
    "name": "BAZLAMACI DURAĞI",
    "lat": 40.8355901,
    "lon": 31.1720188,
    "routes": [
      "10060",
      "10070",
      "10100",
      "10120",
      "10150",
      "10250",
      "10360",
      "20035",
      "40041",
      "40042",
      "40043"
    ]
  },
  {
    "id": "10659",
    "name": "BAĞLANTI YOLU TRAFO",
    "lat": 40.8403182,
    "lon": 31.1791374,
    "routes": [
      "10060",
      "10070",
      "10150",
      "10190",
      "10200",
      "10210",
      "10220",
      "10221",
      "10240",
      "10340",
      "10370",
      "10410",
      "20035"
    ]
  },
  {
    "id": "10661",
    "name": "BAĞLANTI YOLU HALKMAR DURAĞI",
    "lat": 40.8420511,
    "lon": 31.1818491,
    "routes": [
      "10060",
      "10070",
      "10150",
      "10190",
      "10200",
      "10210",
      "10220",
      "10221",
      "10340",
      "10410",
      "20035"
    ]
  },
  {
    "id": "10664",
    "name": "TOKİ SAPAK DURAĞI",
    "lat": 40.8440518,
    "lon": 31.1847942,
    "routes": [
      "10060",
      "10150",
      "10190",
      "10200",
      "10210",
      "10220",
      "10221",
      "10340",
      "10410"
    ]
  },
  {
    "id": "10666",
    "name": "ALLI TURNA SİTE DURAĞI",
    "lat": 40.8460281,
    "lon": 31.188399,
    "routes": [
      "10060",
      "10130",
      "10150",
      "10190",
      "10200",
      "10210",
      "10220",
      "10221",
      "10410"
    ]
  },
  {
    "id": "10668",
    "name": "TAÇMAHAL DURAĞI",
    "lat": 40.8472009,
    "lon": 31.1906548,
    "routes": [
      "10060",
      "10130",
      "10150",
      "10190",
      "10200",
      "10210",
      "10220",
      "10221",
      "10410"
    ]
  },
  {
    "id": "10669",
    "name": "KUŞCUOĞLU SİTELER DURAĞI",
    "lat": 40.8482397,
    "lon": 31.1926772,
    "routes": [
      "10060",
      "10130",
      "10150",
      "10190",
      "10200",
      "10210",
      "10220",
      "10221",
      "10410"
    ]
  },
  {
    "id": "10671",
    "name": "YAHYALAR EKMEK DURAĞI",
    "lat": 40.8507961,
    "lon": 31.1978136,
    "routes": [
      "10060",
      "10130",
      "10150",
      "10190",
      "10200",
      "10210",
      "10220",
      "10221",
      "10410"
    ]
  },
  {
    "id": "10674",
    "name": "PARK ARENA DURAĞI",
    "lat": 40.853323,
    "lon": 31.2025705,
    "routes": [
      "10060",
      "10130",
      "10150",
      "10190",
      "10200",
      "10210",
      "10220",
      "10221",
      "10410"
    ]
  },
  {
    "id": "10675",
    "name": "KUYUMCUHACIALİ ALT GEÇİT DURAĞI",
    "lat": 40.8559411,
    "lon": 31.2065147,
    "routes": [
      "10060",
      "10130",
      "10150",
      "10190",
      "10200",
      "10210",
      "10220",
      "10221",
      "10410"
    ]
  },
  {
    "id": "10677",
    "name": "GO PETROL DURAĞI",
    "lat": 40.8585094,
    "lon": 31.2096475,
    "routes": [
      "10060",
      "10130",
      "10150",
      "10190",
      "10200",
      "10210",
      "10220",
      "10221",
      "10410"
    ]
  },
  {
    "id": "10680",
    "name": "TOTAL ENERDİES DURAĞI",
    "lat": 40.8606597,
    "lon": 31.2121259,
    "routes": [
      "10060",
      "10130",
      "10150",
      "10190",
      "10200",
      "10210",
      "10220",
      "10221",
      "10410"
    ]
  },
  {
    "id": "10682",
    "name": "BAĞLANTI YOLU KAVŞAK DURAĞI",
    "lat": 40.8628871,
    "lon": 31.2142207,
    "routes": [
      "10060",
      "10130",
      "10150",
      "10190",
      "10200",
      "10210",
      "10220",
      "10221",
      "10410"
    ]
  },
  {
    "id": "10823",
    "name": "BEÇİ YURT DURAĞI",
    "lat": 40.9002434,
    "lon": 31.1878116,
    "routes": [
      "10070",
      "10080",
      "10430",
      "20014",
      "20034",
      "20035"
    ]
  },
  {
    "id": "10820",
    "name": "BEÇİ ORHAN GAZİ CAMİ DURAĞI",
    "lat": 40.9004847,
    "lon": 31.1864598,
    "routes": [
      "10070",
      "10080",
      "10430",
      "20010",
      "20011",
      "20012",
      "20013",
      "20014",
      "20034",
      "20035"
    ]
  },
  {
    "id": "10939",
    "name": "PRESTİJ 1. ETAP DURAĞI",
    "lat": 40.865378,
    "lon": 31.170496,
    "routes": [
      "10070",
      "20030",
      "20035"
    ]
  },
  {
    "id": "10941",
    "name": "PRESTİJ 2. ETAP DURAĞI",
    "lat": 40.8651508,
    "lon": 31.1722039,
    "routes": [
      "10070",
      "20030",
      "20035"
    ]
  },
  {
    "id": "10943",
    "name": "PRESTİJ 3. ETAP DURAĞI",
    "lat": 40.8648526,
    "lon": 31.1759482,
    "routes": [
      "10070",
      "20030",
      "20035"
    ]
  },
  {
    "id": "10945",
    "name": "BEYCİLER DURAĞI",
    "lat": 40.8635686,
    "lon": 31.1780243,
    "routes": [
      "10070",
      "20030",
      "20035"
    ]
  },
  {
    "id": "10948",
    "name": "BEYCİLER ORTA OKUL DURAĞI",
    "lat": 40.8614184,
    "lon": 31.1780243,
    "routes": [
      "10070",
      "10130",
      "10330",
      "20030",
      "20035"
    ]
  },
  {
    "id": "11109",
    "name": "BEYCİLER MEZARLIK DURAĞI",
    "lat": 40.8579556,
    "lon": 31.1795518,
    "routes": [
      "10070",
      "10130",
      "10330",
      "20035"
    ]
  },
  {
    "id": "11111",
    "name": "BEYCİLER DÖRT YOL DURAĞI",
    "lat": 40.8565396,
    "lon": 31.1782952,
    "routes": [
      "10070",
      "10130",
      "10330",
      "20035"
    ]
  },
  {
    "id": "11113",
    "name": "BEYCİLER İÇ MAHALLE DURAĞI",
    "lat": 40.8553041,
    "lon": 31.1773376,
    "routes": [
      "10070",
      "10130",
      "10330",
      "20035"
    ]
  },
  {
    "id": "10727",
    "name": "METEK TOKİ SAPAK DURAĞI",
    "lat": 40.8538718,
    "lon": 31.1763667,
    "routes": [
      "10070",
      "10130",
      "10230",
      "20035"
    ]
  },
  {
    "id": "10725",
    "name": "METEK TOKİ DURAĞI",
    "lat": 40.8524344,
    "lon": 31.1781718,
    "routes": [
      "10070",
      "10130",
      "10230",
      "20035"
    ]
  },
  {
    "id": "10723",
    "name": "TOKİ ÇOCUK PARKI DURAĞI",
    "lat": 40.8512181,
    "lon": 31.1796872,
    "routes": [
      "10070",
      "10130",
      "10230",
      "20035"
    ]
  },
  {
    "id": "10721",
    "name": "TOKİ İŞ MERKEZİ DURAĞI",
    "lat": 40.8500637,
    "lon": 31.1823399,
    "routes": [
      "10070",
      "10130",
      "10230",
      "20035"
    ]
  },
  {
    "id": "10719",
    "name": "TOKİ MEHMET AKİF ORTA OKUL DURAĞI",
    "lat": 40.8497736,
    "lon": 31.1853842,
    "routes": [
      "10070",
      "10130",
      "10230",
      "20035"
    ]
  },
  {
    "id": "10717",
    "name": "TOKİ METEK DURAĞI",
    "lat": 40.8475255,
    "lon": 31.1850865,
    "routes": [
      "10070",
      "10130",
      "10230",
      "20035"
    ]
  },
  {
    "id": "10715",
    "name": "KORU SİTESİ DURAĞI",
    "lat": 40.8453748,
    "lon": 31.1834195,
    "routes": [
      "10070",
      "10130",
      "10230",
      "20035"
    ]
  },
  {
    "id": "10712",
    "name": "KORU SİTESİ DURAĞI",
    "lat": 40.8450156,
    "lon": 31.1835282,
    "routes": [
      "10070",
      "10130",
      "20035"
    ]
  },
  {
    "id": "10713",
    "name": "KORU SİTESİ DURAĞI",
    "lat": 40.8453058,
    "lon": 31.1835657,
    "routes": [
      "10070",
      "10130",
      "10230",
      "20035"
    ]
  },
  {
    "id": "10716",
    "name": "TOKİ METEK DURAĞI",
    "lat": 40.8474626,
    "lon": 31.1852609,
    "routes": [
      "10070",
      "10130",
      "10230",
      "20035"
    ]
  },
  {
    "id": "10718",
    "name": "TOKİ MEHMET AKİF ORTA OKUL DURAĞI",
    "lat": 40.8497878,
    "lon": 31.1855532,
    "routes": [
      "10070",
      "10130",
      "10230",
      "20035"
    ]
  },
  {
    "id": "10720",
    "name": "TOKİ İŞ MERKEZİ DURAĞI",
    "lat": 40.8501834,
    "lon": 31.1824445,
    "routes": [
      "10070",
      "10130",
      "10230",
      "20035"
    ]
  },
  {
    "id": "10722",
    "name": "TOKİ ÇOCUK PARKI DURAĞI",
    "lat": 40.8513236,
    "lon": 31.1797677,
    "routes": [
      "10070",
      "10130",
      "10230",
      "20035"
    ]
  },
  {
    "id": "10724",
    "name": "METEK TOKİ DURAĞI",
    "lat": 40.8524557,
    "lon": 31.1783166,
    "routes": [
      "10070",
      "10130",
      "10230",
      "20035"
    ]
  },
  {
    "id": "10726",
    "name": "METEK TOKİ SAPAK DURAĞI",
    "lat": 40.8539976,
    "lon": 31.1764364,
    "routes": [
      "10070",
      "10130",
      "10230",
      "20035"
    ]
  },
  {
    "id": "11114",
    "name": "BEYCİLER İÇ MAHALLE DURAĞI",
    "lat": 40.8551844,
    "lon": 31.1773805,
    "routes": [
      "10070",
      "10130",
      "10330",
      "20035"
    ]
  },
  {
    "id": "11112",
    "name": "BEYCİLER DÖRT YOL DURAĞI",
    "lat": 40.8565274,
    "lon": 31.1784051,
    "routes": [
      "10070",
      "10130",
      "10330",
      "20035"
    ]
  },
  {
    "id": "11110",
    "name": "BEYCİLER MEZARLIK DURAĞI",
    "lat": 40.8579536,
    "lon": 31.1796336,
    "routes": [
      "10070",
      "10130",
      "10330",
      "20035"
    ]
  },
  {
    "id": "10947",
    "name": "BEYCİLER ORTA OKUL DURAĞI",
    "lat": 40.861463,
    "lon": 31.1782388,
    "routes": [
      "10070",
      "10330",
      "20030",
      "20035"
    ]
  },
  {
    "id": "10944",
    "name": "BEYCİLER DURAĞI",
    "lat": 40.8636913,
    "lon": 31.1780511,
    "routes": [
      "10070",
      "20030",
      "20035"
    ]
  },
  {
    "id": "10942",
    "name": "PRESTİJ 3. ETAP DURAĞI",
    "lat": 40.8648668,
    "lon": 31.1760743,
    "routes": [
      "10070",
      "20030",
      "20035"
    ]
  },
  {
    "id": "10940",
    "name": "PRESTİJ 2. ETAP DURAĞI",
    "lat": 40.8652847,
    "lon": 31.1722092,
    "routes": [
      "10070",
      "20030",
      "20035"
    ]
  },
  {
    "id": "10938",
    "name": "PRESTİJ 1. ETAP DURAĞI",
    "lat": 40.8654378,
    "lon": 31.1704859,
    "routes": [
      "10070",
      "20030",
      "20035"
    ]
  },
  {
    "id": "10877",
    "name": "TAŞLIK KIZ YURDU DURAĞI",
    "lat": 40.8941955,
    "lon": 31.1628966,
    "routes": [
      "10080",
      "20012",
      "20014"
    ]
  },
  {
    "id": "10878",
    "name": "TAŞLIK MERKEZ DURAĞI",
    "lat": 40.8966002,
    "lon": 31.1630736,
    "routes": [
      "10080",
      "20012",
      "20014"
    ]
  },
  {
    "id": "10926",
    "name": "ÖZDİLEK DURAĞI",
    "lat": 40.8544987,
    "lon": 31.1659972,
    "routes": [
      "10090",
      "10100",
      "10110",
      "10160",
      "10280",
      "10281",
      "10420",
      "10430",
      "20010",
      "20011",
      "20014",
      "20030",
      "20050",
      "20051",
      "20053"
    ]
  },
  {
    "id": "10928",
    "name": "ÇOBAN DURAĞI",
    "lat": 40.8482336,
    "lon": 31.1650799,
    "routes": [
      "10090",
      "10100",
      "10110",
      "10160",
      "10230",
      "10280",
      "10281",
      "10420",
      "10430",
      "20010",
      "20011",
      "20014",
      "20030",
      "20050",
      "20051",
      "20053"
    ]
  },
  {
    "id": "10595",
    "name": "ATATÜRK BULVARI DURAĞI",
    "lat": 40.8447133,
    "lon": 31.1643825,
    "routes": [
      "10090",
      "10100",
      "10110",
      "10160",
      "10190",
      "10200",
      "10210",
      "10220",
      "10221",
      "10230",
      "10280",
      "10281",
      "10320",
      "10330",
      "10370",
      "10410",
      "10420",
      "10430",
      "20010",
      "20011",
      "20014",
      "20030",
      "20050",
      "20051",
      "20053"
    ]
  },
  {
    "id": "10593",
    "name": "HALK BANKASI DURAĞI",
    "lat": 40.8420085,
    "lon": 31.1636315,
    "routes": [
      "10090",
      "10100",
      "10190",
      "10200",
      "10210",
      "10220",
      "10221",
      "10230",
      "10280",
      "10281",
      "10320",
      "10330",
      "10370",
      "10410",
      "10420",
      "20010",
      "20030",
      "20050",
      "20051",
      "20053"
    ]
  },
  {
    "id": "10590",
    "name": "BAŞARAN DURAĞI",
    "lat": 40.8388603,
    "lon": 31.1621161,
    "routes": [
      "10090",
      "10100",
      "10110",
      "10190",
      "10200",
      "10210",
      "10220",
      "10221",
      "10230",
      "10250",
      "10280",
      "10281",
      "10300",
      "10301",
      "10310",
      "10311",
      "10320",
      "10330",
      "10370",
      "10410",
      "10420",
      "20010",
      "20030",
      "20050",
      "20051",
      "20053",
      "20150",
      "40041",
      "40042",
      "40043"
    ]
  },
  {
    "id": "10577",
    "name": "ŞAGUÇ KÖPRÜSÜ DURAĞI",
    "lat": 40.8375118,
    "lon": 31.1582027,
    "routes": [
      "10090",
      "10110",
      "10120",
      "10190",
      "10200",
      "10210",
      "10220",
      "10221",
      "10230",
      "10240",
      "10250",
      "10260",
      "10270",
      "10280",
      "10281",
      "10300",
      "10301",
      "10310",
      "10311",
      "10320",
      "10330",
      "10340",
      "10360",
      "10370",
      "10410",
      "10420",
      "10430",
      "20010",
      "20014",
      "20030",
      "20050",
      "20051",
      "20053",
      "20120",
      "20150",
      "40041",
      "40042",
      "40043"
    ]
  },
  {
    "id": "10574",
    "name": "VALİLİK",
    "lat": 40.8378537,
    "lon": 31.1555017,
    "routes": [
      "10090",
      "10110",
      "10120",
      "10190",
      "10200",
      "10210",
      "10220",
      "10221",
      "10230",
      "10240",
      "10250",
      "10260",
      "10270",
      "10280",
      "10281",
      "10300",
      "10301",
      "10310",
      "10311",
      "10320",
      "10330",
      "10340",
      "10360",
      "10370",
      "10410",
      "10420",
      "10430",
      "20010",
      "20014",
      "20030",
      "20050",
      "20051",
      "20053",
      "20120",
      "20150",
      "40041",
      "40042",
      "40043"
    ]
  },
  {
    "id": "11292",
    "name": "VALİLİK BATI DURAĞI",
    "lat": 40.839537,
    "lon": 31.1543873,
    "routes": [
      "10090",
      "10110",
      "10120",
      "10190",
      "10200",
      "10210",
      "10220",
      "10230",
      "10240",
      "10250",
      "10260",
      "10270",
      "10280",
      "10281",
      "10300",
      "10301",
      "10310",
      "10311",
      "10320",
      "10330",
      "10340",
      "10360",
      "10370",
      "10410",
      "10420",
      "10430",
      "20010",
      "20014",
      "20030",
      "20050",
      "20051",
      "20120",
      "40041",
      "40042",
      "40043"
    ]
  },
  {
    "id": "11137",
    "name": "KREM PARK DURAĞI",
    "lat": 40.8404562,
    "lon": 31.151744,
    "routes": [
      "10090",
      "10110",
      "10120",
      "10190",
      "10200",
      "10210",
      "10220",
      "10221",
      "10230",
      "10240",
      "10250",
      "10260",
      "10270",
      "10280",
      "10281",
      "10300",
      "10301",
      "10310",
      "10311",
      "10320",
      "10330",
      "10340",
      "10360",
      "10370",
      "10410",
      "10420",
      "10430",
      "20010",
      "20014",
      "20030",
      "20050",
      "20051",
      "20053",
      "20120",
      "20150"
    ]
  },
  {
    "id": "10569",
    "name": "ORMAN İŞLETME MÜDÜRLÜK DURAĞI",
    "lat": 40.8404146,
    "lon": 31.1470032,
    "routes": [
      "10090",
      "10110",
      "10160",
      "10190",
      "10200",
      "10210",
      "10220",
      "10221",
      "10230",
      "10240",
      "10250",
      "10260",
      "10270",
      "10280",
      "10281",
      "10300",
      "10301",
      "10320",
      "10330",
      "10340",
      "10360",
      "10410",
      "10420",
      "20010",
      "20030",
      "20050",
      "20051",
      "20053",
      "20120",
      "20150",
      "40041",
      "40042",
      "40043"
    ]
  },
  {
    "id": "10568",
    "name": "YEŞİLAY DURAĞI",
    "lat": 40.8404471,
    "lon": 31.1422677,
    "routes": [
      "10090",
      "10110",
      "10160",
      "10190",
      "10200",
      "10210",
      "10220",
      "10221",
      "10230",
      "10240",
      "10250",
      "10260",
      "10270",
      "10280",
      "10281",
      "10300",
      "10301",
      "10320",
      "10330",
      "10340",
      "10360",
      "10410",
      "10420",
      "20010",
      "20030",
      "20050",
      "20051",
      "20053",
      "20120",
      "20150",
      "40041",
      "40042",
      "40043"
    ]
  },
  {
    "id": "10567",
    "name": "YEŞİLAY DURAĞI",
    "lat": 40.8403507,
    "lon": 31.141915,
    "routes": [
      "10090",
      "10110",
      "10160",
      "10190",
      "10200",
      "10210",
      "10220",
      "10221",
      "10230",
      "10240",
      "10250",
      "10260",
      "10270",
      "10280",
      "10281",
      "10310",
      "10311",
      "10320",
      "10330",
      "10340",
      "10360",
      "10410",
      "10420",
      "20010",
      "20030",
      "20050",
      "20051",
      "20053",
      "20120",
      "40041",
      "40042",
      "40043"
    ]
  },
  {
    "id": "10570",
    "name": "OSMAN ÇATANA KARAKOL DURAĞI",
    "lat": 40.8402492,
    "lon": 31.1468168,
    "routes": [
      "10090",
      "10110",
      "10160",
      "10190",
      "10200",
      "10210",
      "10220",
      "10221",
      "10230",
      "10240",
      "10250",
      "10260",
      "10270",
      "10280",
      "10281",
      "10310",
      "10311",
      "10320",
      "10330",
      "10340",
      "10360",
      "10410",
      "10420",
      "20010",
      "20030",
      "20050",
      "20051",
      "20053",
      "20120",
      "40041",
      "40042",
      "40043"
    ]
  },
  {
    "id": "10571",
    "name": "ESKİ KIZILAY DURAĞI",
    "lat": 40.8402777,
    "lon": 31.1501561,
    "routes": [
      "10090",
      "10110",
      "10160",
      "10190",
      "10200",
      "10210",
      "10220",
      "10221",
      "10230",
      "10240",
      "10250",
      "10260",
      "10270",
      "10280",
      "10281",
      "10310",
      "10311",
      "10320",
      "10330",
      "10340",
      "10360",
      "10410",
      "10420",
      "20010",
      "20030",
      "20050",
      "20051",
      "20053",
      "20120",
      "40041",
      "40042",
      "40043"
    ]
  },
  {
    "id": "10572",
    "name": "ŞEHİT MUSTAFA BAZNA DURAĞI",
    "lat": 40.8367671,
    "lon": 31.1498503,
    "routes": [
      "10090",
      "10110",
      "10120",
      "10190",
      "10200",
      "10210",
      "10220",
      "10221",
      "10230",
      "10240",
      "10250",
      "10260",
      "10270",
      "10280",
      "10281",
      "10300",
      "10301",
      "10310",
      "10311",
      "10320",
      "10330",
      "10340",
      "10360",
      "10370",
      "10410",
      "10420",
      "10430",
      "20011",
      "20014",
      "20030",
      "20050",
      "20051",
      "20053",
      "20120",
      "20150",
      "40041",
      "40042",
      "40043"
    ]
  },
  {
    "id": "10573",
    "name": "ÇAY MAHALLESİ MUHATARLIK",
    "lat": 40.8359239,
    "lon": 31.150659,
    "routes": [
      "10090",
      "10110",
      "10120",
      "10190",
      "10200",
      "10210",
      "10220",
      "10221",
      "10230",
      "10240",
      "10250",
      "10260",
      "10270",
      "10280",
      "10281",
      "10300",
      "10301",
      "10310",
      "10311",
      "10320",
      "10330",
      "10340",
      "10360",
      "10370",
      "10410",
      "10420",
      "20011",
      "20014",
      "20030",
      "20050",
      "20051",
      "20053",
      "20120",
      "20150",
      "40041",
      "40042",
      "40043"
    ]
  },
  {
    "id": "10575",
    "name": "VALİLİK",
    "lat": 40.8374083,
    "lon": 31.154858,
    "routes": [
      "10090",
      "10110",
      "10120",
      "10190",
      "10200",
      "10210",
      "10220",
      "10221",
      "10230",
      "10240",
      "10250",
      "10260",
      "10270",
      "10280",
      "10281",
      "10300",
      "10301",
      "10310",
      "10311",
      "10320",
      "10330",
      "10340",
      "10360",
      "10370",
      "10410",
      "10420",
      "20011",
      "20014",
      "20030",
      "20050",
      "20051",
      "20053",
      "20120",
      "20150",
      "40041",
      "40042",
      "40043"
    ]
  },
  {
    "id": "10576",
    "name": "ŞAGUÇ KÖPRÜSÜ DURAĞI",
    "lat": 40.8370065,
    "lon": 31.1582202,
    "routes": [
      "10090",
      "10110",
      "10120",
      "10190",
      "10200",
      "10210",
      "10220",
      "10221",
      "10230",
      "10240",
      "10250",
      "10260",
      "10270",
      "10280",
      "10281",
      "10300",
      "10301",
      "10310",
      "10311",
      "10320",
      "10330",
      "10340",
      "10360",
      "10370",
      "10410",
      "10420",
      "20011",
      "20014",
      "20030",
      "20050",
      "20051",
      "20053",
      "20120",
      "20150",
      "40041",
      "40042",
      "40043"
    ]
  },
  {
    "id": "10578",
    "name": "BELEDİYE DURAĞI",
    "lat": 40.8363186,
    "lon": 31.1608474,
    "routes": [
      "10090",
      "10100",
      "10110",
      "10120",
      "10190",
      "10200",
      "10210",
      "10220",
      "10221",
      "10230",
      "10240",
      "10250",
      "10270",
      "10280",
      "10281",
      "10300",
      "10301",
      "10310",
      "10311",
      "10320",
      "10330",
      "10340",
      "10360",
      "10370",
      "10410",
      "10420",
      "20011",
      "20014",
      "20030",
      "20050",
      "20051",
      "20053",
      "20150",
      "40041",
      "40042",
      "40043"
    ]
  },
  {
    "id": "11136",
    "name": "CELAL KASAPOĞLU DURAĞI",
    "lat": 40.8361267,
    "lon": 31.1634452,
    "routes": [
      "10090",
      "10110",
      "10190",
      "10200",
      "10210",
      "10220",
      "10221",
      "10230",
      "10280",
      "10281",
      "10320",
      "10330",
      "10370",
      "10410",
      "10420",
      "20030",
      "20050",
      "20051",
      "20053"
    ]
  },
  {
    "id": "10589",
    "name": "ADİL SEVEN DURAĞI",
    "lat": 40.8382606,
    "lon": 31.164404,
    "routes": [
      "10090",
      "10100",
      "10110",
      "10190",
      "10200",
      "10210",
      "10220",
      "10221",
      "10230",
      "10250",
      "10280",
      "10281",
      "10300",
      "10301",
      "10310",
      "10311",
      "10320",
      "10330",
      "10370",
      "10410",
      "10420",
      "20011",
      "20030",
      "20050",
      "20051",
      "20053",
      "20150",
      "40041",
      "40042",
      "40043"
    ]
  },
  {
    "id": "10591",
    "name": "BURHANİYE DURAĞI",
    "lat": 40.839257,
    "lon": 31.1628041,
    "routes": [
      "10090",
      "10100",
      "10110",
      "10190",
      "10200",
      "10210",
      "10220",
      "10221",
      "10230",
      "10280",
      "10281",
      "10320",
      "10330",
      "10370",
      "10410",
      "10420",
      "20011",
      "20030",
      "20050",
      "20051",
      "20053"
    ]
  },
  {
    "id": "10592",
    "name": "HALK BANKASI DURAĞI",
    "lat": 40.8419974,
    "lon": 31.1637858,
    "routes": [
      "10090",
      "10100",
      "10110",
      "10190",
      "10200",
      "10210",
      "10220",
      "10221",
      "10230",
      "10280",
      "10281",
      "10320",
      "10330",
      "10410",
      "10420",
      "20011",
      "20030",
      "20050",
      "20051",
      "20053"
    ]
  },
  {
    "id": "10594",
    "name": "ATATÜRK BULVARI DURAĞI",
    "lat": 40.8448645,
    "lon": 31.16464,
    "routes": [
      "10090",
      "10100",
      "10110",
      "10160",
      "10230",
      "10280",
      "10281",
      "10320",
      "10330",
      "10420",
      "10430",
      "20010",
      "20011",
      "20014",
      "20030",
      "20050",
      "20051",
      "20053"
    ]
  },
  {
    "id": "10929",
    "name": "ÇOBAN DURAĞI",
    "lat": 40.8480835,
    "lon": 31.1653642,
    "routes": [
      "10090",
      "10100",
      "10110",
      "10160",
      "10230",
      "10280",
      "10281",
      "10420",
      "10430",
      "20010",
      "20011",
      "20014",
      "20030",
      "20050",
      "20051",
      "20053"
    ]
  },
  {
    "id": "10927",
    "name": "ÖZDİLER DURAĞI",
    "lat": 40.8542735,
    "lon": 31.1664425,
    "routes": [
      "10090",
      "10100",
      "10110",
      "10160",
      "10230",
      "10280",
      "10281",
      "10420",
      "10430",
      "20010",
      "20011",
      "20014",
      "20030",
      "20050",
      "20051",
      "20053"
    ]
  },
  {
    "id": "10879",
    "name": "ENBİYA DURAĞI",
    "lat": 40.9206049,
    "lon": 31.1432709,
    "routes": [
      "10100",
      "10110",
      "20050",
      "20051",
      "20053"
    ]
  },
  {
    "id": "10881",
    "name": "VALİDE CAMİ DURAĞI",
    "lat": 40.9157731,
    "lon": 31.1429034,
    "routes": [
      "10100",
      "10110",
      "20050",
      "20051",
      "20053"
    ]
  },
  {
    "id": "11230",
    "name": "TEMİZLİK GARAJ",
    "lat": 40.9138901,
    "lon": 31.1427371,
    "routes": [
      "10100",
      "10110",
      "20050",
      "20051",
      "20053"
    ]
  },
  {
    "id": "10883",
    "name": "SERTOĞLU MAHALLE DURAĞI",
    "lat": 40.9112246,
    "lon": 31.1425279,
    "routes": [
      "10100",
      "10110",
      "20050",
      "20051",
      "20053"
    ]
  },
  {
    "id": "10885",
    "name": "SERTOĞLU CAMİ DURAĞI",
    "lat": 40.9094834,
    "lon": 31.1424045,
    "routes": [
      "10100",
      "10110",
      "20050",
      "20051",
      "20053"
    ]
  },
  {
    "id": "10886",
    "name": "TABAKHANE KÖPRU DURAĞI",
    "lat": 40.9061042,
    "lon": 31.142308,
    "routes": [
      "10100",
      "10110",
      "20050",
      "20051",
      "20053"
    ]
  },
  {
    "id": "10875",
    "name": "KONURALP ÇARŞI İÇİ DURAĞI",
    "lat": 40.9052396,
    "lon": 31.1451565,
    "routes": [
      "10100",
      "10110"
    ]
  },
  {
    "id": "10866",
    "name": "KONURALP MÜZE DURAĞI",
    "lat": 40.903038,
    "lon": 31.1547521,
    "routes": [
      "10100",
      "10110",
      "10140",
      "10160"
    ]
  },
  {
    "id": "10864",
    "name": "HUZUREVLERİ SİTESİ DURAĞI",
    "lat": 40.9012327,
    "lon": 31.1557271,
    "routes": [
      "10100",
      "10110",
      "10140",
      "10160"
    ]
  },
  {
    "id": "10894",
    "name": "KONURALP AYKUT DURAĞI",
    "lat": 40.9000204,
    "lon": 31.1571084,
    "routes": [
      "10100",
      "10110",
      "10140",
      "10160",
      "20050",
      "20051",
      "20053"
    ]
  },
  {
    "id": "10896",
    "name": "TUNA LOJİSTİK DURAĞI",
    "lat": 40.8985668,
    "lon": 31.1624487,
    "routes": [
      "10100",
      "10110",
      "10140",
      "10160",
      "20050",
      "20051",
      "20053"
    ]
  },
  {
    "id": "10897",
    "name": "STANDART PROFİL DURAĞI",
    "lat": 40.8969306,
    "lon": 31.1648117,
    "routes": [
      "10100",
      "10110",
      "10140",
      "10160",
      "20050",
      "20051",
      "20053"
    ]
  },
  {
    "id": "10579",
    "name": "KÜÇÜKSU DURAĞI",
    "lat": 40.8353648,
    "lon": 31.162682,
    "routes": [
      "10100",
      "10120",
      "10240",
      "10250",
      "10270",
      "10300",
      "10301",
      "10310",
      "10311",
      "10340",
      "10360",
      "20011",
      "20014",
      "20150",
      "40041",
      "40042",
      "40043"
    ]
  },
  {
    "id": "10580",
    "name": "ÖĞRETMEN EVİ DURAĞI",
    "lat": 40.8332847,
    "lon": 31.1657076,
    "routes": [
      "10100",
      "10120",
      "10240",
      "10250",
      "10300",
      "10301",
      "10310",
      "10311",
      "10340",
      "10360",
      "20011",
      "20014",
      "20150",
      "40041",
      "40042",
      "40043"
    ]
  },
  {
    "id": "10582",
    "name": "AZMİMİLLİ MAHALLE DURAĞI",
    "lat": 40.8320792,
    "lon": 31.1674993,
    "routes": [
      "10100",
      "10120",
      "10240",
      "10250",
      "10300",
      "10301",
      "10310",
      "10311",
      "10340",
      "10360",
      "20011",
      "20014",
      "20150",
      "40041",
      "40042",
      "40043"
    ]
  },
  {
    "id": "10233",
    "name": "HACIALİLER SAPAK",
    "lat": 40.8205957,
    "lon": 31.2047712,
    "routes": [
      "10100",
      "10120",
      "10150",
      "10360",
      "20150",
      "40041",
      "40042",
      "40043"
    ]
  },
  {
    "id": "10587",
    "name": "İMAMHATIP CAMİİ DURAĞI",
    "lat": 40.8365195,
    "lon": 31.1689771,
    "routes": [
      "10100",
      "10250",
      "10300",
      "10301",
      "10310",
      "10311",
      "20011",
      "20150",
      "40041",
      "40042",
      "40043"
    ]
  },
  {
    "id": "10588",
    "name": "TÜTÜNCÜ OĞLU DURAĞI",
    "lat": 40.8370024,
    "lon": 31.1673208,
    "routes": [
      "10100",
      "10250",
      "10300",
      "10301",
      "10310",
      "10311",
      "20011",
      "20150",
      "40041",
      "40042",
      "40043"
    ]
  },
  {
    "id": "10899",
    "name": "BEÇİ SAPAK D655 DURAĞI",
    "lat": 40.8956797,
    "lon": 31.1663647,
    "routes": [
      "10100",
      "10110",
      "20050",
      "20051",
      "20053"
    ]
  },
  {
    "id": "10898",
    "name": "STANDART PROFİL DURAĞI",
    "lat": 40.897257,
    "lon": 31.1648895,
    "routes": [
      "10100",
      "10110",
      "20050",
      "20051",
      "20053"
    ]
  },
  {
    "id": "10895",
    "name": "TUNA LOJİSTİK DURAĞI",
    "lat": 40.8992317,
    "lon": 31.1617567,
    "routes": [
      "10100",
      "10110",
      "20050",
      "20051",
      "20053"
    ]
  },