[
  {
    "id": "60101",
    "name": "KÜÇÜKBEYBAĞ MAH.",
    "lat": 40.2946264,
    "lon": 36.5529839
  },
  {
    "id": "60102",
    "name": "Tokat Adliyesi-1",
    "lat": 40.301825,
    "lon": 36.555911
  },
  {
    "id": "60103",
    "name": "TOKAT DEFTERDARLIK",
    "lat": 40.309104,
    "lon": 36.554131
  },
  {
    "id": "60104",
    "name": "MEYDAN DURAĞI",
    "lat": 40.3186,
    "lon": 36.555322
  },
  {
    "id": "60105",
    "name": "NİKSAR YOLU",
    "lat": 40.323612,
    "lon": 36.551418
  },
  {
    "id": "60106",
    "name": "GOP ÜNİ. KYK",
    "lat": 40.328754,
    "lon": 36.484346
  },
  {
    "id": "60107",
    "name": "MEYDAN-2",
    "lat": 40.317086,
    "lon": 36.55522
  },
  {
    "id": "60108",
    "name": "TOKAT DEFTERDARLIĞI - 2",
    "lat": 40.309937,
    "lon": 36.553858
  },
  {
    "id": "60109",
    "name": "TOKAT ADLİYESİ -2",
    "lat": 40.301654,
    "lon": 36.555242
  },
  {
    "id": "60110",
    "name": "TOKİ KALKIŞ",
    "lat": 40.34259,
    "lon": 36.602249
  },
  {
    "id": "60111",
    "name": "TOKAT DEVLET HAST.",
    "lat": 40.329018,
    "lon": 36.56405
  },
  {
    "id": "60112",
    "name": "TOKAT DEVL. HAST. -2",
    "lat": 40.328762,
    "lon": 36.563992
  },
  {
    "id": "60113",
    "name": "YAZICIOĞLU İLK DURAK",
    "lat": 40.3401719,
    "lon": 36.5621368
  },
  {
    "id": "60114",
    "name": "BEDESTEN İLK DURAK",
    "lat": 40.3304784,
    "lon": 36.5281057
  },
  {
    "id": "60115",
    "name": "ULAŞ DURAĞI",
    "lat": 40.312676,
    "lon": 36.435043
  },
  {
    "id": "60116",
    "name": "Nebizade",
    "lat": 40.2959756,
    "lon": 36.55306
  },
  {
    "id": "60117",
    "name": "SGK DURAĞI",
    "lat": 40.3045222,
    "lon": 36.554727
  },
  {
    "id": "60118",
    "name": "BAKRAÇ SOKAĞI",
    "lat": 40.3060481,
    "lon": 36.5555853
  },
  {
    "id": "60119",
    "name": "CUMHURİYET İ.Ö.O",
    "lat": 40.3121822,
    "lon": 36.5538177
  },
  {
    "id": "60120",
    "name": "HACI BEHZAT CAMİ",
    "lat": 40.3111391,
    "lon": 36.5539438
  },
  {
    "id": "60121",
    "name": "İBNİ KEMAL İ.Ö.O",
    "lat": 40.3134267,
    "lon": 36.5544561
  },
  {
    "id": "60122",
    "name": "VALİLİK ARKASI",
    "lat": 40.3143971,
    "lon": 36.5550274
  },
  {
    "id": "60123",
    "name": "DABAKHANE",
    "lat": 40.3157255,
    "lon": 36.555372
  },
  {
    "id": "60124",
    "name": "EMNİYET MÜD. ARKASI",
    "lat": 40.3215713,
    "lon": 36.5545003
  },
  {
    "id": "60125",
    "name": "3 NOLU SAĞLIK OCAĞI",
    "lat": 40.3234394,
    "lon": 36.5535535
  },
  {
    "id": "60126",
    "name": "HALİL RIFAT PAŞA İ.Ö.O",
    "lat": 40.3284155,
    "lon": 36.5479383
  },
  {
    "id": "60127",
    "name": "ŞEHİTLER CAMİ",
    "lat": 40.3310839,
    "lon": 36.5491158
  },
  {
    "id": "60128",
    "name": "KAFELER-2",
    "lat": 40.3324661,
    "lon": 36.5500358
  },
  {
    "id": "60129",
    "name": "MEDİKAL - 2",
    "lat": 40.3358479,
    "lon": 36.5464175
  },
  {
    "id": "60130",
    "name": "MADO 2",
    "lat": 40.3396057,
    "lon": 36.5414125
  },
  {
    "id": "60131",
    "name": "600EVLER KAVSAĞI",
    "lat": 40.3390373,
    "lon": 36.5390079
  },
  {
    "id": "60132",
    "name": "DİMES 2",
    "lat": 40.337872,
    "lon": 36.5376762
  },
  {
    "id": "60133",
    "name": "DİMES 3",
    "lat": 40.3335252,
    "lon": 36.5348732
  },
  {
    "id": "60134",
    "name": "GRAND ALİN 1",
    "lat": 40.3333371,
    "lon": 36.5259576
  },
  {
    "id": "60135",
    "name": "GRAND ALİN 2",
    "lat": 40.3337869,
    "lon": 36.5223742
  },
  {
    "id": "60136",
    "name": "İMREN 1",
    "lat": 40.3343226,
    "lon": 36.5174416
  },
  {
    "id": "60137",
    "name": "İMAM HATİP",
    "lat": 40.3357395,
    "lon": 36.505487
  },
  {
    "id": "60138",
    "name": "BELEDİYE FEN İŞLERİ",
    "lat": 40.3381582,
    "lon": 36.4941815
  },
  {
    "id": "60139",
    "name": "MEHMET EMİN KIZ YURDU",
    "lat": 40.3368456,
    "lon": 36.4905685
  },
  {
    "id": "60140",
    "name": "BÖLGE TRAFİK",
    "lat": 40.3360523,
    "lon": 36.4873552
  },
  {
    "id": "60141",
    "name": "NİZAMİYE",
    "lat": 40.3334516,
    "lon": 36.4804405
  },
  {
    "id": "60142",
    "name": "FEN EDEBİYAT",
    "lat": 40.3286589,
    "lon": 36.4764547
  },
  {
    "id": "60143",
    "name": "MYO DURAĞI",
    "lat": 40.3264791,
    "lon": 36.4753228
  },
  {
    "id": "60144",
    "name": "SAĞLIK BİLİMLERİ",
    "lat": 40.3244629,
    "lon": 36.4739335
  },
  {
    "id": "60145",
    "name": "EĞİTİM FAKÜLTESİ",
    "lat": 40.3270189,
    "lon": 36.4814651
  },
  {
    "id": "60146",
    "name": "EĞİTİM FAKÜLTESİ 2",
    "lat": 40.3271478,
    "lon": 36.481103
  },
  {
    "id": "60147",
    "name": "SAĞLIK BİLİMLERİ 2",
    "lat": 40.3244117,
    "lon": 36.474207
  },
  {
    "id": "60148",
    "name": "MYO 2",
    "lat": 40.3265282,
    "lon": 36.4756447
  },
  {
    "id": "60149",
    "name": "GOP ANA DURAK",
    "lat": 40.3286466,
    "lon": 36.4768249
  },
  {
    "id": "60150",
    "name": "REKTÖRLÜK",
    "lat": 40.3332431,
    "lon": 36.4808267
  },
  {
    "id": "60500",
    "name": "S.S. 3 Nolu Koop Durağı",
    "lat": 40.276976,
    "lon": 36.5470451
  },
  {
    "id": "60610",
    "name": "ÜMSA PETROL",
    "lat": 40.2784288,
    "lon": 36.5479946
  },
  {
    "id": "60612",
    "name": "İSTANBULPARK",
    "lat": 40.2841336,
    "lon": 36.5503335
  },
  {
    "id": "60613",
    "name": "SAKLIBAHÇE",
    "lat": 40.2885122,
    "lon": 36.5501618
  },
  {
    "id": "60501",
    "name": "KEMER KÖPRÜ DURAĞI",
    "lat": 40.2910594,
    "lon": 36.5505347
  },
  {
    "id": "60614",
    "name": "FATİH CAMİ GİDİŞ",
    "lat": 40.2930992,
    "lon": 36.5509182
  },
  {
    "id": "60615",
    "name": "7.NOTER GİDİŞ",
    "lat": 40.2956646,
    "lon": 36.5518034
  },
  {
    "id": "60616",
    "name": "TÖREOĞLU",
    "lat": 40.296892,
    "lon": 36.5525061
  },
  {
    "id": "60617",
    "name": "ÇİÇEK PETROL",
    "lat": 40.2980499,
    "lon": 36.5530425
  },
  {
    "id": "60618",
    "name": "JANDARMA",
    "lat": 40.2994246,
    "lon": 36.5533268
  },
  {
    "id": "60619",
    "name": "ADLİYE - 4",
    "lat": 40.3008116,
    "lon": 36.5535039
  },
  {
    "id": "60620",
    "name": "RUH VE SİNİR HASTANESİ",
    "lat": 40.3018875,
    "lon": 36.5535897
  },
  {
    "id": "60502",
    "name": "SSK DURAĞI",
    "lat": 40.3039413,
    "lon": 36.5537506
  },
  {
    "id": "60621",
    "name": "BAKRAÇ GİDİŞ",
    "lat": 40.3057822,
    "lon": 36.5539277
  },
  {
    "id": "60622",
    "name": "BEHZAT GİDİŞ",
    "lat": 40.3089567,
    "lon": 36.5533429
  },
  {
    "id": "60623",
    "name": "MÜKAŞ",
    "lat": 40.3115216,
    "lon": 36.5522486
  },
  {
    "id": "60504",
    "name": "CUMHURİYET MEYDANI",
    "lat": 40.3142765,
    "lon": 36.5514681
  },
  {
    "id": "60506",
    "name": "GOP LİSESİ",
    "lat": 40.3186265,
    "lon": 36.5521815
  },
  {
    "id": "60508",
    "name": "NİKSAR YOLU SİVRİTEKKE",
    "lat": 40.3227022,
    "lon": 36.5519911
  },
  {
    "id": "60624",
    "name": "SPOR MERKEZİ",
    "lat": 40.3264342,
    "lon": 36.5539384
  },
  {
    "id": "60510",
    "name": "STADYUM DURAĞI",
    "lat": 40.3283603,
    "lon": 36.5549684
  },
  {
    "id": "60512",
    "name": "KÜMBET DURAĞI",
    "lat": 40.331776,
    "lon": 36.5567949
  },
  {
    "id": "60625",
    "name": "GARDİYAN DURAĞI",
    "lat": 40.3336847,
    "lon": 36.5594101
  },
  {
    "id": "60626",
    "name": "TEDAŞ",
    "lat": 40.3360809,
    "lon": 36.5591902
  },
  {
    "id": "60627",
    "name": "TOKADİ CAMİ",
    "lat": 40.337737,
    "lon": 36.5586269
  },
  {
    "id": "60513",
    "name": "BAHÇELİEVLER",
    "lat": 40.339389,
    "lon": 36.5569237
  },
  {
    "id": "60628",
    "name": "BAHÇELİEVLER - 4",
    "lat": 40.3411512,
    "lon": 36.5554726
  },
  {
    "id": "60629",
    "name": "BAHÇELİEVLER - 5",
    "lat": 40.3418218,
    "lon": 36.5535736
  },
  {
    "id": "60630",
    "name": "ATATÜRK LİSESİ GİDİŞ",
    "lat": 40.3411717,
    "lon": 36.552254
  },
  {
    "id": "60533",
    "name": "TAC MAHAL DURAĞI",
    "lat": 40.3440174,
    "lon": 36.5497112
  },
  {
    "id": "60632",
    "name": "IHLAMUR EVLERİ",
    "lat": 40.3454729,
    "lon": 36.5489709
  },
  {
    "id": "60514",
    "name": "MALKAYASI DURAĞI",
    "lat": 40.3474722,
    "lon": 36.546337
  },
  {
    "id": "60576",
    "name": "SABUNCUOĞLU DURAĞI",
    "lat": 40.3459145,
    "lon": 36.5416539
  },
  {
    "id": "60633",
    "name": "DENGE",
    "lat": 40.3444794,
    "lon": 36.5408117
  },
  {
    "id": "60634",
    "name": "600 EVLER ÜST GEÇİT 2",
    "lat": 40.3426191,
    "lon": 36.5403771
  },
  {
    "id": "60635",
    "name": "UĞUR",
    "lat": 40.340452,
    "lon": 36.5400124
  },
  {
    "id": "60515",
    "name": "MADO DURAĞI",
    "lat": 40.3393828,
    "lon": 36.5413401
  },
  {
    "id": "60636",
    "name": "DEDEMAN ÖNÜ",
    "lat": 40.338289,
    "lon": 36.544717
  },
  {
    "id": "60637",
    "name": "KÜLTÜR SARAYI",
    "lat": 40.3373567,
    "lon": 36.5476298
  },
  {
    "id": "60638",
    "name": "DELİKKAPI PARK",
    "lat": 40.3355371,
    "lon": 36.550591
  },
  {
    "id": "60548",
    "name": "ENGELSİZ DURAĞI",
    "lat": 40.3344024,
    "lon": 36.5516438
  },
  {
    "id": "60516",
    "name": "KAFELER DURAĞI",
    "lat": 40.3323598,
    "lon": 36.5514171
  },
  {
    "id": "60517",
    "name": "NOVADA AVM",
    "lat": 40.329992,
    "lon": 36.5542817
  },
  {
    "id": "60511",
    "name": "DSİ ÖNÜ",
    "lat": 40.328573,
    "lon": 36.5546948
  },
  {
    "id": "60518",
    "name": "İMAM HATİP LİSE DURAĞI",
    "lat": 40.3257225,
    "lon": 36.5531927
  },
  {
    "id": "60509",
    "name": "NİKSAR YOLU SİVRİTEKKE-1",
    "lat": 40.3226961,
    "lon": 36.5517363
  },
  {
    "id": "60507",
    "name": "TAŞHAN",
    "lat": 40.3177205,
    "lon": 36.5520206
  },
  {
    "id": "60505",
    "name": "BELEDİYE ÖNÜ",
    "lat": 40.313714,
    "lon": 36.5511838
  },
  {
    "id": "60601",
    "name": "DİŞ HASTANESİ",
    "lat": 40.3114704,
    "lon": 36.5520984
  },
  {
    "id": "60602",
    "name": "BEHZAT",
    "lat": 40.308928,
    "lon": 36.5531069
  },
  {
    "id": "60603",
    "name": "BAKRAÇ SOKAK",
    "lat": 40.3057904,
    "lon": 36.5536487
  },
  {
    "id": "60503",
    "name": "SSK 1 DURAĞI",
    "lat": 40.3033941,
    "lon": 36.5534543
  },
  {
    "id": "60604",
    "name": "ADLİYE-3",
    "lat": 40.3008504,
    "lon": 36.5532303
  },
  {
    "id": "60605",
    "name": "SİNAN BİLİR",
    "lat": 40.2994154,
    "lon": 36.553064
  },
  {
    "id": "60606",
    "name": "ESNAF KEFALET",
    "lat": 40.2981215,
    "lon": 36.5527529
  },
  {
    "id": "60607",
    "name": "TAPU",
    "lat": 40.2969514,
    "lon": 36.5522593
  },
  {
    "id": "60608",
    "name": "7. NOTER",
    "lat": 40.2957505,
    "lon": 36.5515271
  },
  {
    "id": "60609",
    "name": "FATİH CAMİ",
    "lat": 40.2931482,
    "lon": 36.550658
  },
  {
    "id": "60519",
    "name": "KEMER KÖPRÜ SON DURAK",
    "lat": 40.2911167,
    "lon": 36.5502477
  },
  {
    "id": "60639",
    "name": "SAKLIBAHÇE 2",
    "lat": 40.2884959,
    "lon": 36.5497649
  },
  {
    "id": "60640",
    "name": "ŞEHRAZAT",
    "lat": 40.2841746,
    "lon": 36.5498507
  },
  {
    "id": "60642",
    "name": "KOZLU",
    "lat": 40.2786171,
    "lon": 36.5475225
  },
  {
    "id": "60520",
    "name": "GEYRAS DURAĞI",
    "lat": 40.2752038,
    "lon": 36.5450737
  },
  {
    "id": "60643",
    "name": "İŞERİ",
    "lat": 40.2731902,
    "lon": 36.5441161
  },
  {
    "id": "60644",
    "name": "İŞERİ 2",
    "lat": 40.2734705,
    "lon": 36.544438
  },
  {
    "id": "60524",
    "name": "TAŞKÖPRÜ",
    "lat": 40.3311667,
    "lon": 36.5555008
  },
  {
    "id": "60522",
    "name": "TERMİNAL DURAĞI",
    "lat": 40.3288163,
    "lon": 36.5592076
  },
  {
    "id": "60523",
    "name": "İTFAİYE",
    "lat": 40.3295688,
    "lon": 36.5647504
  },
  {
    "id": "60646",
    "name": "JANDARMA ÖNÜ",
    "lat": 40.3303683,
    "lon": 36.5588415
  },
  {
    "id": "60647",
    "name": "DEMİRKÖPRÜ 5",
    "lat": 40.3329241,
    "lon": 36.5528923
  },
  {
    "id": "60525",
    "name": "DELİKKAPI DURAĞI",
    "lat": 40.3355208,
    "lon": 36.5510041
  },
  {
    "id": "60526",
    "name": "KÜLTÜRSARAYI",
    "lat": 40.3378106,
    "lon": 36.5469646
  },
  {
    "id": "60648",
    "name": "DEDEMAN-3",
    "lat": 40.3385753,
    "lon": 36.5447599
  },
  {
    "id": "60649",
    "name": "KANAL KÖŞE",
    "lat": 40.340816,
    "lon": 36.5403557
  },
  {
    "id": "60527",
    "name": "600EVLER ÜST GEÇİT",
    "lat": 40.3426191,
    "lon": 36.540699
  },
  {
    "id": "60651",
    "name": "SABUNCUOĞLU 4",
    "lat": 40.3461475,
    "lon": 36.5431023
  },
  {
    "id": "60528",
    "name": "MALKAYASI 1 DURAĞI",
    "lat": 40.3472494,
    "lon": 36.5464228
  },
  {
    "id": "60332",
    "name": "IHLAMUR EVLERİ 2",
    "lat": 40.3453585,
    "lon": 36.5487671
  },
  {
    "id": "60631",
    "name": "TAC MAHAL 2",
    "lat": 40.3438947,
    "lon": 36.5496093
  },
  {
    "id": "60599",
    "name": "ATATÜRK LİSESİ",
    "lat": 40.3420058,
    "lon": 36.5514493
  },
  {
    "id": "60652",
    "name": "BAHÇELİEVLER 6",
    "lat": 40.3416542,
    "lon": 36.5534985
  },
  {
    "id": "60653",
    "name": "BAHÇELİEVLER 7",
    "lat": 40.3410286,
    "lon": 36.5553868
  },
  {
    "id": "60529",
    "name": "BAHÇELİEVLER 1",
    "lat": 40.3393338,
    "lon": 36.5567681
  },
  {
    "id": "60654",
    "name": "TOKADİ CAMİ KARŞI",
    "lat": 40.3377125,
    "lon": 36.5582782
  },
  {
    "id": "60655",
    "name": "GARDİYAN 2",
    "lat": 40.3336806,
    "lon": 36.5591311
  },
  {
    "id": "60530",
    "name": "GÜMBET 1 DURAĞI",
    "lat": 40.3318711,
    "lon": 36.5564382
  },
  {
    "id": "60531",
    "name": "JANDARMA",
    "lat": 40.3302047,
    "lon": 36.5587932
  },
  {
    "id": "60545",
    "name": "HIDIRLIK DURAĞI",
    "lat": 40.3303519,
    "lon": 36.5545821
  },
  {
    "id": "60656",
    "name": "TERMİNAL KARŞISI",
    "lat": 40.3291578,
    "lon": 36.5591848
  },
  {
    "id": "60657",
    "name": "ESENTEPE GİRİŞ",
    "lat": 40.3347806,
    "lon": 36.5567333
  },
  {
    "id": "60532",
    "name": "ESENTEPE",
    "lat": 40.3365318,
    "lon": 36.5556415
  },
  {
    "id": "60659",
    "name": "KARŞIYAKA KARAKOL",
    "lat": 40.3381009,
    "lon": 36.5544158
  },
  {
    "id": "60661",
    "name": "ESENTEPE CAM",
    "lat": 40.3401372,
    "lon": 36.552608
  },
  {
    "id": "60650",
    "name": "DENGE 2",
    "lat": 40.3443895,
    "lon": 36.5411013
  },
  {
    "id": "60535",
    "name": "KARŞIYAKA KARAKOLU",
    "lat": 40.3395893,
    "lon": 36.552608
  },
  {
    "id": "60660",
    "name": "ESENTEPE İÇ YOL",
    "lat": 40.3379047,
    "lon": 36.5542334
  },
  {
    "id": "60534",
    "name": "ESENTEPE-1",
    "lat": 40.3363713,
    "lon": 36.5554619
  },
  {
    "id": "60658",
    "name": "ESENTEPE ÇIKIŞ",
    "lat": 40.3347356,
    "lon": 36.5565187
  },
  {
    "id": "60645",
    "name": "İTFAİYE DÖNÜŞ",
    "lat": 40.3294625,
    "lon": 36.5647772
  },
  {
    "id": "60536",
    "name": "ANADOLU LİSESİ",
    "lat": 40.3419138,
    "lon": 36.5356323
  },
  {
    "id": "60665",
    "name": "OKULLAR",
    "lat": 40.343306,
    "lon": 36.5340042
  },
  {
    "id": "60666",
    "name": "FEN LİSESİ 2",
    "lat": 40.3441155,
    "lon": 36.5320301
  },
  {
    "id": "60667",
    "name": "ÇEVRE VE ŞEHİRCİLİK 2",
    "lat": 40.3455956,
    "lon": 36.5310109
  },
  {
    "id": "60538",
    "name": "ÇEVRE ŞEHİRCİLİK",
    "lat": 40.3469305,
    "lon": 36.5300667
  },
  {
    "id": "60668",
    "name": "GÜNEŞLİ 3",
    "lat": 40.3483921,
    "lon": 36.5283528
  },
  {
    "id": "60669",
    "name": "MARKET",
    "lat": 40.3500519,
    "lon": 36.527642
  },
  {
    "id": "60540",
    "name": "TEKBİR EVLERİ",
    "lat": 40.3519979,
    "lon": 36.5273577
  },
  {
    "id": "60670",
    "name": "GÜNEŞLİ 2",
    "lat": 40.3506161,
    "lon": 36.5242302
  },
  {
    "id": "60544",
    "name": "GÜNEŞLİ",
    "lat": 40.3480323,
    "lon": 36.5242732
  },
  {
    "id": "60539",
    "name": "ÇEVRE ŞEHİRCİLİK 1",
    "lat": 40.3472412,
    "lon": 36.5292755
  },
  {
    "id": "60671",
    "name": "ÇEVRE VE ŞEHİRCİLİK 3",
    "lat": 40.3454075,
    "lon": 36.5307909
  },
  {
    "id": "60541",
    "name": "FEN LİSESİ",
    "lat": 40.3435677,
    "lon": 36.5321803
  },
  {
    "id": "60672",
    "name": "ANADOLU LİSESİ 2",
    "lat": 40.3425373,
    "lon": 36.5342778
  },
  {
    "id": "60537",
    "name": "ANADOLU LİSESİ 1",
    "lat": 40.3417359,
    "lon": 36.5354231
  },
  {
    "id": "60546",
    "name": "NOVADA 1",
    "lat": 40.3315051,
    "lon": 36.5528226
  },
  {
    "id": "60674",
    "name": "TARIM İŞLETME",
    "lat": 40.3442668,
    "lon": 36.5292138
  },
  {
    "id": "60542",
    "name": "KIZ MESLEK LİSESİ",
    "lat": 40.3445735,
    "lon": 36.524359
  },
  {
    "id": "60675",
    "name": "VALİ KONUTLARI",
    "lat": 40.3455138,
    "lon": 36.5197563
  },
  {
    "id": "60543",
    "name": "ORMAN FİDANLIĞI",
    "lat": 40.3481795,
    "lon": 36.512332
  },
  {
    "id": "60676",
    "name": "VALİ KONUTLARI 2",
    "lat": 40.345105,
    "lon": 36.5187049
  },
  {
    "id": "60677",
    "name": "KIZ MESLEK 2",
    "lat": 40.3441074,
    "lon": 36.5243053
  },
  {
    "id": "60678",
    "name": "TARIM İŞLETME 2",
    "lat": 40.3439275,
    "lon": 36.5291977
  },
  {
    "id": "60673",
    "name": "IRMAK KENARI",
    "lat": 40.3328669,
    "lon": 36.5526563
  },
  {
    "id": "60547",
    "name": "TAŞKÖPRÜ 1",
    "lat": 40.3318609,
    "lon": 36.5536273
  },
  {
    "id": "60550",
    "name": "DEMİRKÖPRÜ",
    "lat": 40.3342449,
    "lon": 36.5502262
  },
  {
    "id": "60551",
    "name": "DİMES KAVŞAĞI",
    "lat": 40.3344003,
    "lon": 36.5387464
  },
  {
    "id": "60552",
    "name": "FORD",
    "lat": 40.332871,
    "lon": 36.5368474
  },
  {
    "id": "60553",
    "name": "LOCA",
    "lat": 40.3322616,
    "lon": 36.534031
  },
  {
    "id": "60554",
    "name": "BEDESTEN CAMİ DURAĞI",
    "lat": 40.3263625,
    "lon": 36.5249491
  },
  {
    "id": "60555",
    "name": "İŞKUR",
    "lat": 40.3245406,
    "lon": 36.5219933
  },
  {
    "id": "60556",
    "name": "ORGANİZE DURAĞI",
    "lat": 40.3286221,
    "lon": 36.519767
  },
  {
    "id": "60557",
    "name": "İMREN",
    "lat": 40.3339587,
    "lon": 36.5176964
  },
  {
    "id": "60155",
    "name": "OSMANLI KOOP",
    "lat": 40.3334107,
    "lon": 36.5215909
  },
  {
    "id": "60558",
    "name": "GRAND ALİ'N OTEL",
    "lat": 40.3329241,
    "lon": 36.5268964
  },
  {
    "id": "60156",
    "name": "ŞELALE",
    "lat": 40.3326747,
    "lon": 36.5313327
  },
  {
    "id": "60600",
    "name": "PETROLLER",
    "lat": 40.3330345,
    "lon": 36.5347338
  },
  {
    "id": "60559",
    "name": "DİMES 1",
    "lat": 40.3336397,
    "lon": 36.5375876
  },
  {
    "id": "60157",
    "name": "SANAYİ",
    "lat": 40.334752,
    "lon": 36.5416646
  },
  {
    "id": "60560",
    "name": "MEDİKAL HASTANESİ",
    "lat": 40.3355371,
    "lon": 36.5463102
  },
  {
    "id": "60563",
    "name": "FİZYOMER",
    "lat": 40.3316033,
    "lon": 36.5239406
  },
  {
    "id": "60561",
    "name": "ORGANİZE SANAYİ İÇİ",
    "lat": 40.3244465,
    "lon": 36.5076971
  },
  {
    "id": "60562",
    "name": "ORGANİZE SANAYİ A101",
    "lat": 40.3220089,
    "lon": 36.4933634
  },
  {
    "id": "60724",
    "name": "ORGANİZE 2",
    "lat": 40.3265404,
    "lon": 36.5005517
  },
  {
    "id": "60564",
    "name": "MİGROS DURAĞI",
    "lat": 40.332597,
    "lon": 36.5495449
  },
  {
    "id": "60565",
    "name": "EK SANAYİ GİRİŞ",
    "lat": 40.3320122,
    "lon": 36.5452588
  },
  {
    "id": "60567",
    "name": "SANAYİ 1",
    "lat": 40.3342613,
    "lon": 36.5444005
  },
  {
    "id": "60568",
    "name": "SANAYİ 2",
    "lat": 40.3332001,
    "lon": 36.5407392
  },
  {
    "id": "60566",
    "name": "EK SANAYİ ÇIKIŞ",
    "lat": 40.3315705,
    "lon": 36.5452909
  },
  {
    "id": "60569",
    "name": "SANAYİ HAL DURAĞI",
    "lat": 40.3375203,
    "lon": 36.5323949
  },
  {
    "id": "60570",
    "name": "ÇAY İLK DURAK",
    "lat": 40.2972357,
    "lon": 36.5538257
  },
  {
    "id": "60572",
    "name": "PERAKENDE CAMİ",
    "lat": 40.2946294,
    "lon": 36.5560949
  },
  {
    "id": "60573",
    "name": "TOPÇUBAĞI DURAĞI",
    "lat": 40.3088626,
    "lon": 36.5648925
  },
  {
    "id": "60575",
    "name": "112 ACİL ÇAĞRI MERKEZİ DURAĞI",
    "lat": 40.3512702,
    "lon": 36.5346479
  },
  {
    "id": "60704",
    "name": "DOĞANCIBAĞLARI",
    "lat": 40.3318977,
    "lon": 36.571523
  },
  {
    "id": "60705",
    "name": "GALERİCİ SİTESİ 3",
    "lat": 40.3335089,
    "lon": 36.5768874
  },
  {
    "id": "60577",
    "name": "POLİS KARAKOLU",
    "lat": 40.3355862,
    "lon": 36.5843761
  },
  {
    "id": "60706",
    "name": "MELEK BAHÇESİ",
    "lat": 40.3366575,
    "lon": 36.5870261
  },
  {
    "id": "60707",
    "name": "UZUNBURUN",
    "lat": 40.3364531,
    "lon": 36.5953302
  },
  {
    "id": "60578",
    "name": "TOKİ KÖPRÜSÜ",
    "lat": 40.3381377,
    "lon": 36.6012955
  },
  {
    "id": "60708",
    "name": "TOKİ 10",
    "lat": 40.341785,
    "lon": 36.5971434
  },
  {
    "id": "60709",
    "name": "TOKİ 9",
    "lat": 40.3432569,
    "lon": 36.5937853
  },
  {
    "id": "60710",
    "name": "TOKİ 8",
    "lat": 40.3441646,
    "lon": 36.5942895
  },
  {
    "id": "60711",
    "name": "TOKİ 7",
    "lat": 40.3457019,
    "lon": 36.5933025
  },
  {
    "id": "60712",
    "name": "TOKİ 6",
    "lat": 40.3464133,
    "lon": 36.5901268
  },
  {
    "id": "60579",
    "name": "TOKİ 3. ETAP",
    "lat": 40.347002,
    "lon": 36.5879059
  },
  {
    "id": "60580",
    "name": "TOKİ 2. ETAP",
    "lat": 40.3423411,
    "lon": 36.5957996
  },
  {
    "id": "60713",
    "name": "TOKİ İLKOKULU",
    "lat": 40.3429462,
    "lon": 36.5983772
  },
  {
    "id": "60714",
    "name": "İLKOKUL 2",
    "lat": 40.3433919,
    "lon": 36.6012633
  },
  {
    "id": "60715",
    "name": "TOKİ PARK",
    "lat": 40.3425782,
    "lon": 36.6000724
  },
  {
    "id": "60581",
    "name": "TOKİ 4. ETAP",
    "lat": 40.3414088,
    "lon": 36.6002119
  },
  {
    "id": "60716",
    "name": "TOKİ 14",
    "lat": 40.3405216,
    "lon": 36.601097
  },
  {
    "id": "60717",
    "name": "TOKİ 15",
    "lat": 40.3396343,
    "lon": 36.5990853
  },
  {
    "id": "60718",
    "name": "TOKİ ÇIKIŞ",
    "lat": 40.3408896,
    "lon": 36.5978032
  },
  {
    "id": "60719",
    "name": "TOKİ KÖPRÜ ÇIKIŞ",
    "lat": 40.3377861,
    "lon": 36.6009307
  },
  {
    "id": "60720",
    "name": "UZUNBURUN GELİŞ",
    "lat": 40.3369519,
    "lon": 36.5954375
  },
  {
    "id": "60721",
    "name": "POLİS KARAKOLU GELİŞ",
    "lat": 40.3358479,
    "lon": 36.5841079
  },
  {
    "id": "60722",
    "name": "GALERİCİLER KARŞISI",
    "lat": 40.333926,
    "lon": 36.5767157
  },
  {
    "id": "60723",
    "name": "DOĞANCIBAĞLARI 2",
    "lat": 40.332184,
    "lon": 36.5710294
  },
  {
    "id": "60585",
    "name": "PAZARYERİ DURAĞI",
    "lat": 40.3236122,
    "lon": 36.5546572
  },
  {
    "id": "60679",
    "name": "PAZARYERİ 2",
    "lat": 40.3270476,
    "lon": 36.5572858
  },
  {
    "id": "60582",
    "name": "SAĞLIK MESLEK LİSESİ",
    "lat": 40.3398633,
    "lon": 36.5587771
  },
  {
    "id": "60680",
    "name": "TOPÇAM DURAĞI",
    "lat": 40.3403948,
    "lon": 36.5611374
  },
  {
    "id": "60689",
    "name": "AHİ EVLER 3",
    "lat": 40.3421734,
    "lon": 36.5605205
  },
  {
    "id": "60690",
    "name": "AHİ EVLER 4",
    "lat": 40.3431997,
    "lon": 36.5607029
  },
  {
    "id": "60692",
    "name": "AHİ EVLER 6",
    "lat": 40.3447452,
    "lon": 36.5594745
  },
  {
    "id": "60693",
    "name": "AHİ EVLER 7",
    "lat": 40.3459676,
    "lon": 36.5632081
  },
  {
    "id": "60694",
    "name": "AHİ EVLER SON DURAK",
    "lat": 40.344181,
    "lon": 36.5646082
  },
  {
    "id": "60695",
    "name": "AHİ EVLER İLK DURAK",
    "lat": 40.3450314,
    "lon": 36.5620387
  },
  {
    "id": "60691",
    "name": "AHİ EVLER 5",
    "lat": 40.3450191,
    "lon": 36.5593511
  },
  {
    "id": "60696",
    "name": "AHİ EVLER OKUL",
    "lat": 40.3431343,
    "lon": 36.5604508
  },
  {
    "id": "60697",
    "name": "AHİ EVLER 9",
    "lat": 40.3420957,
    "lon": 36.5600431
  },
  {
    "id": "60584",
    "name": "YAZICIOĞLU",
    "lat": 40.3417298,
    "lon": 36.561226
  },
  {
    "id": "60686",
    "name": "YAZICIOĞLU 9",
    "lat": 40.3416501,
    "lon": 36.5642059
  },
  {
    "id": "60687",
    "name": "YAZICIOĞLU 10",
    "lat": 40.3412903,
    "lon": 36.56618
  },
  {
    "id": "60688",
    "name": "YAZICIOĞLU 11",
    "lat": 40.340587,
    "lon": 36.5675479
  },
  {
    "id": "60681",
    "name": "YAZICIOĞLU 4",
    "lat": 40.3398796,
    "lon": 36.5644956
  },
  {
    "id": "60698",
    "name": "AHİ EVLER 10",
    "lat": 40.340403,
    "lon": 36.560601
  },
  {
    "id": "60699",
    "name": "SAĞLIK MESLEK 2",
    "lat": 40.3398714,
    "lon": 36.558305
  },
  {
    "id": "60700",
    "name": "TEDAŞ 2",
    "lat": 40.3360033,
    "lon": 36.5588522
  },
  {
    "id": "60586",
    "name": "DEVLET HASTANESİ ARKA DURĞI",
    "lat": 40.3278205,
    "lon": 36.5656865
  },
  {
    "id": "60701",
    "name": "TERMİNAL ARKASI",
    "lat": 40.325837,
    "lon": 36.5625644
  },
  {
    "id": "60702",
    "name": "ŞİFA",
    "lat": 40.3234895,
    "lon": 36.5571785
  },
  {
    "id": "60703",
    "name": "MURADİYE",
    "lat": 40.3234322,
    "lon": 36.5562236
  },
  {
    "id": "60162",
    "name": "NİKSAR YOLU 3",
    "lat": 40.3224261,
    "lon": 36.5541476
  },
  {
    "id": "60163",
    "name": "EMNİYET MÜD. ARKASI 2",
    "lat": 40.3212768,
    "lon": 36.5538794
  },
  {
    "id": "60590",
    "name": "ÇEKENNİ DURAĞI",
    "lat": 40.3172767,
    "lon": 36.5551856
  },
  {
    "id": "60164",
    "name": "DABAKHANE 2",
    "lat": 40.3158901,
    "lon": 36.5549523
  },
  {
    "id": "60165",
    "name": "VALİLİK ARKASI 2",
    "lat": 40.3143153,
    "lon": 36.5544212
  },
  {
    "id": "60166",
    "name": "İBNİ KEMAL İ.Ö.O 2",
    "lat": 40.3130023,
    "lon": 36.5537158
  },
  {
    "id": "60167",
    "name": "SAAT KULESİ",
    "lat": 40.3102084,
    "lon": 36.55352
  },
  {
    "id": "60682",
    "name": "YAZICIOĞLU 5",
    "lat": 40.3404807,
    "lon": 36.5677571
  },
  {
    "id": "60683",
    "name": "YAZICIOĞLU 6",
    "lat": 40.3414088,
    "lon": 36.5661693
  },
  {
    "id": "60684",
    "name": "YAZICIOĞLU 7",
    "lat": 40.3417973,
    "lon": 36.5642273
  },
  {
    "id": "60685",
    "name": "YAZICIOĞLU 8",
    "lat": 40.3418095,
    "lon": 36.5611911
  },
  {
    "id": "60587",
    "name": "GEZİRLİK 1",
    "lat": 40.3397692,
    "lon": 36.5862268
  },
  {
    "id": "60588",
    "name": "MÜLK EVLERİ",
    "lat": 40.3361832,
    "lon": 36.5743768
  },
  {
    "id": "60589",
    "name": "STADYUM ARKA DURAĞI",
    "lat": 40.32798,
    "lon": 36.5567601
  },
  {
    "id": "60591",
    "name": "PTT",
    "lat": 40.3138818,
    "lon": 36.5504837
  },
  {
    "id": "60592",
    "name": "GOP KARAKOLU",
    "lat": 40.3151784,
    "lon": 36.5465784
  },
  {
    "id": "60598",
    "name": "ERENLER MEZARLIĞI 1",
    "lat": 40.3152766,
    "lon": 36.5378398
  },
  {
    "id": "60594",
    "name": "SANAYİ ÜSTÜ DURAĞI",
    "lat": 40.3286016,
    "lon": 36.5458274
  },
  {
    "id": "60595",
    "name": "GOP ÜNİVERSİTESİ 1",
    "lat": 40.3252972,
    "lon": 36.5482736
  },
  {
    "id": "60596",
    "name": "DEDEMAN YANI",
    "lat": 40.3381623,
    "lon": 36.5444541
  },
  {
    "id": "60171",
    "name": "ÇİÇEK DURAĞI",
    "lat": 40.2972562,
    "lon": 36.5536433
  },
  {
    "id": "60151",
    "name": "BÖLGE TRAFİK 2",
    "lat": 40.3356884,
    "lon": 36.4877146
  },
  {
    "id": "60153",
    "name": "YAVUZ SULTAN SELİM CAMİ",
    "lat": 40.3378208,
    "lon": 36.4988136
  },
  {
    "id": "60154",
    "name": "İMAM HATİP 2",
    "lat": 40.3353776,
    "lon": 36.5052778
  },
  {
    "id": "60158",
    "name": "ŞEHİTLER CAMİ 2",
    "lat": 40.3309612,
    "lon": 36.5486544
  },
  {
    "id": "60160",
    "name": "GOP HASTANE 1",
    "lat": 40.324103,
    "lon": 36.5482092
  },
  {
    "id": "60161",
    "name": "NİKSAR YOLU 2",
    "lat": 40.3233709,
    "lon": 36.5512776
  },
  {
    "id": "60168",
    "name": "SAAT KULESİ 2",
    "lat": 40.3078522,
    "lon": 36.553992
  },
  {
    "id": "60169",
    "name": "BAKRAÇ SOKAĞI 2",
    "lat": 40.3059418,
    "lon": 36.5551776
  },
  {
    "id": "60170",
    "name": "SGK DURAĞI 2",
    "lat": 40.3040435,
    "lon": 36.55422
  }
]