[
  {
    "id": "35001",
    "name": "ÇARŞI MERKEZ",
    "lat": 41.1805358,
    "lon": 31.3862871
  },
  {
    "id": "35002",
    "name": "ERDEM YUVA",
    "lat": 41.1864444,
    "lon": 31.3849889
  },
  {
    "id": "35003",
    "name": "İNCİVEZALTI",
    "lat": 41.1900232,
    "lon": 31.3867538
  },
  {
    "id": "35004",
    "name": "KAVAKDERESİ",
    "lat": 41.1928954,
    "lon": 31.3900314
  },
  {
    "id": "35005",
    "name": "KAVAKDERESİ2",
    "lat": 41.1940115,
    "lon": 31.3911794
  },
  {
    "id": "35006",
    "name": "ÜÇEVLER",
    "lat": 41.1997191,
    "lon": 31.397429
  },
  {
    "id": "35007",
    "name": "IHLAMURYOLU",
    "lat": 41.2046089,
    "lon": 31.4031099
  },
  {
    "id": "35008",
    "name": "CEMALAMCA",
    "lat": 41.2089736,
    "lon": 31.4075811
  },
  {
    "id": "35009",
    "name": "MERVEALTI",
    "lat": 41.2115665,
    "lon": 31.4093165
  },
  {
    "id": "35010",
    "name": "EREĞLİ PLAJ",
    "lat": 41.2137901,
    "lon": 31.4104189
  },
  {
    "id": "35011",
    "name": "ERDEMYUVA2",
    "lat": 41.2514619,
    "lon": 31.4182054
  },
  {
    "id": "35012",
    "name": "MERDİVEN",
    "lat": 41.2758334,
    "lon": 31.4259462
  },
  {
    "id": "35013",
    "name": "EREĞLİ",
    "lat": 41.2767949,
    "lon": 31.4244227
  },
  {
    "id": "35014",
    "name": "TERMİNAL ARKASI",
    "lat": 41.2775186,
    "lon": 31.4220785
  },
  {
    "id": "35015",
    "name": "MERVE SON",
    "lat": 41.2123716,
    "lon": 31.4093675
  },
  {
    "id": "35016",
    "name": "CEMAL AMCA",
    "lat": 41.209014,
    "lon": 31.4073478
  },
  {
    "id": "35017",
    "name": "IHLAMUR YOLU",
    "lat": 41.204629,
    "lon": 31.4028605
  },
  {
    "id": "35018",
    "name": "ÜÇ EVLER",
    "lat": 41.1998725,
    "lon": 31.3972949
  },
  {
    "id": "35019",
    "name": "KAVAK DERESİ2",
    "lat": 41.1941689,
    "lon": 31.391107
  },
  {
    "id": "35020",
    "name": "KAVAK DERESİ",
    "lat": 41.1927803,
    "lon": 31.3895862
  },
  {
    "id": "35021",
    "name": "İNCİVEZALTI",
    "lat": 41.1901806,
    "lon": 31.3866599
  },
  {
    "id": "35022",
    "name": "ERDEM YUVA",
    "lat": 41.1864928,
    "lon": 31.3848011
  },
  {
    "id": "35023",
    "name": "KARŞIYAKA",
    "lat": 41.1782869,
    "lon": 31.3825132
  },
  {
    "id": "35024",
    "name": "ALAPLI TERMİNAL",
    "lat": 41.179369,
    "lon": 31.3843532
  },
  {
    "id": "35025",
    "name": "ÜST GEÇİT",
    "lat": 41.1864202,
    "lon": 31.3852518
  },
  {
    "id": "35026",
    "name": "AYDIN MARKET",
    "lat": 41.1876374,
    "lon": 31.3869684
  },
  {
    "id": "35027",
    "name": "1.DURAK",
    "lat": 41.1867855,
    "lon": 31.3861905
  },
  {
    "id": "35028",
    "name": "2.DURAK",
    "lat": 41.1863939,
    "lon": 31.3878803
  },
  {
    "id": "35029",
    "name": "3.DURAK",
    "lat": 41.1850132,
    "lon": 31.3889532
  },
  {
    "id": "35030",
    "name": "4.DURAK",
    "lat": 41.1843188,
    "lon": 31.3893287
  },
  {
    "id": "35031",
    "name": "KIZ MESLEK",
    "lat": 41.183257,
    "lon": 31.3909541
  },
  {
    "id": "35032",
    "name": "HASTANE",
    "lat": 41.1821044,
    "lon": 31.3927941
  },
  {
    "id": "35033",
    "name": "ÇAMLIK YOL AYRIMI",
    "lat": 41.1807375,
    "lon": 31.3940763
  },
  {
    "id": "35034",
    "name": "SU DEPOSU",
    "lat": 41.1799988,
    "lon": 31.3955353
  },
  {
    "id": "35035",
    "name": "PEMBE EV",
    "lat": 41.1784504,
    "lon": 31.3965814
  },
  {
    "id": "35036",
    "name": "ÇELİK MARKET",
    "lat": 41.1779215,
    "lon": 31.3982041
  },
  {
    "id": "35037",
    "name": "MUTLU MARKET",
    "lat": 41.1773724,
    "lon": 31.399387
  },
  {
    "id": "35038",
    "name": "DÖRT YOL",
    "lat": 41.1763953,
    "lon": 31.4005698
  },
  {
    "id": "35039",
    "name": "TEPEKENT CAMİ",
    "lat": 41.1759935,
    "lon": 31.4022462
  },
  {
    "id": "35040",
    "name": "690 EVLER",
    "lat": 41.1755655,
    "lon": 31.4043786
  },
  {
    "id": "35041",
    "name": "ÖZGE MARKET",
    "lat": 41.1749457,
    "lon": 31.4035981
  },
  {
    "id": "35042",
    "name": "KÖŞEM MARKET",
    "lat": 41.1751698,
    "lon": 31.4017473
  },
  {
    "id": "35043",
    "name": "BELEDİYE EVLERİ",
    "lat": 41.1736112,
    "lon": 31.4020907
  },
  {
    "id": "35044",
    "name": "MESLEK YÜKSEKOKULU",
    "lat": 41.1726381,
    "lon": 31.4024554
  },
  {
    "id": "35045",
    "name": "TEPEKÖY",
    "lat": 41.1703768,
    "lon": 31.4071574
  },
  {
    "id": "35046",
    "name": "DEPREM KONUTLARI",
    "lat": 41.1739928,
    "lon": 31.4054273
  },
  {
    "id": "35047",
    "name": "TEPEKÖY CAMİ",
    "lat": 41.1695797,
    "lon": 31.4087183
  },
  {
    "id": "35048",
    "name": "SAĞLIK OCAĞI",
    "lat": 41.1837354,
    "lon": 31.3890685
  },
  {
    "id": "35049",
    "name": "1050 EVLER1",
    "lat": 41.1805742,
    "lon": 31.390981
  },
  {
    "id": "35050",
    "name": "1050 EVLER2",
    "lat": 41.1794679,
    "lon": 31.3918312
  }
]