[
  {
    "id": "37001",
    "name": "Anadurak",
    "lat": 41.4312069,
    "lon": 33.7765345
  },
  {
    "id": "37002",
    "name": "Askeriye",
    "lat": 41.4478534,
    "lon": 33.764121
  },
  {
    "id": "37003",
    "name": "Adliye1",
    "lat": 41.4173794,
    "lon": 33.7800538
  },
  {
    "id": "37004",
    "name": "Adliye2",
    "lat": 41.4172308,
    "lon": 33.7812686
  },
  {
    "id": "37005",
    "name": "Anadolu1",
    "lat": 41.3669159,
    "lon": 33.7692516
  },
  {
    "id": "37006",
    "name": "Anadolu2",
    "lat": 41.3659503,
    "lon": 33.7700061
  },
  {
    "id": "37007",
    "name": "Acil Kvş1",
    "lat": 41.3685221,
    "lon": 33.7669838
  },
  {
    "id": "37008",
    "name": "Acil Kvş2",
    "lat": 41.3685866,
    "lon": 33.7669999
  },
  {
    "id": "37009",
    "name": "Ataçkent1",
    "lat": 41.4036565,
    "lon": 33.7902406
  },
  {
    "id": "37010",
    "name": "Ataçkent2",
    "lat": 41.4036524,
    "lon": 33.7910398
  },
  {
    "id": "37011",
    "name": "Budamış",
    "lat": 41.3347484,
    "lon": 33.7655722
  },
  {
    "id": "37012",
    "name": "Bld.Hiz.Bina1",
    "lat": 41.4285149,
    "lon": 33.7763536
  },
  {
    "id": "37013",
    "name": "Bld.Hiz.Bina2",
    "lat": 41.4278693,
    "lon": 33.7758922
  },
  {
    "id": "37014",
    "name": "C.Meydanı2",
    "lat": 41.376957,
    "lon": 33.777212
  },
  {
    "id": "37015",
    "name": "Cevizli Park1",
    "lat": 41.383539,
    "lon": 33.7789887
  },
  {
    "id": "37016",
    "name": "Cezaevi1",
    "lat": 41.4128116,
    "lon": 33.7841036
  },
  {
    "id": "37017",
    "name": "Cezaevi2",
    "lat": 41.4126649,
    "lon": 33.784345
  },
  {
    "id": "37018",
    "name": "Çengeller1",
    "lat": 41.3805192,
    "lon": 33.7784253
  },
  {
    "id": "37019",
    "name": "Çengeller2",
    "lat": 41.3804828,
    "lon": 33.7792155
  },
  {
    "id": "37020",
    "name": "Değirmen1",
    "lat": 41.4287031,
    "lon": 33.7986466
  },
  {
    "id": "37021",
    "name": "Değirmen2",
    "lat": 41.4287111,
    "lon": 33.7993063
  },
  {
    "id": "37022",
    "name": "Divan1",
    "lat": 41.4218817,
    "lon": 33.7902475
  },
  {
    "id": "37023",
    "name": "Divan2",
    "lat": 41.421715,
    "lon": 33.790785
  },
  {
    "id": "37024",
    "name": "Doğakent",
    "lat": 41.3510588,
    "lon": 33.7723626
  },
  {
    "id": "37025",
    "name": "Efekent1",
    "lat": 41.4325375,
    "lon": 33.7689156
  },
  {
    "id": "37026",
    "name": "Efekent2",
    "lat": 41.4320694,
    "lon": 33.7698073
  },
  {
    "id": "37027",
    "name": "Eski Sanayi1",
    "lat": 41.3947593,
    "lon": 33.779435
  },
  {
    "id": "37028",
    "name": "Eski Sanayi2",
    "lat": 41.394665,
    "lon": 33.779554
  },
  {
    "id": "37029",
    "name": "Esentepe",
    "lat": 41.3834584,
    "lon": 33.8006153
  },
  {
    "id": "37030",
    "name": "Göl Kvş1",
    "lat": 41.429589,
    "lon": 33.793284
  },
  {
    "id": "37031",
    "name": "Göl Kvş2",
    "lat": 41.429445,
    "lon": 33.793883
  },
  {
    "id": "37032",
    "name": "Hastane Üstü",
    "lat": 41.372492,
    "lon": 33.763891
  },
  {
    "id": "37033",
    "name": "Hacıbey Kvş1",
    "lat": 41.4113435,
    "lon": 33.8049782
  },
  {
    "id": "37034",
    "name": "Hacıbey Kvş2",
    "lat": 41.4109165,
    "lon": 33.8050521
  },
  {
    "id": "37035",
    "name": "Huzurkent1",
    "lat": 41.431855,
    "lon": 33.790449
  },
  {
    "id": "37036",
    "name": "Huzurkent2",
    "lat": 41.431993,
    "lon": 33.790424
  },
  {
    "id": "37037",
    "name": "Güzel Sanat1",
    "lat": 41.43905,
    "lon": 33.760998
  },
  {
    "id": "37038",
    "name": "İlahiyat2",
    "lat": 41.4378029,
    "lon": 33.7631228
  },
  {
    "id": "37039",
    "name": "Karayolları Kvş1",
    "lat": 41.4105298,
    "lon": 33.7907366
  },
  {
    "id": "37040",
    "name": "Karayolları Kvş2",
    "lat": 41.4104499,
    "lon": 33.7909608
  },
  {
    "id": "37041",
    "name": "Kışla Parkı1",
    "lat": 41.3887784,
    "lon": 33.7800033
  },
  {
    "id": "37042",
    "name": "Kışla Parkı2",
    "lat": 41.388041,
    "lon": 33.780322
  },
  {
    "id": "37043",
    "name": "Kredi Yurdu1",
    "lat": 41.4285457,
    "lon": 33.7701729
  },
  {
    "id": "37044",
    "name": "Kredi Yurdu2",
    "lat": 41.428523,
    "lon": 33.7703792
  },
  {
    "id": "37045",
    "name": "Süper Lise1",
    "lat": 41.428532,
    "lon": 33.778144
  },
  {
    "id": "37046",
    "name": "Süper Lise2",
    "lat": 41.4287388,
    "lon": 33.7781694
  },
  {
    "id": "37047",
    "name": "Küçükkent1",
    "lat": 41.420854,
    "lon": 33.79452
  },
  {
    "id": "37048",
    "name": "Küçükkent2",
    "lat": 41.4208691,
    "lon": 33.7945218
  },
  {
    "id": "37049",
    "name": "Milenyum Kvş1",
    "lat": 41.3627106,
    "lon": 33.7620987
  },
  {
    "id": "37050",
    "name": "Milenyum Kvş2",
    "lat": 41.3625939,
    "lon": 33.7626459
  },
  {
    "id": "37052",
    "name": "Myo1",
    "lat": 41.4248533,
    "lon": 33.7728863
  },
  {
    "id": "37070",
    "name": "Ş.Bacı Hast1",
    "lat": 41.4038016,
    "lon": 33.7837144
  },
  {
    "id": "37051",
    "name": "Müftülük1",
    "lat": 41.376297,
    "lon": 33.775992
  },
  {
    "id": "37062",
    "name": "Sinanbey1",
    "lat": 41.372252,
    "lon": 33.775403
  },
  {
    "id": "37063",
    "name": "Sinanbey2",
    "lat": 41.371832,
    "lon": 33.775551
  },
  {
    "id": "37071",
    "name": "Ş.Bacı Hast2",
    "lat": 41.4036919,
    "lon": 33.7839298
  },
  {
    "id": "37053",
    "name": "Myo2",
    "lat": 41.4244862,
    "lon": 33.7734767
  },
  {
    "id": "37086",
    "name": "Bayrak2",
    "lat": 41.4267162,
    "lon": 33.7718782
  },
  {
    "id": "37060",
    "name": "Sağlık2",
    "lat": 41.4324901,
    "lon": 33.7654923
  },
  {
    "id": "37088",
    "name": "Ş.Veli Yurdu1",
    "lat": 41.4370183,
    "lon": 33.7580781
  },
  {
    "id": "37059",
    "name": "Sağlık1",
    "lat": 41.4324956,
    "lon": 33.7657123
  },
  {
    "id": "37072",
    "name": "Tokibir",
    "lat": 41.4344938,
    "lon": 33.7756819
  },
  {
    "id": "37079",
    "name": "Yenişehir1",
    "lat": 41.4272922,
    "lon": 33.7768984
  },
  {
    "id": "37077",
    "name": "Uğurlu Kvş1",
    "lat": 41.4204893,
    "lon": 33.784625
  },
  {
    "id": "37064",
    "name": "Otogar1",
    "lat": 41.418501,
    "lon": 33.793771
  },
  {
    "id": "37081",
    "name": "Yüzüncüyıl1",
    "lat": 41.394318,
    "lon": 33.781768
  },
  {
    "id": "37082",
    "name": "Yüzüncüyıl2",
    "lat": 41.39425,
    "lon": 33.782035
  },
  {
    "id": "37065",
    "name": "Sunta Kvş2",
    "lat": 41.4164904,
    "lon": 33.7971948
  },
  {
    "id": "37080",
    "name": "Yenişehir2",
    "lat": 41.4271794,
    "lon": 33.7771404
  },
  {
    "id": "37075",
    "name": "Tosya Kvş1",
    "lat": 41.406703,
    "lon": 33.795929
  },
  {
    "id": "37066",
    "name": "Süt1",
    "lat": 41.3976696,
    "lon": 33.785468
  },
  {
    "id": "37078",
    "name": "Süt+1",
    "lat": 41.3962472,
    "lon": 33.785189
  },
  {
    "id": "37061",
    "name": "Sfc Önü",
    "lat": 41.3534391,
    "lon": 33.7621586
  },
  {
    "id": "37067",
    "name": "Süt2",
    "lat": 41.3956053,
    "lon": 33.7852722
  },
  {
    "id": "37076",
    "name": "Tosya Kvş2",
    "lat": 41.406942,
    "lon": 33.797998
  },
  {
    "id": "37054",
    "name": "Pırlaklar1",
    "lat": 41.3574022,
    "lon": 33.768002
  },
  {
    "id": "37055",
    "name": "Pırlaklar2",
    "lat": 41.3573629,
    "lon": 33.7683854
  },
  {
    "id": "37092",
    "name": "Yeşilkent",
    "lat": 41.32064,
    "lon": 33.777788
  },
  {
    "id": "37093",
    "name": "Örencik Toki",
    "lat": 41.3279955,
    "lon": 33.7755099
  },
  {
    "id": "37056",
    "name": "Poliklinkl2",
    "lat": 41.3694513,
    "lon": 33.7683927
  },
  {
    "id": "37085",
    "name": "Orman Fak",
    "lat": 41.4363729,
    "lon": 33.7659478
  },
  {
    "id": "37073",
    "name": "Tokiiki",
    "lat": 41.433187,
    "lon": 33.781048
  },
  {
    "id": "37057",
    "name": "Polis Okulu",
    "lat": 41.3574585,
    "lon": 33.7557831
  },
  {
    "id": "37068",
    "name": "Sarıkaya",
    "lat": 41.3814662,
    "lon": 33.7865177
  },
  {
    "id": "37074",
    "name": "Tokiüç",
    "lat": 41.3846901,
    "lon": 33.7905839
  },
  {
    "id": "37058",
    "name": "Rehabilitasyon",
    "lat": 41.3853623,
    "lon": 33.7827626
  },
  {
    "id": "37098",
    "name": "Sec Market",
    "lat": 41.402909,
    "lon": 33.81166
  },
  {
    "id": "37096",
    "name": "Devlet Hastanesi",
    "lat": 41.418093,
    "lon": 33.790088
  },
  {
    "id": "37094",
    "name": "Nazarkent",
    "lat": 41.362904,
    "lon": 33.7618521
  },
  {
    "id": "37090",
    "name": "Hayvan Pazarı",
    "lat": 41.3819773,
    "lon": 33.8118163
  },
  {
    "id": "37100",
    "name": "Havalimanı",
    "lat": 41.314777,
    "lon": 33.8002451
  }
]