[
  {
    "id": "10000",
    "name": "ÇINARLI KENT 1",
    "lat": 40.7706983,
    "lon": 29.8366713,
    "routes": [
      "41103",
      "41105",
      "41147"
    ]
  },
  {
    "id": "10002",
    "name": "ARPALIK CADDESİ",
    "lat": 40.714517,
    "lon": 29.8718779,
    "routes": [
      "41662",
      "42650"
    ]
  },
  {
    "id": "10003",
    "name": "SERBEST BÖLGE",
    "lat": 40.7197443,
    "lon": 29.8671182,
    "routes": [
      "41662"
    ]
  },
  {
    "id": "10004",
    "name": "YUVAM 1",
    "lat": 40.70966646,
    "lon": 29.87025104,
    "routes": [
      "41662"
    ]
  },
  {
    "id": "10005",
    "name": "SEBAHATTİN YAKUT CADDESİ",
    "lat": 40.709666,
    "lon": 29.871607,
    "routes": [
      "41662"
    ]
  },
  {
    "id": "10006",
    "name": "ARPALIK CADDESİ 1",
    "lat": 40.709894,
    "lon": 29.875288,
    "routes": [
      "41662"
    ]
  },
  {
    "id": "10007",
    "name": "MAKİNE KİMYA",
    "lat": 40.7125225,
    "lon": 29.8931765,
    "routes": [
      "41662",
      "42650"
    ]
  },
  {
    "id": "10008",
    "name": "KARŞIYAKA MUHTARLIĞI",
    "lat": 40.7131092,
    "lon": 29.8920872,
    "routes": [
      "41662"
    ]
  },
  {
    "id": "10009",
    "name": "YENİKÖY GÖZDEM SİTESİ",
    "lat": 40.705566,
    "lon": 29.879011,
    "routes": [
      "41650",
      "41651",
      "41652",
      "41670",
      "41695",
      "43011"
    ]
  },
  {
    "id": "10010",
    "name": "YAZLIK SAPAĞI 2",
    "lat": 40.705563,
    "lon": 29.874996,
    "routes": [
      "41650",
      "41671",
      "43010",
      "43011"
    ]
  },
  {
    "id": "10011",
    "name": "CEBECİ PEMBE KAYALAR",
    "lat": 41.1812233,
    "lon": 30.240796,
    "routes": [
      "51082",
      "51084"
    ]
  },
  {
    "id": "10012",
    "name": "YENİKÖY AİLE SAĞLIĞI MERKEZİ",
    "lat": 40.7050826,
    "lon": 29.8846402,
    "routes": [
      "41650",
      "41651",
      "41652",
      "41656",
      "41662",
      "41670",
      "41698",
      "41699",
      "42650"
    ]
  },
  {
    "id": "10013",
    "name": "KOCAÇEŞME CADDESİ",
    "lat": 40.7871017,
    "lon": 29.9542432,
    "routes": [
      "41013",
      "41081",
      "41105"
    ]
  },
  {
    "id": "10014",
    "name": "HACI MAHMUT CADDESİ 2",
    "lat": 40.689397,
    "lon": 29.958096,
    "routes": [
      "41621",
      "41622",
      "41626",
      "41627"
    ]
  },
  {
    "id": "10015",
    "name": "YENİKÖY ATAKENT 9",
    "lat": 40.70458094,
    "lon": 29.88713517,
    "routes": [
      "41650",
      "41651",
      "41652",
      "41656",
      "41670"
    ]
  },
  {
    "id": "10016",
    "name": "YENİKÖY ATAKENT 8",
    "lat": 40.70705291,
    "lon": 29.88780312,
    "routes": [
      "41650",
      "41656"
    ]
  },
  {
    "id": "10017",
    "name": "YENİKÖY ATAKENT 7",
    "lat": 40.70721,
    "lon": 29.889254,
    "routes": [
      "41650",
      "41656"
    ]
  },
  {
    "id": "10018",
    "name": "YENİKÖY ATAKENT 6",
    "lat": 40.70713777,
    "lon": 29.89122476,
    "routes": [
      "41650",
      "41656"
    ]
  },
  {
    "id": "10019",
    "name": "YENİKÖY ATAKENT 5",
    "lat": 40.70571108,
    "lon": 29.89078904,
    "routes": [
      "41650",
      "41656"
    ]
  },
  {
    "id": "10020",
    "name": "DENİZDİBİ İLKOKULU 1",
    "lat": 40.702604,
    "lon": 29.889681,
    "routes": [
      "41650",
      "41651",
      "41652",
      "41656",
      "41670"
    ]
  },
  {
    "id": "10021",
    "name": "DENİZDİBİ İLKOKULU",
    "lat": 40.70257214,
    "lon": 29.88980216,
    "routes": [
      "41650",
      "41651",
      "41652",
      "41656",
      "41670"
    ]
  },
  {
    "id": "10022",
    "name": "YENİKÖY ATAKENT 3",
    "lat": 40.7018465,
    "lon": 29.8886202,
    "routes": [
      "41650",
      "41651",
      "41652",
      "41656",
      "41670"
    ]
  },
  {
    "id": "10023",
    "name": "BAŞİSKELE KÜLTÜR MERKEZİ",
    "lat": 40.701994,
    "lon": 29.888488,
    "routes": [
      "41650",
      "41651",
      "41652",
      "41656",
      "41670"
    ]
  },
  {
    "id": "10024",
    "name": "HÜRRİYET CADDESİ 2",
    "lat": 40.689539,
    "lon": 29.909888,
    "routes": [
      "41631",
      "41632",
      "41699",
      "43012"
    ]
  },
  {
    "id": "10025",
    "name": "HÜRRİYET CADDESİ 3",
    "lat": 40.689612,
    "lon": 29.909694,
    "routes": [
      "41631",
      "41632",
      "41699",
      "43012",
      "70001"
    ]
  },
  {
    "id": "10026",
    "name": "TOPALLAR SAPAĞI",
    "lat": 40.8528461,
    "lon": 29.9753915,
    "routes": [
      "51017",
      "51048",
      "51049"
    ]
  },
  {
    "id": "10027",
    "name": "ERBAY CAMİ 1",
    "lat": 40.6979978,
    "lon": 29.8817859,
    "routes": [
      "41650",
      "41651",
      "41662",
      "41670",
      "41699",
      "42650"
    ]
  },
  {
    "id": "10028",
    "name": "KOMUTAN SOKAK",
    "lat": 40.697921,
    "lon": 29.888035,
    "routes": [
      "41650",
      "41651",
      "41652",
      "41656",
      "43012"
    ]
  },
  {
    "id": "10029",
    "name": "YENİKÖY YURT 1",
    "lat": 40.6949796,
    "lon": 29.8922321,
    "routes": [
      "41650",
      "41651",
      "41652",
      "41656"
    ]
  },
  {
    "id": "10030",
    "name": "MİLLİ EGEMENLİK CADDESİ 1",
    "lat": 40.694577,
    "lon": 29.89357,
    "routes": [
      "41652",
      "41656",
      "43012"
    ]
  },
  {
    "id": "10031",
    "name": "İHSAN PEKER SOKAK 1",
    "lat": 40.693578,
    "lon": 29.895046,
    "routes": [
      "41651",
      "41656"
    ]
  },
  {
    "id": "10032",
    "name": "YENİKÖY ÜÇYOL 1",
    "lat": 40.693054,
    "lon": 29.897976,
    "routes": [
      "41670",
      "41699",
      "51021"
    ]
  },
  {
    "id": "10033",
    "name": "602. SOKAK 1",
    "lat": 40.7042469,
    "lon": 29.8299094,
    "routes": [
      "41716"
    ]
  },
  {
    "id": "10034",
    "name": "YENİKÖY MEZARLIĞI 1",
    "lat": 40.6967341,
    "lon": 29.9030176,
    "routes": [
      "51021"
    ]
  },
  {
    "id": "10035",
    "name": "SEYMEN CAMİ",
    "lat": 40.709884,
    "lon": 29.903869,
    "routes": [
      "41631",
      "41632",
      "41633",
      "41634",
      "41635",
      "41699",
      "51021"
    ]
  },
  {
    "id": "10036",
    "name": "SEYMEN CAMİ 1",
    "lat": 40.709858,
    "lon": 29.903699,
    "routes": [
      "41631",
      "41632",
      "41633",
      "41634",
      "41635",
      "41699",
      "51021"
    ]
  },
  {
    "id": "10037",
    "name": "SEYMEN ÜSTÜ 1",
    "lat": 40.708039,
    "lon": 29.904093,
    "routes": [
      "41631",
      "41632",
      "41633",
      "41634",
      "41635",
      "41699",
      "51021"
    ]
  },
  {
    "id": "10038",
    "name": "CEYHAN CADDESİ",
    "lat": 40.70688075,
    "lon": 29.90383506,
    "routes": [
      "41631",
      "41632",
      "41633",
      "41634",
      "41635",
      "41699",
      "51021"
    ]
  },
  {
    "id": "10039",
    "name": "BAHÇECİK FIRIN",
    "lat": 40.70450535,
    "lon": 29.90333811,
    "routes": [
      "41631",
      "41632",
      "41633",
      "41634",
      "41635",
      "41699",
      "51021"
    ]
  },
  {
    "id": "10040",
    "name": "BAHÇECİK FIRIN 1",
    "lat": 40.704422,
    "lon": 29.903217,
    "routes": [
      "41631",
      "41632",
      "41633",
      "41634",
      "41635",
      "41699",
      "51021"
    ]
  },
  {
    "id": "10041",
    "name": "YENİ MAHALLE ÜST DURAK",
    "lat": 40.70261808,
    "lon": 29.90369407,
    "routes": [
      "41631",
      "41632",
      "41633",
      "41634",
      "41635",
      "41699",
      "51021"
    ]
  },
  {
    "id": "10042",
    "name": "SEYMEN AİLE SAĞLIĞI MERKEZİ",
    "lat": 40.7028651,
    "lon": 29.9034682,
    "routes": [
      "41631",
      "41632",
      "41633",
      "41634",
      "41635",
      "41699",
      "51021"
    ]
  },
  {
    "id": "10043",
    "name": "YENİKÖY SAPAĞI 2",
    "lat": 40.69957135,
    "lon": 29.90514128,
    "routes": [
      "41631",
      "41632",
      "41633",
      "41634",
      "41635",
      "43012",
      "51021"
    ]
  },
  {
    "id": "10044",
    "name": "KOÇOĞLU CADDESİ 1",
    "lat": 40.69776652,
    "lon": 29.9068771,
    "routes": [
      "41631",
      "41632",
      "41633",
      "41634",
      "41635",
      "41699",
      "43012"
    ]
  },
  {
    "id": "10045",
    "name": "HACI ASLAN CADDESİ",
    "lat": 40.69633756,
    "lon": 29.90845636,
    "routes": [
      "41631",
      "41632",
      "41633",
      "41634",
      "41635",
      "41699"
    ]
  },
  {
    "id": "10046",
    "name": "DAMLAR SAPAĞI",
    "lat": 40.6962898,
    "lon": 29.9081612,
    "routes": [
      "41631",
      "41632",
      "41633",
      "41634",
      "41635",
      "41699",
      "43012",
      "70001"
    ]
  },
  {
    "id": "10047",
    "name": "HACI ASLAN CADDESİ 2",
    "lat": 40.696658,
    "lon": 29.9112223,
    "routes": [
      "41633",
      "41634",
      "41635"
    ]
  },
  {
    "id": "10048",
    "name": "HACI ASLAN CADDESİ 3",
    "lat": 40.6966014,
    "lon": 29.9144592,
    "routes": [
      "41633",
      "41634",
      "41635"
    ]
  },
  {
    "id": "10049",
    "name": "DAMLAR CAMİ",
    "lat": 40.6956599,
    "lon": 29.917239,
    "routes": [
      "41633",
      "41634"
    ]
  },
  {
    "id": "10050",
    "name": "BAHÇECİK DAMLAR İLKOKULU 1",
    "lat": 40.69410548,
    "lon": 29.91916808,
    "routes": [
      "41633",
      "41634",
      "41635",
      "41699",
      "43012"
    ]
  },
  {
    "id": "11401",
    "name": "OTOGAR DOĞU GİRİŞİ",
    "lat": 40.7751053,
    "lon": 29.9752625,
    "routes": [
      "41007",
      "41010",
      "41024",
      "41025",
      "41029",
      "41255",
      "41265",
      "42015",
      "51066",
      "61001",
      "70005"
    ]
  },
  {
    "id": "11442",
    "name": "DOĞU TERMİNALİ SAPAĞI",
    "lat": 40.7760842,
    "lon": 29.9705462,
    "routes": [
      "41007",
      "41010",
      "41138",
      "41151",
      "41152",
      "41154",
      "41163",
      "41170",
      "41175",
      "41190",
      "41200",
      "41255",
      "41265",
      "41280",
      "41300",
      "41305",
      "41400",
      "41405",
      "41435",
      "41530",
      "41698",
      "41702",
      "41752",
      "41755",
      "41801",
      "42435",
      "43016",
      "61001",
      "65001",
      "65002",
      "65003",
      "65004"
    ]
  },
  {
    "id": "80405",
    "name": "KARAYOLU CADDESİ 1",
    "lat": 40.7800349,
    "lon": 29.9726955,
    "routes": [
      "41007",
      "41010",
      "41170",
      "41175",
      "41190",
      "41255",
      "41265",
      "41300",
      "41305",
      "41435",
      "41530",
      "41755",
      "41801",
      "43016",
      "61001",
      "65001"
    ]
  },
  {
    "id": "81391",
    "name": "YEŞİLOVA SAPAĞI 1",
    "lat": 40.787082,
    "lon": 29.975801,
    "routes": [
      "41010",
      "41170",
      "41175",
      "41190",
      "41255",
      "41265",
      "41300",
      "41305",
      "41405",
      "41435",
      "41530",
      "41755",
      "41801",
      "43016",
      "61001"
    ]
  },
  {
    "id": "81133",
    "name": "KREDİ YURTLAR KURUMU ALİ FUAT CEBESOY ÖĞRENCİ YURDU",
    "lat": 40.7902079,
    "lon": 29.9792684,
    "routes": [
      "41010",
      "41170",
      "41175",
      "41190",
      "41255",
      "41265",
      "41300",
      "41305",
      "41405",
      "41435",
      "41530",
      "41755",
      "41801",
      "43016",
      "51044",
      "51045",
      "61001"
    ]
  },
  {
    "id": "81196",
    "name": "EGEMENLİK CADDESİ 1",
    "lat": 40.8010627,
    "lon": 29.9806186,
    "routes": [
      "41010",
      "41800",
      "41806",
      "51015",
      "51024",
      "61001"
    ]
  },
  {
    "id": "80674",
    "name": "NİSA SOKAK 1",
    "lat": 40.7957508,
    "lon": 29.9775108,
    "routes": [
      "41006",
      "41010",
      "41024",
      "41100",
      "41210",
      "61001"
    ]
  },
  {
    "id": "80673",
    "name": "TEPEKÖY CADDESİ",
    "lat": 40.796839,
    "lon": 29.9750955,
    "routes": [
      "41006",
      "41010",
      "41024",
      "41100",
      "41210",
      "61001"
    ]
  },
  {
    "id": "41579",
    "name": "DOĞA PARKI",
    "lat": 40.797449,
    "lon": 29.973814,
    "routes": [
      "41006",
      "41010",
      "41024",
      "41100",
      "41210",
      "61001"
    ]
  },
  {
    "id": "80448",
    "name": "KARAKUZU SOKAK",
    "lat": 40.798153,
    "lon": 29.97449,
    "routes": [
      "41010",
      "41024",
      "41070",
      "41092",
      "41100",
      "41210",
      "42032",
      "61001",
      "70007"
    ]
  },
  {
    "id": "80671",
    "name": "YEŞEREN PARK 1",
    "lat": 40.7987834,
    "lon": 29.9770923,
    "routes": [
      "41010",
      "41024",
      "41070",
      "41092",
      "41100",
      "41210",
      "42032",
      "61001",
      "70007"
    ]
  },
  {
    "id": "80668",
    "name": "191. ADA",
    "lat": 40.799472,
    "lon": 29.97546,
    "routes": [
      "41010",
      "41024",
      "41070",
      "41092",
      "41100",
      "41210",
      "42032",
      "61001",
      "70007"
    ]
  },
  {
    "id": "80650",
    "name": "BAYINDIRLIK İŞ MERKEZİ 1",
    "lat": 40.801481,
    "lon": 29.9738854,
    "routes": [
      "41010",
      "41024",
      "41070",
      "41092",
      "41100",
      "41210",
      "42032",
      "61001",
      "70007"
    ]
  },
  {
    "id": "80652",
    "name": "MENEKŞE PARK",
    "lat": 40.8019954,
    "lon": 29.9716808,
    "routes": [
      "41010",
      "41024",
      "41070",
      "41092",
      "41100",
      "41210",
      "42032",
      "61001",
      "70007"
    ]
  },
  {
    "id": "80654",
    "name": "BAYINDIRLIK 11. ADA 1",
    "lat": 40.802822,
    "lon": 29.969992,
    "routes": [
      "41010",
      "41024",
      "41070",
      "41092",
      "41100",
      "41210",
      "42032",
      "61001",
      "70007"
    ]
  },
  {
    "id": "80657",
    "name": "BAYINDIRLIK YÜZME HAVUZU 1",
    "lat": 40.8028439,
    "lon": 29.9677649,
    "routes": [
      "41010",
      "41024",
      "41070",
      "41092",
      "41100",
      "41210",
      "42032",
      "61001",
      "70007"
    ]
  },
  {
    "id": "80658",
    "name": "BAYINDIRLIK 7. ADA",
    "lat": 40.8029098,
    "lon": 29.9652015,
    "routes": [
      "41010",
      "41024",
      "41070",
      "41092",
      "41100",
      "41210",
      "61001",
      "70007"
    ]
  },
  {
    "id": "80660",
    "name": "AYAZMA KAPALI PAZAR",
    "lat": 40.8025852,
    "lon": 29.9630369,
    "routes": [
      "41010",
      "41024",
      "41070",
      "41092",
      "41100",
      "41210",
      "61001",
      "70007"
    ]
  },
  {
    "id": "80663",
    "name": "30 AĞUSTOS İLKOKULU",
    "lat": 40.8022485,
    "lon": 29.9604935,
    "routes": [
      "41010",
      "41024",
      "41070",
      "41092",
      "41100",
      "41210",
      "61001",
      "70007"
    ]
  },
  {
    "id": "80664",
    "name": "BAYINDIRLIK 5. ADA 1",
    "lat": 40.802021,
    "lon": 29.9587394,
    "routes": [
      "41010",
      "41024",
      "41070",
      "41092",
      "41100",
      "41210",
      "61001",
      "70007"
    ]
  },
  {
    "id": "80908",
    "name": "ŞEHİT ÖZCAN KAN FEN LİSESİ 1",
    "lat": 40.8015526,
    "lon": 29.956733,
    "routes": [
      "41010",
      "41024",
      "41070",
      "41092",
      "41100",
      "41210",
      "61001",
      "70007"
    ]
  },
  {
    "id": "80666",
    "name": "BAYINDIRLIK 2. ADA",
    "lat": 40.8007115,
    "lon": 29.9555553,
    "routes": [
      "41010",
      "41024",
      "41070",
      "41092",
      "41100",
      "41210",
      "61001",
      "70007"
    ]
  },
  {
    "id": "80225",
    "name": "BAYINDIRLIK İŞ MERKEZİ 4",
    "lat": 40.8005742,
    "lon": 29.9533167,
    "routes": [
      "41010",
      "41024",
      "41070",
      "41088",
      "41092",
      "41100",
      "41210",
      "61001",
      "70007"
    ]
  },
  {
    "id": "80880",
    "name": "AYAZMA PARKI",
    "lat": 40.80096,
    "lon": 29.9507402,
    "routes": [
      "41010",
      "41024",
      "41070",
      "41100",
      "41210",
      "42032",
      "61001",
      "70007"
    ]
  },
  {
    "id": "80222",
    "name": "REHABİLİTASYON MERKEZİ",
    "lat": 40.7998767,
    "lon": 29.9486943,
    "routes": [
      "41010",
      "41024",
      "41070",
      "41081",
      "41088",
      "41210",
      "42081",
      "61001",
      "70007"
    ]
  },
  {
    "id": "80221",
    "name": "ÜNİVERSİTE CADDESİ 1",
    "lat": 40.8000715,
    "lon": 29.9475159,
    "routes": [
      "41010",
      "41013",
      "41024",
      "41070",
      "41085",
      "41105",
      "41145",
      "41210",
      "43016",
      "61001",
      "65001"
    ]
  },
  {
    "id": "81166",
    "name": "ÜNİVERSİTE CADDESİ",
    "lat": 40.8023488,
    "lon": 29.9477842,
    "routes": [
      "41010",
      "41013",
      "41024",
      "41070",
      "41085",
      "41105",
      "41145",
      "41210",
      "43016",
      "61001",
      "65001"
    ]
  },
  {
    "id": "41411",
    "name": "KENT MEZARLIĞI",
    "lat": 40.8037678,
    "lon": 29.9426901,
    "routes": [
      "41010",
      "41013",
      "41024",
      "41070",
      "41085",
      "41105",
      "41145",
      "41170",
      "41175",
      "41190",
      "41210",
      "41255",
      "41300",
      "41305",
      "41405",
      "41435",
      "41530",
      "41755",
      "43016",
      "61001",
      "65001"
    ]
  },
  {
    "id": "80212",
    "name": "SEKBANLI KAVŞAĞI",
    "lat": 40.813792,
    "lon": 29.938838,
    "routes": [
      "41010",
      "41013",
      "41020",
      "41024",
      "41033",
      "41043",
      "41053",
      "41067",
      "41069",
      "41070",
      "41085",
      "41105",
      "41115",
      "41133",
      "41145",
      "41170",
      "41175",
      "41190",
      "41210",
      "41255",
      "41265",
      "41300",
      "41305",
      "41405",
      "41435",
      "41530",
      "41600",
      "41630",
      "41635",
      "41640",
      "41645",
      "41650",
      "41750",
      "41755",
      "42115",
      "43016",
      "51029",
      "51030",
      "51031",
      "51034",
      "61001",
      "65001"
    ]
  },
  {
    "id": "41000",
    "name": "ŞEHİT ESMA KIZ YURDU",
    "lat": 40.8219829,
    "lon": 29.9365038,
    "routes": [
      "41010",
      "41020",
      "61001",
      "65001"
    ]
  },
  {
    "id": "41416",
    "name": "ŞEHİT ESMA KIZ YURDU 1",
    "lat": 40.8222936,
    "lon": 29.9341046,
    "routes": [
      "41010",
      "41013",
      "41020",
      "41024",
      "41033",
      "41043",
      "41053",
      "41067",
      "41070",
      "41085",
      "41105",
      "41115",
      "41133",
      "41145",
      "41170",
      "41175",
      "41190",
      "41210",
      "41255",
      "41300",
      "41305",
      "41405",
      "41435",
      "41530",
      "41600",
      "41630",
      "41635",
      "41640",
      "41645",
      "41650",
      "41750",
      "41755",
      "42115",
      "43016",
      "51029",
      "51030",
      "51031",
      "51034",
      "61001",
      "65001"
    ]
  },
  {
    "id": "80213",
    "name": "UMUTTEPE B KAPISI 1",
    "lat": 40.8235986,
    "lon": 29.9265273,
    "routes": [
      "41010",
      "41013",
      "41020",
      "41024",
      "41033",
      "41043",
      "41053",
      "41067",
      "41070",
      "41085",
      "41105",
      "41115",
      "41133",
      "41145",
      "41170",
      "41175",
      "41190",
      "41210",
      "41255",
      "41265",
      "41300",
      "41305",
      "41405",
      "41435",
      "41530",
      "41600",
      "41630",
      "41635",
      "41640",
      "41645",
      "41650",
      "41750",
      "41755",
      "42115",
      "43016",
      "51029",
      "51030",
      "51031",
      "51034",
      "65001"
    ]
  },
  {
    "id": "41420",
    "name": "UMUTTEPE A KAPISI",
    "lat": 40.8252328,
    "lon": 29.9215932,
    "routes": [
      "41010",
      "41013",
      "41014",
      "41020",
      "41024",
      "41033",
      "41043",
      "41053",
      "41067",
      "41070",
      "41085",
      "41105",
      "41115",
      "41133",
      "41145",
      "41170",
      "41175",
      "41190",
      "41210",
      "41255",
      "41300",
      "41405",
      "41435",
      "41530",
      "41600",
      "41630",
      "41635",
      "41640",
      "41645",
      "41650",
      "41750",
      "41755",
      "42115",
      "43016",
      "51029",
      "51030",
      "51031",
      "51034",
      "61001",
      "65001"
    ]
  },
  {
    "id": "80215",
    "name": "KOÜ HASTANE",
    "lat": 40.8236128,
    "lon": 29.9184291,
    "routes": [
      "41010",
      "41013",
      "41014",
      "41020",
      "41024",
      "41033",
      "41043",
      "41053",
      "41070",
      "41073",
      "41085",
      "41105",
      "41115",
      "41133",
      "41145",
      "41170",
      "41175",
      "41190",
      "41210",
      "41255",
      "41265",
      "41300",
      "41305",
      "41405",
      "41435",
      "41530",
      "41600",
      "41630",
      "41635",
      "41640",
      "41645",
      "41650",
      "41750",
      "42115",
      "43016",
      "61001"
    ]
  },
  {
    "id": "41003",
    "name": "UMUTTEPE PERONLAR",
    "lat": 40.8240889,
    "lon": 29.9209926,
    "routes": [
      "41010",
      "41013",
      "41014",
      "41020",
      "41024",
      "41033",
      "41053",
      "41070",
      "41073",
      "41085",
      "41105",
      "41115",
      "41133",
      "41145",
      "41170",
      "41175",
      "41190",
      "41210",
      "41265",
      "41300",
      "41305",
      "41405",
      "41435",
      "41530",
      "41600",
      "41630",
      "41635",
      "41640",
      "41645",
      "41650",
      "41750",
      "41755",
      "42115",
      "43016",
      "61001",
      "65001"
    ]
  },
  {
    "id": "80218",
    "name": "UMUTTEPE B KAPISI 2",
    "lat": 40.8232829,
    "lon": 29.9251148,
    "routes": [
      "41010",
      "41013",
      "41020",
      "41024",
      "41033",
      "41043",
      "41053",
      "41067",
      "41070",
      "41085",
      "41105",
      "41115",
      "41133",
      "41145",
      "41170",
      "41175",
      "41190",
      "41210",
      "41255",
      "41265",
      "41300",
      "41305",
      "41405",
      "41435",
      "41530",
      "41600",
      "41630",
      "41635",
      "41640",
      "41645",
      "41650",
      "41750",
      "41755",
      "42115",
      "43016",
      "51029",
      "51030",
      "51031",
      "51034",
      "61001",
      "65001"
    ]
  },
  {
    "id": "41434",
    "name": "ŞEHİT ESMA KIZ YURDU 2",
    "lat": 40.8217259,
    "lon": 29.9338225,
    "routes": [
      "41010",
      "41013",
      "41020",
      "41024",
      "41033",
      "41043",
      "41053",
      "41067",
      "41070",
      "41085",
      "41105",
      "41115",
      "41133",
      "41145",
      "41170",
      "41175",
      "41190",
      "41210",
      "41255",
      "41300",
      "41305",
      "41405",
      "41435",
      "41530",
      "41600",
      "41630",
      "41635",
      "41640",
      "41645",
      "41650",
      "41750",
      "41755",
      "42115",
      "43016",
      "51029",
      "51030",
      "51031",
      "51034",
      "61001",
      "65001"
    ]
  },
  {
    "id": "80219",
    "name": "KABAOĞLU KAVŞAĞI",
    "lat": 40.813839,
    "lon": 29.9381805,
    "routes": [
      "41010",
      "41013",
      "41020",
      "41024",
      "41033",
      "41043",
      "41053",
      "41067",
      "41069",
      "41070",
      "41085",
      "41105",
      "41115",
      "41133",
      "41145",
      "41170",
      "41175",
      "41190",
      "41210",
      "41255",
      "41265",
      "41300",
      "41305",
      "41405",
      "41435",
      "41530",
      "41600",
      "41630",
      "41635",
      "41640",
      "41645",
      "41650",
      "41750",
      "41755",
      "42115",
      "43016",
      "51029",
      "51030",
      "51031",
      "51034",
      "61001",
      "65001"
    ]
  },
  {
    "id": "41443",
    "name": "KENT MEZARLIĞI 1",
    "lat": 40.80339,
    "lon": 29.943762,
    "routes": [
      "41010",
      "41013",
      "41024",
      "41070",
      "41085",
      "41105",
      "41145",
      "41170",
      "41175",
      "41190",
      "41210",
      "41255",
      "41265",
      "41300",
      "41305",
      "41405",
      "41435",
      "41530",
      "41755",
      "43016",
      "61001",
      "65001"
    ]
  },
  {
    "id": "81168",
    "name": "ÜNİVERSİTE CADDESİ 2",
    "lat": 40.8016076,
    "lon": 29.947241,
    "routes": [
      "41010",
      "41013",
      "41024",
      "41070",
      "41085",
      "41105",
      "41145",
      "41210",
      "43016",
      "61001",
      "65001"
    ]
  },
  {
    "id": "81227",
    "name": "ÜNİVERSİTE CADDESİ 3",
    "lat": 40.800163,
    "lon": 29.947276,
    "routes": [
      "41010",
      "41013",
      "41024",
      "41070",
      "41085",
      "41105",
      "41145",
      "41210",
      "43016",
      "61001"
    ]
  },
  {
    "id": "81226",
    "name": "REHABİLİTASYON MERKEZİ 2",
    "lat": 40.7998207,
    "lon": 29.9487038,
    "routes": [
      "41010",
      "41024",
      "41070",
      "41081",
      "41088",
      "41210",
      "42081",
      "61001"
    ]
  },
  {
    "id": "80223",
    "name": "REHABİLİTASYON MERKEZİ 1",
    "lat": 40.799995,
    "lon": 29.94968,
    "routes": [
      "41010",
      "41024",
      "41070",
      "41088",
      "41092",
      "41210",
      "42032",
      "61001"
    ]
  },
  {
    "id": "80224",
    "name": "BAYINDIRLIK İŞ MERKEZİ 3",
    "lat": 40.8005823,
    "lon": 29.9522078,
    "routes": [
      "41010",
      "41024",
      "41070",
      "41088",
      "41092",
      "41210",
      "42032",
      "61001"
    ]
  },
  {
    "id": "80667",
    "name": "BAYINDIRLIK 2. ADA 1",
    "lat": 40.8005843,
    "lon": 29.9556937,
    "routes": [
      "41010",
      "41024",
      "41070",
      "41092",
      "41210",
      "61001"
    ]
  },
  {
    "id": "80909",
    "name": "ŞEHİT ÖZCAN KAN FEN LİSESİ",
    "lat": 40.8013442,
    "lon": 29.956808,
    "routes": [
      "41010",
      "41024",
      "41070",
      "41092",
      "41210",
      "61001"
    ]
  },
  {
    "id": "80665",
    "name": "BAYINDIRLIK 5. ADA",
    "lat": 40.801781,
    "lon": 29.958778,
    "routes": [
      "41010",
      "41024",
      "41070",
      "41092",
      "41210",
      "61001"
    ]
  },
  {
    "id": "80662",
    "name": "ULU CAMİ",
    "lat": 40.8021033,
    "lon": 29.9609573,
    "routes": [
      "41010",
      "41024",
      "41070",
      "41092",
      "41210",
      "61001"
    ]
  },
  {
    "id": "80661",
    "name": "AYAZMA KAPALI PAZARI 1",
    "lat": 40.8024077,
    "lon": 29.9630749,
    "routes": [
      "41010",
      "41024",
      "41070",
      "41092",
      "41210",
      "61001"
    ]
  },
  {
    "id": "80659",
    "name": "BAYINDIRLIK 9. ADA",
    "lat": 40.802771,
    "lon": 29.965451,
    "routes": [
      "41010",
      "41024",
      "41070",
      "41092",
      "41210",
      "61001"
    ]
  },
  {
    "id": "80656",
    "name": "BAYINDIRLIK YÜZME HAVUZU",
    "lat": 40.8026453,
    "lon": 29.9679619,
    "routes": [
      "41010",
      "41024",
      "41070",
      "41092",
      "41210",
      "42032",
      "61001"
    ]
  },
  {
    "id": "80655",
    "name": "BAYINDIRLIK 11. ADA",
    "lat": 40.8026575,
    "lon": 29.9696731,
    "routes": [
      "41010",
      "41024",
      "41070",
      "41092",
      "41210",
      "42032",
      "61001"
    ]
  },
  {
    "id": "80653",
    "name": "MENEKŞE PARK 1",
    "lat": 40.8018392,
    "lon": 29.9714863,
    "routes": [
      "41010",
      "41024",
      "41070",
      "41092",
      "41210",
      "42032",
      "61001"
    ]
  },
  {
    "id": "80651",
    "name": "BAYINDIRLIK İŞ MERKEZİ",
    "lat": 40.801357,
    "lon": 29.974152,
    "routes": [
      "41010",
      "41024",
      "41070",
      "41092",
      "41210",
      "42032",
      "61001"
    ]
  },
  {
    "id": "80669",
    "name": "191. ADA 1",
    "lat": 40.79922,
    "lon": 29.975508,
    "routes": [
      "41010",
      "41024",
      "41070",
      "41092",
      "41210",
      "42032",
      "61001"
    ]
  },
  {
    "id": "80670",
    "name": "YEŞEREN PARK 2",
    "lat": 40.798634,
    "lon": 29.977024,
    "routes": [
      "41010",
      "41024",
      "41070",
      "41092",
      "41210",
      "42032",
      "61001"
    ]
  },
  {
    "id": "80890",
    "name": "KARAKUZU SOKAK 1",
    "lat": 40.7983333,
    "lon": 29.9737307,
    "routes": [
      "41010",
      "41024",
      "41070",
      "41092",
      "41210",
      "42032",
      "61001"
    ]
  },
  {
    "id": "41375",
    "name": "DOĞA PARKI 1",
    "lat": 40.7972874,
    "lon": 29.9738222,
    "routes": [
      "41006",
      "41010",
      "41024",
      "41210",
      "61001"
    ]
  },
  {
    "id": "80672",
    "name": "TEPEKÖY ÇELEBİ SOKAK",
    "lat": 40.796628,
    "lon": 29.975242,
    "routes": [
      "41006",
      "41010",
      "41024",
      "41210",
      "61001"
    ]
  },
  {
    "id": "80675",
    "name": "NİSA SOKAK",
    "lat": 40.7956118,
    "lon": 29.9775141,
    "routes": [
      "41006",
      "41010",
      "41024",
      "41210",
      "61001"
    ]
  },
  {
    "id": "80682",
    "name": "EGEMENLİK CADDESİ",
    "lat": 40.801143,
    "lon": 29.980791,
    "routes": [
      "41010",
      "41800",
      "41806",
      "51015",
      "51024",
      "61001"
    ]
  },
  {
    "id": "42351",
    "name": "KREDİ YURTLAR KURUMU ALİ FUAT CEBESOY ÖĞRENCİ YURDU 1",
    "lat": 40.789954,
    "lon": 29.978096,
    "routes": [
      "41010",
      "41170",
      "41175",
      "41190",
      "41255",
      "41265",
      "41300",
      "41305",
      "41405",
      "41435",
      "41530",
      "41755",
      "41801",
      "43016",
      "51044",
      "51045",
      "61001",
      "70005"
    ]
  },
  {
    "id": "80745",
    "name": "YEŞİLOVA SAPAĞI",
    "lat": 40.787533,
    "lon": 29.975613,
    "routes": [
      "41010",
      "41170",
      "41175",
      "41190",
      "41255",
      "41265",
      "41300",
      "41305",
      "41405",
      "41435",
      "41530",
      "41755",
      "41801",
      "43016",
      "61001"
    ]
  },
  {
    "id": "90827",
    "name": "DOĞU TERMİNALİ SAPAĞI 1",
    "lat": 40.776442,
    "lon": 29.969913,
    "routes": [
      "41010",
      "41170",
      "41175",
      "41255",
      "41265",
      "41300",
      "41305",
      "41405",
      "41435",
      "41530",
      "41755",
      "61001"
    ]
  },
  {
    "id": "81424",
    "name": "İZMİT OTOGAR 3",
    "lat": 40.7749695,
    "lon": 29.9722647,
    "routes": [
      "41007",
      "41010",
      "41024",
      "41025",
      "41028",
      "41118",
      "51066",
      "61001",
      "70001",
      "70003",
      "70008"
    ]
  },
  {
    "id": "11402",
    "name": "OTOGAR DOĞU GİRİŞİ 1",
    "lat": 40.7751205,
    "lon": 29.9753843,
    "routes": [
      "41007",
      "41010",
      "41026",
      "41028",
      "41029",
      "51066"
    ]
  },
  {
    "id": "11051",
    "name": "DOĞU KIŞLA 1",
    "lat": 40.766284,
    "lon": 29.951321,
    "routes": [
      "41011",
      "41016"
    ]
  },
  {
    "id": "80342",
    "name": "REAL YANYOL",
    "lat": 40.7628881,
    "lon": 29.9483143,
    "routes": [
      "41011",
      "41024",
      "41026",
      "41028",
      "41151",
      "41152",
      "41154",
      "41163",
      "41170",
      "41175",
      "41190",
      "41201",
      "41202",
      "41204",
      "41205",
      "41211",
      "41212",
      "41213",
      "41214",
      "41215",
      "41216",
      "41218",
      "41220",
      "41240",
      "41241",
      "41242",
      "41243",
      "41251",
      "41260",
      "41261",
      "41262",
      "41281",
      "41287",
      "41300",
      "41305",
      "41400",
      "41405",
      "41435",
      "41530",
      "41600",
      "41611",
      "41612",
      "41613",
      "41614",
      "41615",
      "41621",
      "41622",
      "41623",
      "41624",
      "41626",
      "41632",
      "41634",
      "41642",
      "41644",
      "41652",
      "41662",
      "41692",
      "41702",
      "41722",
      "41752",
      "42150",
      "42435",
      "51019",
      "51020",
      "51038",
      "51039",
      "51041",
      "51046",
      "51047",
      "61002",
      "61004",
      "65002",
      "65003",
      "65004"
    ]
  },
  {
    "id": "80341",
    "name": "KOCAELİ VALİLİĞİ",
    "lat": 40.7627881,
    "lon": 29.9462155,
    "routes": [
      "41011",
      "41024",
      "41026",
      "41028",
      "41041",
      "41151",
      "41152",
      "41154",
      "41163",
      "41170",
      "41175",
      "41190",
      "41201",
      "41202",
      "41204",
      "41205",
      "41211",
      "41212",
      "41213",
      "41214",
      "41215",
      "41216",
      "41218",
      "41220",
      "41240",
      "41241",
      "41242",
      "41243",
      "41251",
      "41260",
      "41261",
      "41262",
      "41281",
      "41287",
      "41300",
      "41305",
      "41400",
      "41405",
      "41435",
      "41530",
      "41611",
      "41612",
      "41613",
      "41614",
      "41615",
      "41621",
      "41622",
      "41623",
      "41624",
      "41626",
      "41632",
      "41634",
      "41642",
      "41652",
      "41662",
      "41692",
      "41702",
      "41722",
      "41752",
      "42150",
      "42435",
      "51019",
      "51020",
      "51038",
      "51039",
      "51041",
      "51046",
      "51047",
      "61002",
      "61004",
      "65002",
      "65003",
      "65004"
    ]
  },
  {
    "id": "80364",
    "name": "MİLLİ İRADE MEYDANI KUZEY YANYOL",
    "lat": 40.762741,
    "lon": 29.943461,
    "routes": [
      "41011",
      "41024",
      "41026",
      "41028",
      "41151",
      "41152",
      "41154",
      "41163",
      "41170",
      "41175",
      "41190",
      "41201",
      "41202",
      "41204",
      "41205",
      "41211",
      "41212",
      "41213",
      "41214",
      "41215",
      "41216",
      "41218",
      "41220",
      "41240",
      "41241",
      "41242",
      "41243",
      "41251",
      "41260",
      "41261",
      "41262",
      "41281",
      "41287",
      "41300",
      "41305",
      "41400",
      "41405",
      "41435",
      "41530",
      "41600",
      "41611",
      "41612",
      "41613",
      "41614",
      "41615",
      "41621",
      "41622",
      "41623",
      "41624",
      "41626",
      "41632",
      "41634",
      "41642",
      "41644",
      "41652",
      "41662",
      "41692",
      "41702",
      "41722",
      "41752",
      "42150",
      "42435",
      "51019",
      "51020",
      "51038",
      "51039",
      "51041",
      "51046",
      "51047",
      "61002",
      "61004",
      "65002",
      "65003",
      "65004"
    ]
  },
  {
    "id": "80397",
    "name": "15 TEMMUZ MİLLİ İRADE MEYDANI",
    "lat": 40.764525,
    "lon": 29.94099,
    "routes": [
      "41011",
      "41033",
      "41034",
      "41044",
      "41067",
      "41074",
      "41094",
      "41104",
      "41115",
      "41124",
      "41134",
      "41144",
      "41806",
      "42115",
      "51017",
      "51029",
      "51030",
      "51031",
      "51034",
      "51068"
    ]
  },
  {
    "id": "80399",
    "name": "YUNUS EMRE KÜLTÜR MERKEZİ",
    "lat": 40.7641831,
    "lon": 29.9406819,
    "routes": [
      "41001",
      "41011",
      "41016",
      "41033",
      "41034",
      "41044",
      "41054",
      "41067",
      "41069",
      "41074",
      "41094",
      "41104",
      "41114",
      "41115",
      "41124",
      "41134",
      "41144",
      "41800",
      "41806",
      "42115",
      "51017",
      "51029",
      "51030",
      "51031",
      "51034",
      "51065",
      "51067",
      "51068"
    ]
  },
  {
    "id": "80335",
    "name": "EMNİYET ASAYİŞ ŞUBE MÜDÜRLÜĞÜ",
    "lat": 40.7622214,
    "lon": 29.9363463,
    "routes": [
      "41001",
      "41011",
      "41016",
      "41026",
      "41028",
      "41033",
      "41041",
      "41044",
      "41067",
      "41069",
      "41114",
      "41115",
      "41124",
      "41134",
      "41151",
      "41152",
      "41154",
      "41163",
      "41170",
      "41175",
      "41190",
      "41201",
      "41202",
      "41204",
      "41205",
      "41211",
      "41212",
      "41213",
      "41214",
      "41215",
      "41216",
      "41218",
      "41220",
      "41240",
      "41241",
      "41242",
      "41243",
      "41251",
      "41260",
      "41261",
      "41262",
      "41281",
      "41287",
      "41600",
      "41611",
      "41612",
      "41613",
      "41614",
      "41615",
      "41621",
      "41622",
      "41623",
      "41624",
      "41625",
      "41626",
      "41627",
      "41630",
      "41631",
      "41632",
      "41633",
      "41634",
      "41635",
      "41637",
      "41640",
      "41641",
      "41642",
      "41644",
      "41645",
      "41650",
      "41651",
      "41652",
      "41662",
      "41680",
      "41692",
      "41695",
      "41701",
      "41702",
      "41710",
      "41721",
      "41722",
      "41740",
      "41750",
      "41751",
      "41752",
      "42041",
      "42115",
      "42150",
      "42650",
      "42710",
      "51017",
      "51019",
      "51020",
      "51029",
      "51030",
      "51031",
      "51034",
      "51038",
      "51039",
      "51041",
      "51046",
      "51047",
      "51065",
      "51067",
      "51068",
      "61002",
      "61004",
      "65002",
      "65003",
      "65004"
    ]
  },
  {
    "id": "80398",
    "name": "LEYLA ATAKAN CADDESİ",
    "lat": 40.763547,
    "lon": 29.9348,
    "routes": [
      "41001",
      "41008",
      "41011",
      "41016",
      "41025",
      "41043",
      "41044",
      "41051",
      "41053",
      "41054",
      "41055",
      "41059",
      "41066",
      "41069",
      "41070",
      "41071",
      "41074",
      "41080",
      "41081",
      "41085",
      "41086",
      "41088",
      "41089",
      "41090",
      "41091",
      "41092",
      "41094",
      "41100",
      "41104",
      "41105",
      "41111",
      "41114",
      "41118",
      "41124",
      "41126",
      "41134",
      "41135",
      "41138",
      "41144",
      "41145",
      "41147",
      "42032",
      "42041",
      "42081",
      "51065",
      "51067",
      "65001"
    ]
  },
  {
    "id": "80066",
    "name": "KÜTÜPHANE",
    "lat": 40.765627,
    "lon": 29.9344691,
    "routes": [
      "41001",
      "41008",
      "41011",
      "41016",
      "41025",
      "41043",
      "41044",
      "41051",
      "41053",
      "41055",
      "41059",
      "41066",
      "41069",
      "41070",
      "41071",
      "41074",
      "41081",
      "41085",
      "41086",
      "41088",
      "41089",
      "41090",
      "41091",
      "41092",
      "41094",
      "41100",
      "41105",
      "41111",
      "41118",
      "41135",
      "41138",
      "41145",
      "41147",
      "42032",
      "42041",
      "42081",
      "51065",
      "51067",
      "65001"
    ]
  },
  {
    "id": "80046",
    "name": "BAÇ",
    "lat": 40.767299,
    "lon": 29.9361773,
    "routes": [
      "41001",
      "41008",
      "41011",
      "41016",
      "41025",
      "41066",
      "41069",
      "41070",
      "41071",
      "41081",
      "41085",
      "41086",
      "41088",
      "41090",
      "41091",
      "41092",
      "41100",
      "41105",
      "41118",
      "41135",
      "41138",
      "41145",
      "41147",
      "42032",
      "42081",
      "51065",
      "51067",
      "65001"
    ]
  },
  {
    "id": "80048",
    "name": "KOCAELİ DEVLET HASTANESİ",
    "lat": 40.767813,
    "lon": 29.937741,
    "routes": [
      "41001",
      "41008",
      "41011",
      "41016",
      "41025",
      "41066",
      "41069",
      "41070",
      "41071",
      "41081",
      "41085",
      "41086",
      "41088",
      "41090",
      "41091",
      "41092",
      "41100",
      "41105",
      "41118",
      "41135",
      "41138",
      "41145",
      "41147",
      "42032",
      "42081",
      "51065",
      "51067",
      "65001"
    ]
  },
  {
    "id": "42055",
    "name": "CANCAN SOKAK",
    "lat": 40.769142,
    "lon": 29.94028,
    "routes": [
      "41011"
    ]
  },
  {
    "id": "42061",
    "name": "TAŞOCAĞI SOKAK",
    "lat": 40.771458,
    "lon": 29.940575,
    "routes": [
      "41011"
    ]
  },
  {
    "id": "42054",
    "name": "İMALAT SOKAK",
    "lat": 40.773876,
    "lon": 29.940035,
    "routes": [
      "41011"
    ]
  },
  {
    "id": "80312",
    "name": "ERENLER DEVEBAĞIRTAN 1",
    "lat": 40.775546,
    "lon": 29.941293,
    "routes": [
      "41006",
      "41011",
      "41051",
      "41053"
    ]
  },
  {
    "id": "41254",
    "name": "DEVEBAĞIRTAN SOKAK",
    "lat": 40.7747626,
    "lon": 29.9426199,
    "routes": [
      "41011",
      "41016",
      "41051",
      "41053"
    ]
  },
  {
    "id": "41766",
    "name": "CEMRE SOKAK",
    "lat": 40.774834,
    "lon": 29.944027,
    "routes": [
      "41011",
      "41016",
      "41051",
      "41053"
    ]
  },
  {
    "id": "41787",
    "name": "CEMRE SOKAK 3",
    "lat": 40.775593,
    "lon": 29.945362,
    "routes": [
      "41011",
      "41016",
      "41051",
      "41053"
    ]
  },
  {
    "id": "42069",
    "name": "ŞEHİT ÜMİT BALKAN PARKI 1",
    "lat": 40.7760521,
    "lon": 29.9450849,
    "routes": [
      "41011",
      "41016",
      "41051",
      "41053"
    ]
  },
  {
    "id": "42068",
    "name": "GAZETECİ KAZIM ERTEK CADDESİ 1",
    "lat": 40.775447,
    "lon": 29.942831,
    "routes": [
      "41011",
      "41016",
      "41051",
      "41053"
    ]
  },
  {
    "id": "80304",
    "name": "ŞEHİT ÜMİT BALKAN 2",
    "lat": 40.7771068,
    "lon": 29.9420474,
    "routes": [
      "41011",
      "41016",
      "41051",
      "41053"
    ]
  },
  {
    "id": "80305",
    "name": "CEDİT 1",
    "lat": 40.778426,
    "lon": 29.9387695,
    "routes": [
      "41006",
      "41011",
      "41016",
      "41051",
      "41053"
    ]
  },
  {
    "id": "80307",
    "name": "MUHAMMER AKSOY İLKOKULU",
    "lat": 40.7800904,
    "lon": 29.9337744,
    "routes": [
      "41006",
      "41011",
      "41016",
      "41051",
      "41053"
    ]
  },
  {
    "id": "81201",
    "name": "ÇAĞLA SOKAK",
    "lat": 40.78011,
    "lon": 29.931314,
    "routes": [
      "41011",
      "41043"
    ]
  },
  {
    "id": "80311",
    "name": "DEVRAN CADDESİ 1",
    "lat": 40.778903,
    "lon": 29.930376,
    "routes": [
      "41011",
      "41043"
    ]
  },
  {
    "id": "42322",
    "name": "DAMLA SOKAK",
    "lat": 40.778111,
    "lon": 29.929049,
    "routes": [
      "41011",
      "41043"
    ]
  },
  {
    "id": "80088",
    "name": "ŞEREF SOKAK",
    "lat": 40.7782465,
    "lon": 29.9282712,
    "routes": [
      "41011",
      "41043"
    ]
  },
  {
    "id": "81127",
    "name": "ŞEREF SOKAK 1",
    "lat": 40.7777487,
    "lon": 29.925412,
    "routes": [
      "41011",
      "41043"
    ]
  },
  {
    "id": "11321",
    "name": "BAĞTEPE SOKAK",
    "lat": 40.7777652,
    "lon": 29.9266173,
    "routes": [
      "41011",
      "41043"
    ]
  },
  {
    "id": "80962",
    "name": "TURGUT 3",
    "lat": 40.7766096,
    "lon": 29.9224672,
    "routes": [
      "41006",
      "41011",
      "41043"
    ]
  },
  {
    "id": "80247",
    "name": "TURGUT 2",
    "lat": 40.776537,
    "lon": 29.922586,
    "routes": [
      "41006",
      "41011",
      "41043"
    ]
  },
  {
    "id": "41905",
    "name": "ŞEHİT ERCAN BULUT 1",
    "lat": 40.77825,
    "lon": 29.92567,
    "routes": [
      "41006",
      "41011"
    ]
  },
  {
    "id": "42143",
    "name": "TOLGA SOKAK",
    "lat": 40.77965,
    "lon": 29.927752,
    "routes": [
      "41006",
      "41011"
    ]
  },
  {
    "id": "42150",
    "name": "İSMAİL GASPARALI CADDESİ",
    "lat": 40.78163,
    "lon": 29.930557,
    "routes": [
      "41006",
      "41011"
    ]
  },
  {
    "id": "80249",
    "name": "ESKİ İSTANBUL CADDESİ",
    "lat": 40.782466,
    "lon": 29.9319988,
    "routes": [
      "41005",
      "41011",
      "41016",
      "41033",
      "41067",
      "41115",
      "42115",
      "51029",
      "51030",
      "51031",
      "51034"
    ]
  },
  {
    "id": "80250",
    "name": "İZMİT KENT 1. ETAP",
    "lat": 40.7817081,
    "lon": 29.9400079,
    "routes": [
      "41005",
      "41011",
      "41016",
      "41033",
      "41067",
      "41115",
      "42115",
      "51029",
      "51030",
      "51031",
      "51034"
    ]
  },
  {
    "id": "80252",
    "name": "İZMİT KENT 2. ETAP",
    "lat": 40.7810166,
    "lon": 29.9451506,
    "routes": [
      "41006",
      "41011",
      "41016",
      "41033",
      "41067",
      "41115",
      "42115",
      "51029",
      "51030",
      "51031",
      "51034"
    ]
  },
  {
    "id": "80254",
    "name": "ASRİ MEZARLIK 2",
    "lat": 40.7784744,
    "lon": 29.9450074,
    "routes": [
      "41011",
      "41016",
      "41033",
      "41067",
      "41115",
      "42115",
      "51029",
      "51030",
      "51031",
      "51034"
    ]
  },
  {
    "id": "41436",
    "name": "ASRİ MEZARLIK 5",
    "lat": 40.778276,
    "lon": 29.947537,
    "routes": [
      "41011",
      "41016",
      "41033",
      "41067",
      "41115",
      "42115",
      "51029",
      "51030",
      "51031",
      "51034"
    ]
  },
  {
    "id": "80257",
    "name": "ASRİ MEZARLIK 4",
    "lat": 40.7762715,
    "lon": 29.9490043,
    "routes": [
      "41011",
      "41016",
      "41033",
      "41067",
      "41115",
      "42115",
      "51029",
      "51030",
      "51031",
      "51034"
    ]
  },
  {
    "id": "80333",
    "name": "ESKİ İSTANBUL CADDESİ 2",
    "lat": 40.7741467,
    "lon": 29.9493362,
    "routes": [
      "41011",
      "41016",
      "41033",
      "41067",
      "41115",
      "42115",
      "51029",
      "51030",
      "51031",
      "51034"
    ]
  },
  {
    "id": "80059",
    "name": "ESKİ İSTANBUL CADDESİ 4",
    "lat": 40.7716623,
    "lon": 29.9488818,
    "routes": [
      "41001",
      "41008",
      "41011",
      "41016",
      "41033",
      "41067",
      "41069",
      "41070",
      "41085",
      "41088",
      "41115",
      "41145",
      "42032",
      "42115",
      "51029",
      "51030",
      "51031",
      "51034"
    ]
  },
  {
    "id": "80060",
    "name": "TURAN GÜNEŞ CADDESİ EVLİYA CELEBİ",
    "lat": 40.770661,
    "lon": 29.9478161,
    "routes": [
      "41001",
      "41008",
      "41011",
      "41016",
      "41025",
      "41033",
      "41034",
      "41066",
      "41067",
      "41069",
      "41070",
      "41071",
      "41080",
      "41081",
      "41085",
      "41086",
      "41088",
      "41090",
      "41091",
      "41092",
      "41105",
      "41115",
      "41118",
      "41126",
      "41135",
      "41138",
      "41145",
      "41147",
      "41800",
      "41806",
      "42032",
      "42081",
      "42115",
      "51017",
      "51029",
      "51030",
      "51031",
      "51034",
      "51040",
      "51044",
      "51045",
      "51048",
      "51049",
      "51050",
      "51065",
      "51067",
      "51068",
      "65001",
      "70007"
    ]
  },
  {
    "id": "80061",
    "name": "KANLIBAĞ",
    "lat": 40.7699506,
    "lon": 29.9461823,
    "routes": [
      "41001",
      "41008",
      "41011",
      "41016",
      "41025",
      "41033",
      "41034",
      "41066",
      "41067",
      "41069",
      "41070",
      "41071",
      "41080",
      "41081",
      "41085",
      "41086",
      "41088",
      "41090",
      "41091",
      "41092",
      "41105",
      "41115",
      "41118",
      "41126",
      "41135",
      "41138",
      "41145",
      "41147",
      "41800",
      "41806",
      "42032",
      "42081",
      "42115",
      "51017",
      "51029",
      "51030",
      "51040",
      "51044",
      "51045",
      "51048",
      "51049",
      "51050",
      "51065",
      "51067",
      "51068",
      "65001",
      "70007"
    ]
  },
  {
    "id": "41413",
    "name": "TERTİP SOKAK",
    "lat": 40.7698696,
    "lon": 29.9443883,
    "routes": [
      "41001",
      "41008",
      "41011",
      "41016",
      "41025",
      "41033",
      "41034",
      "41066",
      "41067",
      "41069",
      "41070",
      "41071",
      "41080",
      "41081",
      "41085",
      "41086",
      "41088",
      "41090",
      "41091",
      "41092",
      "41105",
      "41115",
      "41118",
      "41126",
      "41135",
      "41138",
      "41145",
      "41147",
      "41800",
      "41806",
      "42032",
      "42081",
      "42115",
      "51017",
      "51029",
      "51030",
      "51031",
      "51034",
      "51040",
      "51044",
      "51045",
      "51048",
      "51049",
      "51050",
      "51065",
      "51067",
      "51068",
      "65001",
      "70007"
    ]
  },
  {
    "id": "80062",
    "name": "KANLIBAĞ 2",
    "lat": 40.769404,
    "lon": 29.942702,
    "routes": [
      "41001",
      "41008",
      "41011",
      "41016",
      "41025",
      "41033",
      "41034",
      "41066",
      "41067",
      "41069",
      "41070",
      "41071",
      "41080",
      "41081",
      "41085",
      "41086",
      "41088",
      "41090",
      "41091",
      "41092",
      "41105",
      "41115",
      "41118",
      "41126",
      "41135",
      "41138",
      "41145",
      "41147",
      "41800",
      "41806",
      "42032",
      "42081",
      "42115",
      "51017",
      "51031",
      "51034",
      "51040",
      "51044",
      "51045",
      "51048",
      "51049",
      "51050",
      "51065",
      "51067",
      "51068",
      "65001",
      "70007"
    ]
  },
  {
    "id": "80049",
    "name": "MİMAR SİNAN ANADOLU LİSESİ",
    "lat": 40.768364,
    "lon": 29.9394802,
    "routes": [
      "41008",
      "41011",
      "41025",
      "41066",
      "41070",
      "41071",
      "41080",
      "41081",
      "41085",
      "41086",
      "41088",
      "41090",
      "41091",
      "41092",
      "41104",
      "41105",
      "41118",
      "41126",
      "41135",
      "41138",
      "41144",
      "41145",
      "41147",
      "42032",
      "42081",
      "65001",
      "70007"
    ]
  },
  {
    "id": "80047",
    "name": "BAÇ 1",
    "lat": 40.7675323,
    "lon": 29.9363429,
    "routes": [
      "41008",
      "41011",
      "41025",
      "41066",
      "41070",
      "41071",
      "41080",
      "41081",
      "41085",
      "41086",
      "41088",
      "41090",
      "41091",
      "41092",
      "41104",
      "41105",
      "41118",
      "41126",
      "41135",
      "41138",
      "41144",
      "41145",
      "41147",
      "42032",
      "42081",
      "65001",
      "70007"
    ]
  },
  {
    "id": "80045",
    "name": "ÇINARLI CAMİ",
    "lat": 40.766723,
    "lon": 29.9331675,
    "routes": [
      "41008",
      "41011",
      "41025",
      "41042",
      "41043",
      "41044",
      "41051",
      "41053",
      "41054",
      "41055",
      "41059",
      "41066",
      "41070",
      "41071",
      "41074",
      "41080",
      "41081",
      "41085",
      "41086",
      "41088",
      "41089",
      "41090",
      "41091",
      "41092",
      "41094",
      "41104",
      "41105",
      "41111",
      "41118",
      "41126",
      "41135",
      "41138",
      "41144",
      "41145",
      "41147",
      "42032",
      "42041",
      "42081",
      "65001",
      "70007"
    ]
  },
  {
    "id": "80041",
    "name": "İZMİT ORTAOKULU",
    "lat": 40.7659098,
    "lon": 29.9274026,
    "routes": [
      "41011",
      "41042",
      "41043",
      "41044",
      "41054",
      "41055",
      "41059",
      "41066",
      "41071",
      "41081",
      "41086",
      "41088",
      "42032",
      "42081",
      "65001"
    ]
  },
  {
    "id": "80040",
    "name": "YENİ TURAN",
    "lat": 40.7651354,
    "lon": 29.9239487,
    "routes": [
      "41008",
      "41011",
      "41025",
      "41042",
      "41043",
      "41044",
      "41051",
      "41053",
      "41054",
      "41055",
      "41059",
      "41066",
      "41070",
      "41071",
      "41074",
      "41080",
      "41081",
      "41085",
      "41086",
      "41088",
      "41089",
      "41090",
      "41091",
      "41092",
      "41094",
      "41104",
      "41105",
      "41111",
      "41118",
      "41126",
      "41135",
      "41138",
      "41144",
      "41145",
      "41147",
      "42032",
      "42041",
      "42081",
      "65001",
      "70007"
    ]
  },
  {
    "id": "80035",
    "name": "MERKEZ BANKASI",
    "lat": 40.762946,
    "lon": 29.92272,
    "routes": [
      "41008",
      "41011",
      "41025",
      "41051",
      "41053",
      "41054",
      "41059",
      "41066",
      "41070",
      "41074",
      "41081",
      "41085",
      "41086",
      "41088",
      "41089",
      "41091",
      "41092",
      "41094",
      "41104",
      "41105",
      "41111",
      "41118",
      "41126",
      "41135",
      "41138",
      "41144",
      "41145",
      "42032",
      "42081",
      "65001"
    ]
  },
  {
    "id": "80037",
    "name": "İZMİT TREN İSTASYONU",
    "lat": 40.7622069,
    "lon": 29.9189969,
    "routes": [
      "41001",
      "41008",
      "41011",
      "41025",
      "41033",
      "41043",
      "41051",
      "41053",
      "41054",
      "41055",
      "41059",
      "41066",
      "41067",
      "41069",
      "41070",
      "41071",
      "41074",
      "41080",
      "41081",
      "41085",
      "41086",
      "41088",
      "41089",
      "41090",
      "41091",
      "41092",
      "41094",
      "41100",
      "41104",
      "41105",
      "41111",
      "41114",
      "41115",
      "41118",
      "41124",
      "41126",
      "41134",
      "41135",
      "41138",
      "41144",
      "41145",
      "41147",
      "41806",
      "42032",
      "42081",
      "42115",
      "42650",
      "51017",
      "51031",
      "51034",
      "51065",
      "51067",
      "51068",
      "65001",
      "65002"
    ]
  },
  {
    "id": "80338",
    "name": "FEVZİYE KUZEY YAN YOL",
    "lat": 40.7615325,
    "lon": 29.9238063,
    "routes": [
      "41001",
      "41008",
      "41011",
      "41025",
      "41033",
      "41043",
      "41051",
      "41053",
      "41054",
      "41055",
      "41059",
      "41066",
      "41067",
      "41069",
      "41070",
      "41071",
      "41074",
      "41080",
      "41081",
      "41085",
      "41086",
      "41088",
      "41089",
      "41090",
      "41091",
      "41092",
      "41094",
      "41100",
      "41104",
      "41105",
      "41111",
      "41114",
      "41115",
      "41118",
      "41124",
      "41126",
      "41134",
      "41135",
      "41138",
      "41144",
      "41145",
      "41147",
      "41806",
      "42032",
      "42081",
      "42115",
      "51017",
      "51065",
      "51067",
      "51068",
      "65001",
      "65002"
    ]
  },
  {
    "id": "80067",
    "name": "ALEMDAR KUZEY YAN YOL",
    "lat": 40.7615148,
    "lon": 29.9277377,
    "routes": [
      "41001",
      "41008",
      "41011",
      "41025",
      "41033",
      "41043",
      "41051",
      "41053",
      "41054",
      "41055",
      "41059",
      "41066",
      "41067",
      "41069",
      "41070",
      "41071",
      "41074",
      "41080",
      "41081",
      "41085",
      "41086",
      "41088",
      "41089",
      "41090",
      "41091",
      "41092",
      "41094",
      "41100",
      "41104",
      "41105",
      "41111",
      "41114",
      "41115",
      "41118",
      "41124",
      "41126",
      "41134",
      "41135",
      "41138",
      "41144",
      "41145",
      "41147",
      "41806",
      "42032",
      "42081",
      "42115",
      "51017",
      "51065",
      "51067",
      "51068",
      "65001",
      "65002"
    ]
  },
  {
    "id": "80339",
    "name": "MİMAR SİNAN KUZEY YANYOL",
    "lat": 40.7617617,
    "lon": 29.9323909,
    "routes": [
      "41001",
      "41008",
      "41011",
      "41025",
      "41033",
      "41043",
      "41051",
      "41053",
      "41054",
      "41055",
      "41059",
      "41066",
      "41067",
      "41069",
      "41070",
      "41071",
      "41074",
      "41080",
      "41081",
      "41085",
      "41086",
      "41088",
      "41089",
      "41090",
      "41091",
      "41092",
      "41094",
      "41100",
      "41104",
      "41105",
      "41111",
      "41114",
      "41115",
      "41118",
      "41124",
      "41126",
      "41134",
      "41135",
      "41138",
      "41144",
      "41145",
      "41147",
      "41806",
      "42032",
      "42081",
      "42115",
      "51017",
      "51065",
      "51067",
      "51068",
      "65001",
      "65002"
    ]
  },
  {
    "id": "80343",
    "name": "TURGUT ÖZAL KUZEY YANYOL",
    "lat": 40.7620503,
    "lon": 29.937345,
    "routes": [
      "41011",
      "41033",
      "41067",
      "41115",
      "41806",
      "42115",
      "51017",
      "51068",
      "65002"
    ]
  },
  {
    "id": "80613",
    "name": "ATATÜRK BULVARI",
    "lat": 40.76555,
    "lon": 29.942902,
    "routes": [
      "41011",
      "41016",
      "41033",
      "41067",
      "41115",
      "41126",
      "42115",
      "51029",
      "51030",
      "51031",
      "51034"
    ]
  },
  {
    "id": "80616",
    "name": "ŞEHİTLER PARKI",
    "lat": 40.765269,
    "lon": 29.945915,
    "routes": [
      "41011",
      "41016",
      "41033",
      "41067",
      "41115",
      "41126",
      "42115",
      "51029",
      "51030",
      "51031",
      "51034"
    ]
  },
  {
    "id": "80618",
    "name": "ATATÜRK ORTAOKULU 1",
    "lat": 40.7650552,
    "lon": 29.9483018,
    "routes": [
      "41011",
      "41016",
      "41033",
      "41067",
      "41115",
      "41126",
      "42115",
      "51029",
      "51030",
      "51031",
      "51034"
    ]
  },
  {
    "id": "80053",
    "name": "DOĞU KIŞLA",
    "lat": 40.767114,
    "lon": 29.9507693,
    "routes": [
      "41002",
      "41011",
      "41016",
      "41025",
      "41034",
      "41066",
      "41071",
      "41081",
      "41086",
      "41090",
      "41091",
      "41092",
      "41100",
      "41105",
      "41118",
      "41126",
      "41135",
      "41138",
      "41147",
      "41806",
      "42081",
      "51017",
      "51040",
      "51044",
      "51045",
      "51048",
      "51049",
      "51050",
      "51065",
      "51067",
      "51068",
      "65001"
    ]
  },
  {
    "id": "80934",
    "name": "ALİKAHYA SANAYİ CADDESİ",
    "lat": 40.766702,
    "lon": 30.003869,
    "routes": [
      "41013",
      "41026",
      "41029",
      "61001"
    ]
  },
  {
    "id": "10998",
    "name": "833. ADA 3",
    "lat": 40.766287,
    "lon": 30.005205,
    "routes": [
      "41013",
      "41026",
      "41029",
      "61001"
    ]
  },
  {
    "id": "11259",
    "name": "KOMUTANLIK",
    "lat": 40.765874,
    "lon": 30.007755,
    "routes": [
      "41013",
      "41026",
      "41029",
      "61001"
    ]
  },
  {
    "id": "11268",
    "name": "832. ADA 3",
    "lat": 40.765562,
    "lon": 30.010658,
    "routes": [
      "41013",
      "41026",
      "41029",
      "61001"
    ]
  },
  {
    "id": "11175",
    "name": "KANALBOYU CAMİ 1",
    "lat": 40.7671195,
    "lon": 30.0134825,
    "routes": [
      "41013",
      "41029",
      "41210"
    ]
  },
  {
    "id": "41527",
    "name": "KUMLA DERESİ",
    "lat": 40.7666875,
    "lon": 30.0144239,
    "routes": [
      "41013",
      "41029",
      "41210"
    ]
  },
  {
    "id": "80709",
    "name": "VATAN CADDESİ 1",
    "lat": 40.7707737,
    "lon": 30.0162855,
    "routes": [
      "41013",
      "42015"
    ]
  },
  {
    "id": "80710",
    "name": "KOCAELİ STADI 1",
    "lat": 40.773145,
    "lon": 30.015809,
    "routes": [
      "41013",
      "41026",
      "41029"
    ]
  },
  {
    "id": "80207",
    "name": "SEMERKENT CADDESİ",
    "lat": 40.7736101,
    "lon": 30.0113756,
    "routes": [
      "41013",
      "41026",
      "41029"
    ]
  },
  {
    "id": "80712",
    "name": "ALİKAHYA HAYIRSEVENLER CAMİ 2",
    "lat": 40.7734392,
    "lon": 30.0100502,
    "routes": [
      "41013",
      "41026",
      "41029"
    ]
  },
  {
    "id": "80714",
    "name": "AHMET MÜFİT BEY CADDESİ",
    "lat": 40.773572,
    "lon": 30.007822,
    "routes": [
      "41013",
      "41026",
      "41029"
    ]
  },
  {
    "id": "80716",
    "name": "ALİKAHYA İLKOKULU 1",
    "lat": 40.775166,
    "lon": 30.00847,
    "routes": [
      "41013",
      "41026",
      "41029"
    ]
  },
  {
    "id": "80719",
    "name": "MEHMET AKİF ERSOY CADDESİ 2",
    "lat": 40.776033,
    "lon": 30.006096,
    "routes": [
      "41013",
      "41026",
      "41029"
    ]
  },
  {
    "id": "81232",
    "name": "KARACALAR SOKAK",
    "lat": 40.7754808,
    "lon": 30.0055516,
    "routes": [
      "41013",
      "41026",
      "41029"
    ]
  },
  {
    "id": "80720",
    "name": "ALİKAHYA FIRIN",
    "lat": 40.77366788,
    "lon": 30.00473383,
    "routes": [
      "41013",
      "41026",
      "41029",
      "41210"
    ]
  },
  {
    "id": "80937",
    "name": "ALİKAHYA MERKEZ CAMİ",
    "lat": 40.772769,
    "lon": 30.003015,
    "routes": [
      "41013",
      "41026",
      "41029",
      "41210"
    ]
  },
  {
    "id": "80938",
    "name": "FATMA SEHER HANIM CADDESİ 2",
    "lat": 40.77373,
    "lon": 29.999964,
    "routes": [
      "41013",
      "41026",
      "41029",
      "41210"
    ]
  },
  {
    "id": "80303",
    "name": "KELEŞ SOKAK 1",
    "lat": 40.7735837,
    "lon": 29.9977369,
    "routes": [
      "41013",
      "41026",
      "41029",
      "41210"
    ]
  },
  {
    "id": "80302",
    "name": "FATMA SEHER HANIM CADDESİ 1",
    "lat": 40.7734341,
    "lon": 29.9951174,
    "routes": [
      "41013",
      "41026",
      "41029",
      "41210"
    ]
  },
  {
    "id": "80519",
    "name": "ALİKAHYA FATİH CAMİ",
    "lat": 40.773072,
    "lon": 29.992365,
    "routes": [
      "41013",
      "41026",
      "41029",
      "41210"
    ]
  },
  {
    "id": "41821",
    "name": "AHMET TANER KIŞLALI CADDESİ 1",
    "lat": 40.774014,
    "lon": 29.991013,
    "routes": [
      "41013",
      "41029",
      "41210",
      "70005"
    ]
  },
  {
    "id": "80943",
    "name": "AKARCA POSTANE",
    "lat": 40.7749312,
    "lon": 29.9910175,
    "routes": [
      "41013",
      "41025",
      "41028",
      "41029",
      "41210",
      "70005"
    ]
  },
  {
    "id": "80510",
    "name": "AKARCA PARKI 1",
    "lat": 40.7750419,
    "lon": 29.9882711,
    "routes": [
      "41013",
      "41025",
      "41028",
      "41029",
      "41080",
      "41210",
      "70005"
    ]
  },
  {
    "id": "80509",
    "name": "AKARCA İŞ MERKEZİ 1",
    "lat": 40.7749927,
    "lon": 29.9863686,
    "routes": [
      "41013",
      "41025",
      "41028",
      "41080",
      "41210",
      "70005"
    ]
  },
  {
    "id": "42155",
    "name": "YUVAM AKARCA AİLE SAĞLIĞI MERKEZİ 1",
    "lat": 40.775105,
    "lon": 29.98484,
    "routes": [
      "41013",
      "41025",
      "41028",
      "41080",
      "41210"
    ]
  },
  {
    "id": "41551",
    "name": "8. ADA 1",
    "lat": 40.7757621,
    "lon": 29.9861285,
    "routes": [
      "41013",
      "41025",
      "41028",
      "41080",
      "41210"
    ]
  },
  {
    "id": "80499",
    "name": "SEFA SİRMEN CADDESİ",
    "lat": 40.7758506,
    "lon": 29.9883835,
    "routes": [
      "41013",
      "41025",
      "41028",
      "41080",
      "41210"
    ]
  },
  {
    "id": "80497",
    "name": "MENEKŞE SOKAK 1",
    "lat": 40.7764912,
    "lon": 29.9898848,
    "routes": [
      "41013",
      "41025",
      "41028",
      "41080",
      "41210"
    ]
  },
  {
    "id": "41546",
    "name": "AKARCA B 1 BLOK 1",
    "lat": 40.777782,
    "lon": 29.991182,
    "routes": [
      "41013",
      "41025",
      "41028",
      "41080",
      "41210"
    ]
  },
  {
    "id": "80515",
    "name": "ÇİTLENBİK SOKAK",
    "lat": 40.7788047,
    "lon": 29.9922223,
    "routes": [
      "41013",
      "41025",
      "41028",
      "41080",
      "41210"
    ]
  },
  {
    "id": "80945",
    "name": "FEVZİ ÇAKMAK MUHTARLIĞI 1",
    "lat": 40.779508,
    "lon": 29.991757,
    "routes": [
      "41013",
      "41025",
      "41026",
      "41028",
      "41080",
      "41210"
    ]
  },
  {
    "id": "41734",
    "name": "AKARCA MERDİVENLER",
    "lat": 40.7796652,
    "lon": 29.9874822,
    "routes": [
      "41013",
      "41135"
    ]
  },
  {
    "id": "41418",
    "name": "ÇEPNİ SOKAK",
    "lat": 40.777572,
    "lon": 29.98163,
    "routes": [
      "41013",
      "41135"
    ]
  },
  {
    "id": "80941",
    "name": "ANADOLU OTOYOLU",
    "lat": 40.775778,
    "lon": 29.9806966,
    "routes": [
      "41013",
      "41135",
      "70005"
    ]
  },
  {
    "id": "80607",
    "name": "HOROSAN CADDESİ",
    "lat": 40.7757151,
    "lon": 29.9779807,
    "routes": [
      "41013",
      "41025",
      "41028",
      "41029",
      "41135",
      "42015",
      "61001",
      "70005"
    ]
  },
  {
    "id": "80606",
    "name": "HANLI SOKAK 1",
    "lat": 40.774489,
    "lon": 29.975368,
    "routes": [
      "41013",
      "41024",
      "41118",
      "41135"
    ]
  },
  {
    "id": "80596",
    "name": "SARAYÖNÜ SOKAK 1",
    "lat": 40.771819,
    "lon": 29.974865,
    "routes": [
      "41013",
      "41024",
      "41118",
      "41135"
    ]
  },
  {
    "id": "80599",
    "name": "24 KASIM ANADOLU LİSESİ 1",
    "lat": 40.7691027,
    "lon": 29.976158,
    "routes": [
      "41013",
      "41024"
    ]
  },
  {
    "id": "80590",
    "name": "SÜLEYMAN DEMİREL KÜLTÜR MERKEZİ",
    "lat": 40.765198,
    "lon": 29.977033,
    "routes": [
      "41002",
      "41013"
    ]
  },
  {
    "id": "80586",
    "name": "10. BÖLGE",
    "lat": 40.7645645,
    "lon": 29.9790882,
    "routes": [
      "41002",
      "41013",
      "41080",
      "41126"
    ]
  },
  {
    "id": "80584",
    "name": "YAHYA KAPTAN MERKEZ CAMİ 1",
    "lat": 40.764771,
    "lon": 29.980775,
    "routes": [
      "41002",
      "41013",
      "41080",
      "41126"
    ]
  },
  {
    "id": "80581",
    "name": "23 NİSAN İLKOKULU",
    "lat": 40.762593,
    "lon": 29.980198,
    "routes": [
      "41002",
      "41013",
      "41126",
      "41135"
    ]
  },
  {
    "id": "80578",
    "name": "YAHYA KAPTAN 8",
    "lat": 40.7627754,
    "lon": 29.9782897,
    "routes": [
      "41002",
      "41013",
      "41126",
      "41135"
    ]
  },
  {
    "id": "80577",
    "name": "İLK ADIM ANAOKULU 1",
    "lat": 40.763176,
    "lon": 29.976102,
    "routes": [
      "41002",
      "41013",
      "41080",
      "41118",
      "41126",
      "41135"
    ]
  },
  {
    "id": "80574",
    "name": "İZMİT ATILIM ANADOLU LİSESİ 1",
    "lat": 40.7635369,
    "lon": 29.9738803,
    "routes": [
      "41002",
      "41013",
      "41024",
      "41080",
      "41118",
      "41126",
      "41135"
    ]
  },
  {
    "id": "80572",
    "name": "YAHYA KAPTAN 5",
    "lat": 40.763363,
    "lon": 29.971843,
    "routes": [
      "41002",
      "41013",
      "41024",
      "41080",
      "41118",
      "41126",
      "41135"
    ]
  },
  {
    "id": "80570",
    "name": "YAHYA KAPTAN 4",
    "lat": 40.764747,
    "lon": 29.970274,
    "routes": [
      "41013",
      "41024"
    ]
  },
  {
    "id": "80568",
    "name": "GÖKKUŞAĞI SOKAK 1",
    "lat": 40.766881,
    "lon": 29.971268,
    "routes": [
      "41013",
      "41024"
    ]
  },
  {
    "id": "80567",
    "name": "YAHYA KAPTAN 2",
    "lat": 40.7676587,
    "lon": 29.9705726,
    "routes": [
      "41013"
    ]
  },
  {
    "id": "80091",
    "name": "NECİP FAZIL CADDESİ",
    "lat": 40.7677763,
    "lon": 29.9689712,
    "routes": [
      "41013"
    ]
  },
  {
    "id": "80523",
    "name": "YAHYA KAPTAN KÖPRÜSÜ",
    "lat": 40.768368,
    "lon": 29.967937,
    "routes": [
      "41013",
      "41028",
      "41151",
      "41152",
      "41154",
      "41163",
      "41170",
      "41175",
      "41190",
      "41200",
      "41280",
      "41300",
      "41305",
      "41400",
      "41405",
      "41435",
      "41530",
      "41698",
      "41702",
      "41752",
      "41755",
      "42435",
      "65002",
      "65003",
      "65004",
      "70008"
    ]
  },
  {
    "id": "41409",
    "name": "FEYZULLAH İZMİDİ CADDESİ",
    "lat": 40.7758983,
    "lon": 29.9689596,
    "routes": [
      "41013",
      "41024",
      "41025",
      "41138",
      "51066",
      "65001"
    ]
  },
  {
    "id": "80626",
    "name": "SEYMEN CADDESİ",
    "lat": 40.7778935,
    "lon": 29.9672556,
    "routes": [
      "41002",
      "41013",
      "41024",
      "41034",
      "41066",
      "41071",
      "41081",
      "41086",
      "41090",
      "41092",
      "41100",
      "41105",
      "41800",
      "41806",
      "42081",
      "51015",
      "51017",
      "51024",
      "51040",
      "51044",
      "51045",
      "51048",
      "51049",
      "51050",
      "51065",
      "51066",
      "51067",
      "51068"
    ]
  },
  {
    "id": "80687",
    "name": "DİNAMİK SOKAK 1",
    "lat": 40.780155,
    "lon": 29.968183,
    "routes": [
      "41002",
      "41013",
      "41024",
      "41034",
      "41066",
      "41071",
      "41081",
      "41086",
      "41090",
      "41092",
      "41100",
      "41105",
      "41800",
      "41806",
      "42081",
      "51015",
      "51017",
      "51024",
      "51040",
      "51044",
      "51045",
      "51048",
      "51049",
      "51050",
      "51065",
      "51066",
      "51067",
      "51068"
    ]
  },
  {
    "id": "80428",
    "name": "NEZİH SOKAK 1",
    "lat": 40.781796,
    "lon": 29.968553,
    "routes": [
      "41002",
      "41013",
      "41024",
      "41034",
      "41066",
      "41071",
      "41081",
      "41086",
      "41090",
      "41092",
      "41100",
      "41105",
      "41800",
      "41806",
      "42081",
      "51015",
      "51017",
      "51024",
      "51040",
      "51044",
      "51045",
      "51048",
      "51049",
      "51050",
      "51065",
      "51066",
      "51067",
      "51068"
    ]
  },
  {
    "id": "80431",
    "name": "TAVŞANTEPE SAPAĞI",
    "lat": 40.784503,
    "lon": 29.96967,
    "routes": [
      "41002",
      "41013",
      "41024",
      "41034",
      "41066",
      "41071",
      "41081",
      "41086",
      "41090",
      "41092",
      "41100",
      "41105",
      "41800",
      "41806",
      "42081",
      "51015",
      "51017",
      "51024",
      "51040",
      "51044",
      "51045",
      "51048",
      "51049",
      "51050",
      "51065",
      "51066",
      "51067",
      "51068"
    ]
  },
  {
    "id": "80465",
    "name": "YEŞİLOVA MUHTARLIĞI",
    "lat": 40.78749,
    "lon": 29.970629,
    "routes": [
      "41002",
      "41006",
      "41013",
      "41034",
      "41081",
      "41092",
      "41105",
      "42081"
    ]
  },
  {
    "id": "41571",
    "name": "GÜNDOĞDU SAPAĞI",
    "lat": 40.78756,
    "lon": 29.969456,
    "routes": [
      "41002",
      "41006",
      "41013",
      "41034",
      "41081",
      "41105",
      "42081"
    ]
  },
  {
    "id": "41580",
    "name": "BOĞAZİÇİ CAMİ 1",
    "lat": 40.787128,
    "lon": 29.965874,
    "routes": [
      "41002",
      "41006",
      "41013",
      "41034",
      "41081",
      "41105",
      "42081"
    ]
  },
  {
    "id": "81024",
    "name": "ŞEHİT NECMİ SEMERCİ SOKAK 1",
    "lat": 40.786943,
    "lon": 29.962935,
    "routes": [
      "41002",
      "41006",
      "41013",
      "41034",
      "41081",
      "41105",
      "42081"
    ]
  },
  {
    "id": "41376",
    "name": "YUVA SOKAK 1",
    "lat": 40.78674236,
    "lon": 29.95976861,
    "routes": [
      "41002",
      "41006",
      "41013",
      "41034",
      "41081",
      "41105",
      "42081"
    ]
  },
  {
    "id": "41388",
    "name": "ŞEHİT FATİH DUMAN SOKAK",
    "lat": 40.786354,
    "lon": 29.958134,
    "routes": [
      "41013"
    ]
  },
  {
    "id": "81025",
    "name": "ULU SOKAK 2",
    "lat": 40.7856052,
    "lon": 29.9580402,
    "routes": [
      "41013"
    ]
  },
  {
    "id": "81026",
    "name": "GÜNDOĞDU ZÜBEYDE HANIM CADDESİ",
    "lat": 40.7880693,
    "lon": 29.9555705,
    "routes": [
      "41013",
      "41081",
      "41105"
    ]
  },
  {
    "id": "41542",
    "name": "GÜNDOĞDU MEZARLIK 2",
    "lat": 40.789696,
    "lon": 29.956524,
    "routes": [
      "41013",
      "41081",
      "41105"
    ]
  },
  {
    "id": "80456",
    "name": "GÜNDOĞDU İLKOKULU 1",
    "lat": 40.79199457,
    "lon": 29.95696065,
    "routes": [
      "41013",
      "41081",
      "41105"
    ]
  },
  {
    "id": "41544",
    "name": "BİROL SOKAK 1",
    "lat": 40.79307893,
    "lon": 29.95635975,
    "routes": [
      "41013",
      "41081",
      "41105"
    ]
  },
  {
    "id": "80457",
    "name": "GÜNDOĞDU KONAK 1",
    "lat": 40.7939252,
    "lon": 29.9552561,
    "routes": [
      "41013",
      "41081",
      "41105",
      "42081"
    ]
  },
  {
    "id": "42304",
    "name": "GÜNDOĞDU MERKEZ CAMİ 1",
    "lat": 40.7941411,
    "lon": 29.9540225,
    "routes": [
      "41013",
      "41081",
      "41105",
      "42081",
      "70007"
    ]
  },
  {
    "id": "41530",
    "name": "HIZIR REİS SOKAK 2",
    "lat": 40.795097,
    "lon": 29.953426,
    "routes": [
      "41013",
      "41081",
      "41105",
      "42081"
    ]
  },
  {
    "id": "80459",
    "name": "KOCAÇEŞME CADDESİ 3",
    "lat": 40.7956875,
    "lon": 29.9528501,
    "routes": [
      "41013",
      "41081",
      "42081"
    ]
  },
  {
    "id": "41458",
    "name": "GÜNDOĞDU ÇEŞME",
    "lat": 40.7972032,
    "lon": 29.9513352,
    "routes": [
      "41013",
      "41081",
      "41105",
      "42081"
    ]
  },
  {
    "id": "81028",
    "name": "GÜNDOĞDU MEZARLIK",
    "lat": 40.7963175,
    "lon": 29.9500875,
    "routes": [
      "41013",
      "41081",
      "41105",
      "42081"
    ]
  },
  {
    "id": "41309",
    "name": "12. ADA 1",
    "lat": 40.7933572,
    "lon": 29.9483202,
    "routes": [
      "41013",
      "41105"
    ]
  },
  {
    "id": "41317",
    "name": "11. 12. ADA",
    "lat": 40.7929013,
    "lon": 29.948288,
    "routes": [
      "41013",
      "41105"
    ]
  },
  {
    "id": "80290",
    "name": "DÜNYA BANKASI 5",
    "lat": 40.791712,
    "lon": 29.948128,
    "routes": [
      "41013",
      "41085",
      "41088",
      "41105"
    ]
  },
  {
    "id": "80291",
    "name": "29 EKİM ORTAOKULU",
    "lat": 40.790193,
    "lon": 29.948,
    "routes": [
      "41013",
      "41085",
      "41088",
      "41105"
    ]
  },
  {
    "id": "80293",
    "name": "SELEK SOKAK",
    "lat": 40.78903477,
    "lon": 29.94943419,
    "routes": [
      "41013",
      "41085",
      "41088",
      "41105"
    ]
  },
  {
    "id": "80296",
    "name": "DÜNYA BANKASI 9",
    "lat": 40.7873236,
    "lon": 29.9497952,
    "routes": [
      "41013",
      "41085",
      "41088",
      "41105"
    ]
  },
  {
    "id": "80297",
    "name": "ÇOCUK ŞUBE MÜDÜRLÜĞÜ",
    "lat": 40.7877164,
    "lon": 29.9476048,
    "routes": [
      "41013",
      "41085",
      "41088",
      "41145",
      "43016",
      "65001"
    ]
  },
  {
    "id": "80299",
    "name": "MALTA AYAZTEPE CAMİ",
    "lat": 40.790301,
    "lon": 29.9452261,
    "routes": [
      "41013",
      "41085",
      "41088",
      "41145",
      "43016",
      "65001"
    ]
  },
  {
    "id": "80274",
    "name": "DÜNYA BANKASI 14",
    "lat": 40.79189938,
    "lon": 29.94469998,
    "routes": [
      "41013",
      "41085",
      "41088",
      "41145",
      "43016",
      "65001"
    ]
  },
  {
    "id": "80276",
    "name": "DÜNYA BANKASI 16",
    "lat": 40.79462672,
    "lon": 29.94577694,
    "routes": [
      "41013",
      "41081",
      "41085",
      "41088",
      "41105",
      "41145",
      "42081",
      "43016",
      "65001"
    ]
  },
  {
    "id": "80279",
    "name": "DÜNYA BANKASI 17",
    "lat": 40.79704464,
    "lon": 29.94443842,
    "routes": [
      "41013",
      "41081",
      "41085",
      "41105",
      "41145",
      "42081",
      "43016",
      "65001"
    ]
  },
  {
    "id": "80280",
    "name": "YONCA SOKAK",
    "lat": 40.79872351,
    "lon": 29.9454149,
    "routes": [
      "41013",
      "41081",
      "41085",
      "41105",
      "41145",
      "42081",
      "43016",
      "65001"
    ]
  },
  {
    "id": "11407",
    "name": "UMUTTEPE DEPOLAMA ALANI",
    "lat": 40.8223663,
    "lon": 29.9159796,
    "routes": [
      "41013",
      "41070",
      "41085",
      "41105",
      "41115",
      "41145",
      "41170",
      "41175",
      "41190",
      "41210",
      "41255",
      "41265",
      "41300",
      "41305",
      "41435",
      "41530",
      "41600",
      "41630",
      "41635",
      "41640",
      "41645",
      "41650",
      "41750",
      "41755",
      "42115",
      "43016",
      "61001"
    ]
  },
  {
    "id": "80220",
    "name": "ÜNİVERSİTE CADDESİ SAPAĞI",
    "lat": 40.799836,
    "lon": 29.946974,
    "routes": [
      "41013",
      "41081",
      "41085",
      "41105",
      "41145",
      "42081",
      "43016",
      "65001",
      "70007"
    ]
  },
  {
    "id": "81246",
    "name": "YONCA SOKAK 1",
    "lat": 40.7990996,
    "lon": 29.9454426,
    "routes": [
      "41013",
      "41081",
      "41085",
      "41105",
      "41145",
      "42081",
      "43016",
      "65001",
      "70007"
    ]
  },
  {
    "id": "80278",
    "name": "DÜNYA BANKASI",
    "lat": 40.7970101,
    "lon": 29.9441926,
    "routes": [
      "41013",
      "41081",
      "41085",
      "41105",
      "41145",
      "42081",
      "43016",
      "65001",
      "70007"
    ]
  },
  {
    "id": "80275",
    "name": "DÜNYA BANKASI 15",
    "lat": 40.79425124,
    "lon": 29.94558821,
    "routes": [
      "41013",
      "41081",
      "41085",
      "41088",
      "41105",
      "41145",
      "42081",
      "43016",
      "65001",
      "70007"
    ]
  },
  {
    "id": "80273",
    "name": "DÜNYA BANKASI 13",
    "lat": 40.79205218,
    "lon": 29.94442213,
    "routes": [
      "41013",
      "41085",
      "41088",
      "41105",
      "41145",
      "43016",
      "65001"
    ]
  },
  {
    "id": "80300",
    "name": "MALTA AYAZTEPE CAMİ 1",
    "lat": 40.7900613,
    "lon": 29.9451192,
    "routes": [
      "41013",
      "41085",
      "41088",
      "41145",
      "43016",
      "65001",
      "70007"
    ]
  },
  {
    "id": "80298",
    "name": "ÇOCUK ŞUBE MÜDÜRLÜĞÜ 1",
    "lat": 40.7876466,
    "lon": 29.9473604,
    "routes": [
      "41013",
      "41085",
      "41088",
      "41145",
      "43016",
      "65001",
      "70007"
    ]
  },
  {
    "id": "80295",
    "name": "DÜNYA BANKASI 10",
    "lat": 40.787254,
    "lon": 29.949883,
    "routes": [
      "41013",
      "41085",
      "41088",
      "41105",
      "70007"
    ]
  },
  {
    "id": "80294",
    "name": "ESER SOKAK",
    "lat": 40.78906465,
    "lon": 29.94960247,
    "routes": [
      "41013",
      "41085",
      "41088",
      "41105",
      "70007"
    ]
  },
  {
    "id": "80292",
    "name": "29 EKİM ORTAOKULU 1",
    "lat": 40.790301,
    "lon": 29.9481789,
    "routes": [
      "41013",
      "41085",
      "41088",
      "41105",
      "70007"
    ]
  },
  {
    "id": "80289",
    "name": "DÜNYA BANKASI 6",
    "lat": 40.7919827,
    "lon": 29.9483284,
    "routes": [
      "41013",
      "41085",
      "41088",
      "41105",
      "70007"
    ]
  },
  {
    "id": "81164",
    "name": "11. 12. ADA 1",
    "lat": 40.7926821,
    "lon": 29.9483615,
    "routes": [
      "41013",
      "41085",
      "41088",
      "41105",
      "70007"
    ]
  },
  {
    "id": "41735",
    "name": "12. ADA",
    "lat": 40.7932973,
    "lon": 29.9485,
    "routes": [
      "41013",
      "41105",
      "70007"
    ]
  },
  {
    "id": "80460",
    "name": "GÜNDOĞDU MEZARLIK 1",
    "lat": 40.7962973,
    "lon": 29.95023687,
    "routes": [
      "41013",
      "41081",
      "41105",
      "42081",
      "70007"
    ]
  },
  {
    "id": "41460",
    "name": "GÜNDOĞDU ÇEŞME 1",
    "lat": 40.7970131,
    "lon": 29.9511282,
    "routes": [
      "41013",
      "41081",
      "41105",
      "42081",
      "70007"
    ]
  },
  {
    "id": "81161",
    "name": "GÜN SOKAK 1",
    "lat": 40.795896,
    "lon": 29.9526011,
    "routes": [
      "41013",
      "41081",
      "41105",
      "42081"
    ]
  },
  {
    "id": "81027",
    "name": "KOCAÇEŞME CADDESİ 4",
    "lat": 40.7956263,
    "lon": 29.9527678,
    "routes": [
      "41013",
      "41081",
      "41105",
      "42081",
      "70007"
    ]
  },
  {
    "id": "41539",
    "name": "GÜNDOĞDU MERKEZ CAMİ",
    "lat": 40.7943163,
    "lon": 29.9535785,
    "routes": [
      "41013",
      "41081",
      "41105",
      "42081",
      "70007"
    ]
  },
  {
    "id": "80461",
    "name": "KOCADERE SOKAK",
    "lat": 40.7930196,
    "lon": 29.9535856,
    "routes": [
      "41013"
    ]
  },
  {
    "id": "80462",
    "name": "ERİŞ SOKAK",
    "lat": 40.7918434,
    "lon": 29.953615,
    "routes": [
      "41013"
    ]
  },
  {
    "id": "41540",
    "name": "KOCAÇEŞME CADDESİ 2",
    "lat": 40.790806,
    "lon": 29.953844,
    "routes": [
      "41013"
    ]
  },
  {
    "id": "80463",
    "name": "KOCAÇEŞME CADDESİ 1",
    "lat": 40.7881868,
    "lon": 29.9540583,
    "routes": [
      "41013"
    ]
  },
  {
    "id": "80464",
    "name": "ULU SOKAK 1",
    "lat": 40.7854928,
    "lon": 29.9581283,
    "routes": [
      "41013"
    ]
  },
  {
    "id": "41400",
    "name": "ULU SOKAK",
    "lat": 40.78602,
    "lon": 29.958313,
    "routes": [
      "41013"
    ]
  },
  {
    "id": "41401",
    "name": "YUVA SOKAK 2",
    "lat": 40.78662483,
    "lon": 29.96018269,
    "routes": [
      "41002",
      "41006",
      "41013",
      "41034",
      "41081",
      "41105",
      "42081"
    ]
  },
  {
    "id": "80453",
    "name": "ŞEHİT NECMİ SEMERCİ SOKAK",
    "lat": 40.7868487,
    "lon": 29.9629458,
    "routes": [
      "41002",
      "41006",
      "41013",
      "41034",
      "41081",
      "41105",
      "42081"
    ]
  },
  {
    "id": "80452",
    "name": "BOĞAZİÇİ CAMİ",
    "lat": 40.787042,
    "lon": 29.9657037,
    "routes": [
      "41002",
      "41006",
      "41013",
      "41034",
      "41081",
      "41105",
      "42081"
    ]
  },
  {
    "id": "41568",
    "name": "GÜNDOĞDU SAPAĞI 1",
    "lat": 40.787395,
    "lon": 29.969595,
    "routes": [
      "41002",
      "41006",
      "41013",
      "41034",
      "41081",
      "41105",
      "42081"
    ]
  },
  {
    "id": "80466",
    "name": "YEŞİLOVA MUHTARLIĞI 1",
    "lat": 40.7874875,
    "lon": 29.9701947,
    "routes": [
      "41002",
      "41006",
      "41013",
      "41034",
      "41081",
      "41092",
      "41105",
      "42081",
      "70007"
    ]
  },
  {
    "id": "11290",
    "name": "ECE SOKAK",
    "lat": 40.786217,
    "lon": 29.97078,
    "routes": [
      "41002",
      "41013",
      "41024",
      "41034",
      "41066",
      "41081",
      "41086",
      "41090",
      "41092",
      "41105",
      "41800",
      "41806",
      "42081",
      "51015",
      "51017",
      "51024",
      "51040",
      "51044",
      "51045",
      "51048",
      "51049",
      "51065",
      "51066",
      "51067",
      "51068",
      "70007"
    ]
  },
  {
    "id": "80430",
    "name": "ARKAN SOKAK",
    "lat": 40.784935,
    "lon": 29.969824,
    "routes": [
      "41002",
      "41013",
      "41024",
      "41034",
      "41066",
      "41081",
      "41086",
      "41090",
      "41092",
      "41105",
      "41800",
      "41806",
      "42081",
      "51015",
      "51017",
      "51024",
      "51040",
      "51044",
      "51045",
      "51048",
      "51049",
      "51050",
      "51065",
      "51066",
      "51067",
      "51068",
      "70007"
    ]
  },
  {
    "id": "80429",
    "name": "NEZİH SOKAK",
    "lat": 40.781824,
    "lon": 29.968452,
    "routes": [
      "41002",
      "41013",
      "41024",
      "41034",
      "41066",
      "41071",
      "41081",
      "41086",
      "41090",
      "41092",
      "41105",
      "41800",
      "41806",
      "42081",
      "51015",
      "51017",
      "51024",
      "51040",
      "51044",
      "51045",
      "51048",
      "51049",
      "51050",
      "51065",
      "51066",
      "51067",
      "51068",
      "70007"
    ]
  },
  {
    "id": "80688",
    "name": "SELVİLİ CAMİ",
    "lat": 40.779793,
    "lon": 29.967793,
    "routes": [
      "41002",
      "41013",
      "41024",
      "41034",
      "41066",
      "41071",
      "41081",
      "41086",
      "41090",
      "41105",
      "41800",
      "41806",
      "42081",
      "51015",
      "51017",
      "51024",
      "51040",
      "51044",
      "51045",
      "51048",
      "51049",
      "51050",
      "51065",
      "51066",
      "51067",
      "51068",
      "70007"
    ]
  },
  {
    "id": "42268",
    "name": "PLATİN SOKAK",
    "lat": 40.77800088,
    "lon": 29.96719741,
    "routes": [
      "41002",
      "41013",
      "41024",
      "41034",
      "41066",
      "41071",
      "41081",
      "41086",
      "41090",
      "41092",
      "41105",
      "41800",
      "41806",
      "42081",
      "51015",
      "51017",
      "51024",
      "51040",
      "51044",
      "51045",
      "51048",
      "51049",
      "51050",
      "51065",
      "51066",
      "51067",
      "70007"
    ]
  },
  {
    "id": "80684",
    "name": "TAVŞANTEPE OTOGAR SAPAĞI",
    "lat": 40.77706,
    "lon": 29.966599,
    "routes": [
      "41002",
      "41013",
      "41024",
      "41025",
      "41034",
      "41066",
      "41071",
      "41081",
      "41086",
      "41090",
      "41092",
      "41105",
      "41138",
      "41800",
      "41806",
      "42081",
      "51015",
      "51017",
      "51024",
      "51040",
      "51044",
      "51045",
      "51048",
      "51049",
      "51050",
      "51065",
      "51066",
      "51067",
      "51068",
      "65001",
      "70007"
    ]
  },
  {
    "id": "40266",
    "name": "FURKAN SOKAK",
    "lat": 40.7758616,
    "lon": 29.9680761,
    "routes": [
      "41013",
      "41024",
      "41025",
      "41118",
      "41138",
      "51066",
      "65001"
    ]
  },
  {
    "id": "81179",
    "name": "KARAYOLU CADDESİ",
    "lat": 40.770987,
    "lon": 29.968317,
    "routes": [
      "41013",
      "41028",
      "41151",
      "41152",
      "41154",
      "41163",
      "41170",
      "41175",
      "41190",
      "41255",
      "41265",
      "41280",
      "41300",
      "41305",
      "41405",
      "41435",
      "41530",
      "41698",
      "41702",
      "41755",
      "65002",
      "65003",
      "65004",
      "70001",
      "70003",
      "70005",
      "70008",
      "70011"
    ]
  },
  {
    "id": "80413",
    "name": "MAHMUD ESAT COŞAN CAMİ",
    "lat": 40.76836,
    "lon": 29.967535,
    "routes": [
      "41013",
      "41028",
      "41151",
      "41152",
      "41154",
      "41163",
      "41170",
      "41175",
      "41190",
      "41200",
      "41255",
      "41265",
      "41280",
      "41300",
      "41305",
      "41400",
      "41405",
      "41435",
      "41530",
      "41698",
      "41702",
      "41755",
      "42435",
      "65002",
      "65003",
      "65004",
      "70003",
      "70005"
    ]
  },
  {
    "id": "80566",
    "name": "YAHYA KAPTAN 1",
    "lat": 40.7675674,
    "lon": 29.9696095,
    "routes": [
      "41013"
    ]
  },
  {
    "id": "80569",
    "name": "GÖKKUŞAĞI SOKAK",
    "lat": 40.766761,
    "lon": 29.971073,
    "routes": [
      "41013",
      "41024"
    ]
  },
  {
    "id": "80571",
    "name": "AHMET YESEVİ CADDESİ 5",
    "lat": 40.76493,
    "lon": 29.970263,
    "routes": [
      "41013",
      "41024"
    ]
  },
  {
    "id": "80573",
    "name": "YAHYA KAPTAN ESENYEL SOKAK",
    "lat": 40.763311,
    "lon": 29.971685,
    "routes": [
      "41002",
      "41013",
      "41024",
      "41080",
      "41126",
      "41135"
    ]
  },
  {
    "id": "80575",
    "name": "İZMİT ATILIM ANADOLU LİSESİ",
    "lat": 40.763595,
    "lon": 29.97418,
    "routes": [
      "41002",
      "41013",
      "41024",
      "41080",
      "41126",
      "41135"
    ]
  },
  {
    "id": "80576",
    "name": "İLK ADIM ANAOKULU",
    "lat": 40.7631381,
    "lon": 29.9758539,
    "routes": [
      "41002",
      "41013",
      "41024",
      "41080",
      "41126",
      "41135"
    ]
  },
  {
    "id": "80579",
    "name": "KORU SOKAK",
    "lat": 40.76267568,
    "lon": 29.97823873,
    "routes": [
      "41002",
      "41013",
      "41135"
    ]
  },
  {
    "id": "80580",
    "name": "23 NİSAN İLKOKULU 1",
    "lat": 40.762492,
    "lon": 29.980279,
    "routes": [
      "41002",
      "41013",
      "41135"
    ]
  },
  {
    "id": "80582",
    "name": "YAHYA KAPTAN DEPOLAMA ALANI",
    "lat": 40.764518,
    "lon": 29.982419,
    "routes": [
      "41013",
      "41135",
      "41255",
      "41265"
    ]
  },
  {
    "id": "80583",
    "name": "YAHYA KAPTAN MERKEZ CAMİ",
    "lat": 40.764919,
    "lon": 29.980882,
    "routes": [
      "41002",
      "41013",
      "41080",
      "41118"
    ]
  },
  {
    "id": "80585",
    "name": "10. BÖLGE 1",
    "lat": 40.7646845,
    "lon": 29.9790777,
    "routes": [
      "41002",
      "41013",
      "41080",
      "41118"
    ]
  },
  {
    "id": "80589",
    "name": "ŞEHİT POLİS RECEP TOPALOĞLU SPOR SALONU",
    "lat": 40.765465,
    "lon": 29.977249,
    "routes": [
      "41002",
      "41013"
    ]
  },
  {
    "id": "80600",
    "name": "24 KASIM ANADOLU LİSESİ",
    "lat": 40.7690255,
    "lon": 29.9765034,
    "routes": [
      "41013",
      "41024"
    ]
  },
  {
    "id": "80595",
    "name": "SARAYÖNÜ SOKAK",
    "lat": 40.7718161,
    "lon": 29.9752316,
    "routes": [
      "41013",
      "41024",
      "41135",
      "41255",
      "41265"
    ]
  },
  {
    "id": "80605",
    "name": "HANLI SOKAK",
    "lat": 40.7744728,
    "lon": 29.9756043,
    "routes": [
      "41013",
      "41024",
      "41135",
      "41255",
      "41265"
    ]
  },
  {
    "id": "42299",
    "name": "AKARCA SECDE CAMİ",
    "lat": 40.7753701,
    "lon": 29.9768883,
    "routes": [
      "41013",
      "41025",
      "41026",
      "41028",
      "41029",
      "41135",
      "42015",
      "61001"
    ]
  },
  {
    "id": "80609",
    "name": "YUVAM KÖPRÜ KÖŞE 2",
    "lat": 40.7746809,
    "lon": 29.9800214,
    "routes": [
      "41013",
      "41028",
      "41029",
      "41135",
      "61001"
    ]
  },
  {
    "id": "80507",
    "name": "ANADOLU OTOYOLU 1",
    "lat": 40.775809,
    "lon": 29.980879,
    "routes": [
      "41013",
      "41135"
    ]
  },
  {
    "id": "11466",
    "name": "MUSTAFA ERYİĞİT SOKAK",
    "lat": 40.777666,
    "lon": 29.98203,
    "routes": [
      "41013",
      "41028",
      "41135"
    ]
  },
  {
    "id": "80874",
    "name": "UĞUR MUMCU CADDESİ",
    "lat": 40.7787971,
    "lon": 29.9849732,
    "routes": [
      "41013",
      "41135"
    ]
  },
  {
    "id": "80757",
    "name": "AKARCA MERDİVENLER 1",
    "lat": 40.779533,
    "lon": 29.987621,
    "routes": [
      "41013",
      "41135"
    ]
  },
  {
    "id": "80495",
    "name": "FEVZİ ÇAKMAK MUHTARLIĞI",
    "lat": 40.779413,
    "lon": 29.99174,
    "routes": [
      "41013",
      "41025",
      "41026",
      "41028",
      "41080",
      "41210",
      "70005"
    ]
  },
  {
    "id": "80496",
    "name": "ÇİTLENBİK SOKAK 1",
    "lat": 40.7788721,
    "lon": 29.9920507,
    "routes": [
      "41013",
      "41025",
      "41028",
      "41080",
      "41210",
      "70005"
    ]
  },
  {
    "id": "41547",
    "name": "AKARCA B 1 BLOK",
    "lat": 40.77786,
    "lon": 29.991013,
    "routes": [
      "41013",
      "41025",
      "41028",
      "41080",
      "41210"
    ]
  },
  {
    "id": "80950",
    "name": "MENEKŞE SOKAK",
    "lat": 40.7765652,
    "lon": 29.9897806,
    "routes": [
      "41013",
      "41025",
      "41028",
      "41080",
      "41210"
    ]
  },
  {
    "id": "80498",
    "name": "SEFA SİRMEN CADDESİ 1",
    "lat": 40.776026,
    "lon": 29.98839,
    "routes": [
      "41013",
      "41025",
      "41028",
      "41080",
      "41210"
    ]
  },
  {
    "id": "41549",
    "name": "8. ADA",
    "lat": 40.7759347,
    "lon": 29.9864316,
    "routes": [
      "41013",
      "41025",
      "41028",
      "41080",
      "41210"
    ]
  },
  {
    "id": "41543",
    "name": "YUVAM AKARCA AİLE SAĞLIĞI MERKEZİ",
    "lat": 40.775173,
    "lon": 29.98457,
    "routes": [
      "41013",
      "41025",
      "41028",
      "41080",
      "41210"
    ]
  },
  {
    "id": "80508",
    "name": "AKARCA İŞ MERKEZİ",
    "lat": 40.774716,
    "lon": 29.9864316,
    "routes": [
      "41013",
      "41025",
      "41028",
      "41080",
      "41210"
    ]
  },
  {
    "id": "80511",
    "name": "AKARCA PARKI",
    "lat": 40.7747496,
    "lon": 29.9883798,
    "routes": [
      "41013",
      "41025",
      "41026",
      "41028",
      "41029",
      "41080",
      "41210"
    ]
  },
  {
    "id": "80512",
    "name": "AKARCA POSTANE 2",
    "lat": 40.7747598,
    "lon": 29.9907385,
    "routes": [
      "41013",
      "41025",
      "41026",
      "41028",
      "41029",
      "41080",
      "41210",
      "70005"
    ]
  },
  {
    "id": "41528",
    "name": "AHMET TANER KIŞLALI CADDESİ 2",
    "lat": 40.77406,
    "lon": 29.990837,
    "routes": [
      "41013",
      "41025",
      "41026",
      "41028",
      "41029",
      "41080",
      "41210",
      "70005"
    ]
  },
  {
    "id": "80518",
    "name": "ALİKAHYA FATİH CAMİ 1",
    "lat": 40.7729724,
    "lon": 29.9927182,
    "routes": [
      "41013",
      "41026",
      "41029",
      "41210",
      "70005"
    ]
  },
  {
    "id": "41537",
    "name": "FATMA SEHER HANIM CADDESİ",
    "lat": 40.77318,
    "lon": 29.994972,
    "routes": [
      "41013",
      "41026",
      "41029",
      "41210",
      "70005"
    ]
  },
  {
    "id": "80520",
    "name": "KELEŞ SOKAK",
    "lat": 40.773567,
    "lon": 29.997875,
    "routes": [
      "41013",
      "41026",
      "41029",
      "41210",
      "70005"
    ]
  },
  {
    "id": "80878",
    "name": "ALPARSLAN SOKAK",
    "lat": 40.773643,
    "lon": 29.999964,
    "routes": [
      "41013",
      "41026",
      "41029",
      "41210",
      "70005"
    ]
  },
  {
    "id": "80723",
    "name": "ALİKAHYA MERKEZ CAMİ 1",
    "lat": 40.7726767,
    "lon": 30.0030862,
    "routes": [
      "41013",
      "41026",
      "41029",
      "41210",
      "70005"
    ]
  },
  {
    "id": "80721",
    "name": "İNCİRLİ SOKAK",
    "lat": 40.77380176,
    "lon": 30.00497392,
    "routes": [
      "41013",
      "41026",
      "41029",
      "70005"
    ]
  },
  {
    "id": "80718",
    "name": "MEHMET AKİF CADDESİ 2",
    "lat": 40.7760722,
    "lon": 30.0063492,
    "routes": [
      "41013",
      "41026",
      "41029",
      "70005"
    ]
  },
  {
    "id": "80717",
    "name": "ALİKAHYA İLKOKULU 2",
    "lat": 40.7752,
    "lon": 30.008321,
    "routes": [
      "41013",
      "41026",
      "41029",
      "70005"
    ]
  },
  {
    "id": "80715",
    "name": "AHMET MÜFİT BEY CADDESİ 1",
    "lat": 40.773487,
    "lon": 30.007782,
    "routes": [
      "41013",
      "41026",
      "41029",
      "70005"
    ]
  },
  {
    "id": "80713",
    "name": "ALİKAHYA HAYIRSEVENLER CAMİ 1",
    "lat": 40.7733488,
    "lon": 30.0101816,
    "routes": [
      "41013",
      "41026",
      "41029",
      "70005"
    ]
  },
  {
    "id": "41550",
    "name": "NİLGÜN SOKAK 1",
    "lat": 40.772892,
    "lon": 30.01271,
    "routes": [
      "41013",
      "41026",
      "41029",
      "70005"
    ]
  },
  {
    "id": "80711",
    "name": "KOCAELİ STADI",
    "lat": 40.77304188,
    "lon": 30.01579699,
    "routes": [
      "41013",
      "41026",
      "41029",
      "70005"
    ]
  },
  {
    "id": "80935",
    "name": "VATAN CADDESİ 2",
    "lat": 40.770761,
    "lon": 30.0161058,
    "routes": [
      "41013",
      "41029",
      "42015",
      "70005"
    ]
  },
  {
    "id": "80604",
    "name": "830. ADA",
    "lat": 40.766024,
    "lon": 30.015281,
    "routes": [
      "41013",
      "41026",
      "41029"
    ]
  },
  {
    "id": "41532",
    "name": "831. ADA",
    "lat": 40.7665,
    "lon": 30.013067,
    "routes": [
      "41013",
      "41026",
      "41029",
      "41210"
    ]
  },
  {
    "id": "80896",
    "name": "832. ADA",
    "lat": 40.766902,
    "lon": 30.010381,
    "routes": [
      "41013",
      "41026",
      "41029",
      "41210"
    ]
  },
  {
    "id": "80898",
    "name": "833. ADA",
    "lat": 40.76757,
    "lon": 30.007162,
    "routes": [
      "41013",
      "41026",
      "41029",
      "41210"
    ]
  },
  {
    "id": "41566",
    "name": "ŞEHİT YÜKSEL DİNÇ",
    "lat": 40.76778,
    "lon": 30.005631,
    "routes": [
      "41013",
      "41026",
      "41029",
      "41210"
    ]
  },
  {
    "id": "81362",
    "name": "UMUTTEPE KREŞ 1",
    "lat": 40.8203517,
    "lon": 29.9167678,
    "routes": [
      "41014",
      "41053",
      "41073"
    ]
  },
  {
    "id": "80214",
    "name": "KOCAELİ ÜNİVERSİTESİ BEDEN EĞİTİMİ FAKÜLTESİ 1",
    "lat": 40.816848,
    "lon": 29.91976,
    "routes": [
      "41014",
      "41053",
      "41073"
    ]
  },
  {
    "id": "80907",
    "name": "KOCAELİ ÜNİVERSİTESİ KAPALI YÜZME HAVUZU 1",
    "lat": 40.814542,
    "lon": 29.920704,
    "routes": [
      "41014",
      "41053"
    ]
  },
  {
    "id": "11453",
    "name": "KREDİ YURTLAR KURUMU KOCAELİ VİLAYETLER HİZMET BİRLİĞİ YURDU 1",
    "lat": 40.8133071,
    "lon": 29.9205875,
    "routes": [
      "41014",
      "41053"
    ]
  },
  {
    "id": "11523",
    "name": "UMUTTEPE  E KAPISI",
    "lat": 40.8122101,
    "lon": 29.9111353,
    "routes": [
      "41014"
    ]
  },
  {
    "id": "10802",
    "name": "SAĞLIK BİLİMLER FAKÜLTESİ",
    "lat": 40.816415,
    "lon": 29.913033,
    "routes": [
      "41014"
    ]
  },
  {
    "id": "11050",
    "name": "SEMAHAT ARACI ONKOLOJİ HASTANESİ",
    "lat": 40.8184182,
    "lon": 29.9124056,
    "routes": [
      "41014"
    ]
  },
  {
    "id": "11108",
    "name": "SAĞLIK BİLİMLERİ FAKÜLTESİ 1",
    "lat": 40.816925,
    "lon": 29.910825,
    "routes": [
      "41014"
    ]
  },
  {
    "id": "11524",
    "name": "UMUTTEPE E KAPISI 1",
    "lat": 40.8121683,
    "lon": 29.9110942,
    "routes": [
      "41014"
    ]
  },
  {
    "id": "11662",
    "name": "KREDİ YURTLAR KURUMU KOCAELİ VİLAYETLER HİZMET BİRLİĞİ YURDU 3",
    "lat": 40.8131496,
    "lon": 29.9205946,
    "routes": [
      "41014"
    ]
  },
  {
    "id": "80906",
    "name": "KOCAELİ ÜNİVERSİTESİ KAPALI YÜZME HAVUZU",
    "lat": 40.814548,
    "lon": 29.920856,
    "routes": [
      "41014"
    ]
  },
  {
    "id": "11276",
    "name": "KOCAELİ ÜNİVERSİTESİ BEDEN EĞİTİMİ FAKÜLTESİ",
    "lat": 40.816906,
    "lon": 29.91993,
    "routes": [
      "41014",
      "41073"
    ]
  },