[
  {
    "id": "10000",
    "name": "ÇINARLI KENT 1",
    "lat": 40.7706983,
    "lon": 29.8366713
  },
  {
    "id": "10002",
    "name": "ARPALIK CADDESİ",
    "lat": 40.714517,
    "lon": 29.8718779
  },
  {
    "id": "10003",
    "name": "SERBEST BÖLGE",
    "lat": 40.7197443,
    "lon": 29.8671182
  },
  {
    "id": "10004",
    "name": "YUVAM 1",
    "lat": 40.70966646,
    "lon": 29.87025104
  },
  {
    "id": "10005",
    "name": "SEBAHATTİN YAKUT CADDESİ",
    "lat": 40.709666,
    "lon": 29.871607
  },
  {
    "id": "10006",
    "name": "ARPALIK CADDESİ 1",
    "lat": 40.709894,
    "lon": 29.875288
  },
  {
    "id": "10007",
    "name": "MAKİNE KİMYA",
    "lat": 40.7125225,
    "lon": 29.8931765
  },
  {
    "id": "10008",
    "name": "KARŞIYAKA MUHTARLIĞI",
    "lat": 40.7131092,
    "lon": 29.8920872
  },
  {
    "id": "10009",
    "name": "YENİKÖY GÖZDEM SİTESİ",
    "lat": 40.705566,
    "lon": 29.879011
  },
  {
    "id": "10010",
    "name": "YAZLIK SAPAĞI 2",
    "lat": 40.705563,
    "lon": 29.874996
  },
  {
    "id": "10011",
    "name": "CEBECİ PEMBE KAYALAR",
    "lat": 41.1812233,
    "lon": 30.240796
  },
  {
    "id": "10012",
    "name": "YENİKÖY AİLE SAĞLIĞI MERKEZİ",
    "lat": 40.7050826,
    "lon": 29.8846402
  },
  {
    "id": "10013",
    "name": "KOCAÇEŞME CADDESİ",
    "lat": 40.7871017,
    "lon": 29.9542432
  },
  {
    "id": "10014",
    "name": "HACI MAHMUT CADDESİ 2",
    "lat": 40.689397,
    "lon": 29.958096
  },
  {
    "id": "10015",
    "name": "YENİKÖY ATAKENT 9",
    "lat": 40.70458094,
    "lon": 29.88713517
  },
  {
    "id": "10016",
    "name": "YENİKÖY ATAKENT 8",
    "lat": 40.70705291,
    "lon": 29.88780312
  },
  {
    "id": "10017",
    "name": "YENİKÖY ATAKENT 7",
    "lat": 40.70721,
    "lon": 29.889254
  },
  {
    "id": "10018",
    "name": "YENİKÖY ATAKENT 6",
    "lat": 40.70713777,
    "lon": 29.89122476
  },
  {
    "id": "10019",
    "name": "YENİKÖY ATAKENT 5",
    "lat": 40.70571108,
    "lon": 29.89078904
  },
  {
    "id": "10020",
    "name": "DENİZDİBİ İLKOKULU 1",
    "lat": 40.702604,
    "lon": 29.889681
  },
  {
    "id": "10021",
    "name": "DENİZDİBİ İLKOKULU",
    "lat": 40.70257214,
    "lon": 29.88980216
  },
  {
    "id": "10022",
    "name": "YENİKÖY ATAKENT 3",
    "lat": 40.7018465,
    "lon": 29.8886202
  },
  {
    "id": "10023",
    "name": "BAŞİSKELE KÜLTÜR MERKEZİ",
    "lat": 40.701994,
    "lon": 29.888488
  },
  {
    "id": "10024",
    "name": "HÜRRİYET CADDESİ 2",
    "lat": 40.689539,
    "lon": 29.909888
  },
  {
    "id": "10025",
    "name": "HÜRRİYET CADDESİ 3",
    "lat": 40.689612,
    "lon": 29.909694
  },
  {
    "id": "10026",
    "name": "TOPALLAR SAPAĞI",
    "lat": 40.8528461,
    "lon": 29.9753915
  },
  {
    "id": "10027",
    "name": "ERBAY CAMİ 1",
    "lat": 40.6979978,
    "lon": 29.8817859
  },
  {
    "id": "10028",
    "name": "KOMUTAN SOKAK",
    "lat": 40.697921,
    "lon": 29.888035
  },
  {
    "id": "10029",
    "name": "YENİKÖY YURT 1",
    "lat": 40.6949796,
    "lon": 29.8922321
  },
  {
    "id": "10030",
    "name": "MİLLİ EGEMENLİK CADDESİ 1",
    "lat": 40.694577,
    "lon": 29.89357
  },
  {
    "id": "10031",
    "name": "İHSAN PEKER SOKAK 1",
    "lat": 40.693578,
    "lon": 29.895046
  },
  {
    "id": "10032",
    "name": "YENİKÖY ÜÇYOL 1",
    "lat": 40.693054,
    "lon": 29.897976
  },
  {
    "id": "10033",
    "name": "602. SOKAK 1",
    "lat": 40.7042469,
    "lon": 29.8299094
  },
  {
    "id": "10034",
    "name": "YENİKÖY MEZARLIĞI 1",
    "lat": 40.6967341,
    "lon": 29.9030176
  },
  {
    "id": "10035",
    "name": "SEYMEN CAMİ",
    "lat": 40.709884,
    "lon": 29.903869
  },
  {
    "id": "10036",
    "name": "SEYMEN CAMİ 1",
    "lat": 40.709858,
    "lon": 29.903699
  },
  {
    "id": "10037",
    "name": "SEYMEN ÜSTÜ 1",
    "lat": 40.708039,
    "lon": 29.904093
  },
  {
    "id": "10038",
    "name": "CEYHAN CADDESİ",
    "lat": 40.70688075,
    "lon": 29.90383506
  },
  {
    "id": "10039",
    "name": "BAHÇECİK FIRIN",
    "lat": 40.70450535,
    "lon": 29.90333811
  },
  {
    "id": "10040",
    "name": "BAHÇECİK FIRIN 1",
    "lat": 40.704422,
    "lon": 29.903217
  },
  {
    "id": "10041",
    "name": "YENİ MAHALLE ÜST DURAK",
    "lat": 40.70261808,
    "lon": 29.90369407
  },
  {
    "id": "10042",
    "name": "SEYMEN AİLE SAĞLIĞI MERKEZİ",
    "lat": 40.7028651,
    "lon": 29.9034682
  },
  {
    "id": "10043",
    "name": "YENİKÖY SAPAĞI 2",
    "lat": 40.69957135,
    "lon": 29.90514128
  },
  {
    "id": "10044",
    "name": "KOÇOĞLU CADDESİ 1",
    "lat": 40.69776652,
    "lon": 29.9068771
  },
  {
    "id": "10045",
    "name": "HACI ASLAN CADDESİ",
    "lat": 40.69633756,
    "lon": 29.90845636
  },
  {
    "id": "10046",
    "name": "DAMLAR SAPAĞI",
    "lat": 40.6962898,
    "lon": 29.9081612
  },
  {
    "id": "10047",
    "name": "HACI ASLAN CADDESİ 2",
    "lat": 40.696658,
    "lon": 29.9112223
  },
  {
    "id": "10048",
    "name": "HACI ASLAN CADDESİ 3",
    "lat": 40.6966014,
    "lon": 29.9144592
  },
  {
    "id": "10049",
    "name": "DAMLAR CAMİ",
    "lat": 40.6956599,
    "lon": 29.917239
  },
  {
    "id": "10050",
    "name": "BAHÇECİK DAMLAR İLKOKULU 1",
    "lat": 40.69410548,
    "lon": 29.91916808
  },
  {
    "id": "11401",
    "name": "OTOGAR DOĞU GİRİŞİ",
    "lat": 40.7751053,
    "lon": 29.9752625
  },
  {
    "id": "11442",
    "name": "DOĞU TERMİNALİ SAPAĞI",
    "lat": 40.7760842,
    "lon": 29.9705462
  },
  {
    "id": "80405",
    "name": "KARAYOLU CADDESİ 1",
    "lat": 40.7800349,
    "lon": 29.9726955
  },
  {
    "id": "81391",
    "name": "YEŞİLOVA SAPAĞI 1",
    "lat": 40.787082,
    "lon": 29.975801
  },
  {
    "id": "81133",
    "name": "KREDİ YURTLAR KURUMU ALİ FUAT CEBESOY ÖĞRENCİ YURDU",
    "lat": 40.7902079,
    "lon": 29.9792684
  },
  {
    "id": "81196",
    "name": "EGEMENLİK CADDESİ 1",
    "lat": 40.8010627,
    "lon": 29.9806186
  },
  {
    "id": "80674",
    "name": "NİSA SOKAK 1",
    "lat": 40.7957508,
    "lon": 29.9775108
  },
  {
    "id": "80673",
    "name": "TEPEKÖY CADDESİ",
    "lat": 40.796839,
    "lon": 29.9750955
  },
  {
    "id": "41579",
    "name": "DOĞA PARKI",
    "lat": 40.797449,
    "lon": 29.973814
  },
  {
    "id": "80448",
    "name": "KARAKUZU SOKAK",
    "lat": 40.798153,
    "lon": 29.97449
  },
  {
    "id": "80671",
    "name": "YEŞEREN PARK 1",
    "lat": 40.7987834,
    "lon": 29.9770923
  },
  {
    "id": "80668",
    "name": "191. ADA",
    "lat": 40.799472,
    "lon": 29.97546
  },
  {
    "id": "80650",
    "name": "BAYINDIRLIK İŞ MERKEZİ 1",
    "lat": 40.801481,
    "lon": 29.9738854
  },
  {
    "id": "80652",
    "name": "MENEKŞE PARK",
    "lat": 40.8019954,
    "lon": 29.9716808
  },
  {
    "id": "80654",
    "name": "BAYINDIRLIK 11. ADA 1",
    "lat": 40.802822,
    "lon": 29.969992
  },
  {
    "id": "80657",
    "name": "BAYINDIRLIK YÜZME HAVUZU 1",
    "lat": 40.8028439,
    "lon": 29.9677649
  },
  {
    "id": "80658",
    "name": "BAYINDIRLIK 7. ADA",
    "lat": 40.8029098,
    "lon": 29.9652015
  },
  {
    "id": "80660",
    "name": "AYAZMA KAPALI PAZAR",
    "lat": 40.8025852,
    "lon": 29.9630369
  },
  {
    "id": "80663",
    "name": "30 AĞUSTOS İLKOKULU",
    "lat": 40.8022485,
    "lon": 29.9604935
  },
  {
    "id": "80664",
    "name": "BAYINDIRLIK 5. ADA 1",
    "lat": 40.802021,
    "lon": 29.9587394
  },
  {
    "id": "80908",
    "name": "ŞEHİT ÖZCAN KAN FEN LİSESİ 1",
    "lat": 40.8015526,
    "lon": 29.956733
  },
  {
    "id": "80666",
    "name": "BAYINDIRLIK 2. ADA",
    "lat": 40.8007115,
    "lon": 29.9555553
  },
  {
    "id": "80225",
    "name": "BAYINDIRLIK İŞ MERKEZİ 4",
    "lat": 40.8005742,
    "lon": 29.9533167
  },
  {
    "id": "80880",
    "name": "AYAZMA PARKI",
    "lat": 40.80096,
    "lon": 29.9507402
  },
  {
    "id": "80222",
    "name": "REHABİLİTASYON MERKEZİ",
    "lat": 40.7998767,
    "lon": 29.9486943
  },
  {
    "id": "80221",
    "name": "ÜNİVERSİTE CADDESİ 1",
    "lat": 40.8000715,
    "lon": 29.9475159
  },
  {
    "id": "81166",
    "name": "ÜNİVERSİTE CADDESİ",
    "lat": 40.8023488,
    "lon": 29.9477842
  },
  {
    "id": "41411",
    "name": "KENT MEZARLIĞI",
    "lat": 40.8037678,
    "lon": 29.9426901
  },
  {
    "id": "80212",
    "name": "SEKBANLI KAVŞAĞI",
    "lat": 40.813792,
    "lon": 29.938838
  },
  {
    "id": "41000",
    "name": "ŞEHİT ESMA KIZ YURDU",
    "lat": 40.8219829,
    "lon": 29.9365038
  },
  {
    "id": "41416",
    "name": "ŞEHİT ESMA KIZ YURDU 1",
    "lat": 40.8222936,
    "lon": 29.9341046
  },
  {
    "id": "80213",
    "name": "UMUTTEPE B KAPISI 1",
    "lat": 40.8235986,
    "lon": 29.9265273
  },
  {
    "id": "41420",
    "name": "UMUTTEPE A KAPISI",
    "lat": 40.8252328,
    "lon": 29.9215932
  },
  {
    "id": "80215",
    "name": "KOÜ HASTANE",
    "lat": 40.8236128,
    "lon": 29.9184291
  },
  {
    "id": "41003",
    "name": "UMUTTEPE PERONLAR",
    "lat": 40.8240889,
    "lon": 29.9209926
  },
  {
    "id": "80218",
    "name": "UMUTTEPE B KAPISI 2",
    "lat": 40.8232829,
    "lon": 29.9251148
  },
  {
    "id": "41434",
    "name": "ŞEHİT ESMA KIZ YURDU 2",
    "lat": 40.8217259,
    "lon": 29.9338225
  },
  {
    "id": "80219",
    "name": "KABAOĞLU KAVŞAĞI",
    "lat": 40.813839,
    "lon": 29.9381805
  },
  {
    "id": "41443",
    "name": "KENT MEZARLIĞI 1",
    "lat": 40.80339,
    "lon": 29.943762
  },
  {
    "id": "81168",
    "name": "ÜNİVERSİTE CADDESİ 2",
    "lat": 40.8016076,
    "lon": 29.947241
  },
  {
    "id": "81227",
    "name": "ÜNİVERSİTE CADDESİ 3",
    "lat": 40.800163,
    "lon": 29.947276
  },
  {
    "id": "81226",
    "name": "REHABİLİTASYON MERKEZİ 2",
    "lat": 40.7998207,
    "lon": 29.9487038
  },
  {
    "id": "80223",
    "name": "REHABİLİTASYON MERKEZİ 1",
    "lat": 40.799995,
    "lon": 29.94968
  },
  {
    "id": "80224",
    "name": "BAYINDIRLIK İŞ MERKEZİ 3",
    "lat": 40.8005823,
    "lon": 29.9522078
  },
  {
    "id": "80667",
    "name": "BAYINDIRLIK 2. ADA 1",
    "lat": 40.8005843,
    "lon": 29.9556937
  },
  {
    "id": "80909",
    "name": "ŞEHİT ÖZCAN KAN FEN LİSESİ",
    "lat": 40.8013442,
    "lon": 29.956808
  },
  {
    "id": "80665",
    "name": "BAYINDIRLIK 5. ADA",
    "lat": 40.801781,
    "lon": 29.958778
  },
  {
    "id": "80662",
    "name": "ULU CAMİ",
    "lat": 40.8021033,
    "lon": 29.9609573
  },
  {
    "id": "80661",
    "name": "AYAZMA KAPALI PAZARI 1",
    "lat": 40.8024077,
    "lon": 29.9630749
  },
  {
    "id": "80659",
    "name": "BAYINDIRLIK 9. ADA",
    "lat": 40.802771,
    "lon": 29.965451
  },
  {
    "id": "80656",
    "name": "BAYINDIRLIK YÜZME HAVUZU",
    "lat": 40.8026453,
    "lon": 29.9679619
  },
  {
    "id": "80655",
    "name": "BAYINDIRLIK 11. ADA",
    "lat": 40.8026575,
    "lon": 29.9696731
  },
  {
    "id": "80653",
    "name": "MENEKŞE PARK 1",
    "lat": 40.8018392,
    "lon": 29.9714863
  },
  {
    "id": "80651",
    "name": "BAYINDIRLIK İŞ MERKEZİ",
    "lat": 40.801357,
    "lon": 29.974152
  },
  {
    "id": "80669",
    "name": "191. ADA 1",
    "lat": 40.79922,
    "lon": 29.975508
  },
  {
    "id": "80670",
    "name": "YEŞEREN PARK 2",
    "lat": 40.798634,
    "lon": 29.977024
  },
  {
    "id": "80890",
    "name": "KARAKUZU SOKAK 1",
    "lat": 40.7983333,
    "lon": 29.9737307
  },
  {
    "id": "41375",
    "name": "DOĞA PARKI 1",
    "lat": 40.7972874,
    "lon": 29.9738222
  },
  {
    "id": "80672",
    "name": "TEPEKÖY ÇELEBİ SOKAK",
    "lat": 40.796628,
    "lon": 29.975242
  },
  {
    "id": "80675",
    "name": "NİSA SOKAK",
    "lat": 40.7956118,
    "lon": 29.9775141
  },
  {
    "id": "80682",
    "name": "EGEMENLİK CADDESİ",
    "lat": 40.801143,
    "lon": 29.980791
  },
  {
    "id": "42351",
    "name": "KREDİ YURTLAR KURUMU ALİ FUAT CEBESOY ÖĞRENCİ YURDU 1",
    "lat": 40.789954,
    "lon": 29.978096
  },
  {
    "id": "80745",
    "name": "YEŞİLOVA SAPAĞI",
    "lat": 40.787533,
    "lon": 29.975613
  },
  {
    "id": "90827",
    "name": "DOĞU TERMİNALİ SAPAĞI 1",
    "lat": 40.7764418,
    "lon": 29.9699134
  },
  {
    "id": "81424",
    "name": "İZMİT OTOGAR 3",
    "lat": 40.7749695,
    "lon": 29.9722647
  },
  {
    "id": "11402",
    "name": "OTOGAR DOĞU GİRİŞİ 1",
    "lat": 40.7751205,
    "lon": 29.9753843
  },
  {
    "id": "11051",
    "name": "DOĞU KIŞLA 1",
    "lat": 40.766284,
    "lon": 29.951321
  },
  {
    "id": "80342",
    "name": "REAL YANYOL",
    "lat": 40.7628881,
    "lon": 29.9483143
  },
  {
    "id": "80341",
    "name": "KOCAELİ VALİLİĞİ",
    "lat": 40.7627881,
    "lon": 29.9462155
  },
  {
    "id": "80364",
    "name": "MİLLİ İRADE MEYDANI KUZEY YANYOL",
    "lat": 40.762741,
    "lon": 29.943461
  },
  {
    "id": "80397",
    "name": "15 TEMMUZ MİLLİ İRADE MEYDANI",
    "lat": 40.764525,
    "lon": 29.94099
  },
  {
    "id": "80399",
    "name": "YUNUS EMRE KÜLTÜR MERKEZİ",
    "lat": 40.7641831,
    "lon": 29.9406819
  },
  {
    "id": "80335",
    "name": "EMNİYET ASAYİŞ ŞUBE MÜDÜRLÜĞÜ",
    "lat": 40.7622214,
    "lon": 29.9363463
  },
  {
    "id": "80398",
    "name": "LEYLA ATAKAN CADDESİ",
    "lat": 40.763547,
    "lon": 29.9348
  },
  {
    "id": "80066",
    "name": "KÜTÜPHANE",
    "lat": 40.765627,
    "lon": 29.9344691
  },
  {
    "id": "80046",
    "name": "BAÇ",
    "lat": 40.767299,
    "lon": 29.9361773
  },
  {
    "id": "80048",
    "name": "KOCAELİ DEVLET HASTANESİ",
    "lat": 40.767813,
    "lon": 29.937741
  },
  {
    "id": "42055",
    "name": "CANCAN SOKAK",
    "lat": 40.769142,
    "lon": 29.94028
  },
  {
    "id": "42061",
    "name": "TAŞOCAĞI SOKAK",
    "lat": 40.771458,
    "lon": 29.940575
  },
  {
    "id": "42054",
    "name": "İMALAT SOKAK",
    "lat": 40.773876,
    "lon": 29.940035
  },
  {
    "id": "80312",
    "name": "ERENLER DEVEBAĞIRTAN 1",
    "lat": 40.775546,
    "lon": 29.941293
  },
  {
    "id": "41254",
    "name": "DEVEBAĞIRTAN SOKAK",
    "lat": 40.7747626,
    "lon": 29.9426199
  },
  {
    "id": "41766",
    "name": "CEMRE SOKAK",
    "lat": 40.774834,
    "lon": 29.944027
  },
  {
    "id": "41787",
    "name": "CEMRE SOKAK 3",
    "lat": 40.775593,
    "lon": 29.945362
  },
  {
    "id": "42069",
    "name": "ŞEHİT ÜMİT BALKAN PARKI 1",
    "lat": 40.7760521,
    "lon": 29.9450849
  },
  {
    "id": "42068",
    "name": "GAZETECİ KAZIM ERTEK CADDESİ 1",
    "lat": 40.775447,
    "lon": 29.942831
  },
  {
    "id": "80304",
    "name": "ŞEHİT ÜMİT BALKAN 2",
    "lat": 40.7771068,
    "lon": 29.9420474
  },
  {
    "id": "80305",
    "name": "CEDİT 1",
    "lat": 40.778426,
    "lon": 29.9387695
  },
  {
    "id": "80307",
    "name": "MUHAMMER AKSOY İLKOKULU",
    "lat": 40.7800904,
    "lon": 29.9337744
  },
  {
    "id": "81201",
    "name": "ÇAĞLA SOKAK",
    "lat": 40.78011,
    "lon": 29.931314
  },
  {
    "id": "80311",
    "name": "DEVRAN CADDESİ 1",
    "lat": 40.778903,
    "lon": 29.930376
  },
  {
    "id": "42322",
    "name": "DAMLA SOKAK",
    "lat": 40.778111,
    "lon": 29.929049
  },
  {
    "id": "80088",
    "name": "ŞEREF SOKAK",
    "lat": 40.7782465,
    "lon": 29.9282712
  },
  {
    "id": "81127",
    "name": "ŞEREF SOKAK 1",
    "lat": 40.7777487,
    "lon": 29.925412
  },
  {
    "id": "11321",
    "name": "BAĞTEPE SOKAK",
    "lat": 40.7777652,
    "lon": 29.9266173
  },
  {
    "id": "80962",
    "name": "TURGUT 3",
    "lat": 40.7766096,
    "lon": 29.9224672
  },
  {
    "id": "80247",
    "name": "TURGUT 2",
    "lat": 40.776537,
    "lon": 29.922586
  },
  {
    "id": "41905",
    "name": "ŞEHİT ERCAN BULUT 1",
    "lat": 40.77825,
    "lon": 29.92567
  },
  {
    "id": "42143",
    "name": "TOLGA SOKAK",
    "lat": 40.77965,
    "lon": 29.927752
  },
  {
    "id": "42150",
    "name": "İSMAİL GASPARALI CADDESİ",
    "lat": 40.78163,
    "lon": 29.930557
  },
  {
    "id": "80249",
    "name": "ESKİ İSTANBUL CADDESİ",
    "lat": 40.782466,
    "lon": 29.9319988
  },
  {
    "id": "80250",
    "name": "İZMİT KENT 1. ETAP",
    "lat": 40.7817081,
    "lon": 29.9400079
  },
  {
    "id": "80252",
    "name": "İZMİT KENT 2. ETAP",
    "lat": 40.7810166,
    "lon": 29.9451506
  },
  {
    "id": "80254",
    "name": "ASRİ MEZARLIK 2",
    "lat": 40.7784744,
    "lon": 29.9450074
  },
  {
    "id": "41436",
    "name": "ASRİ MEZARLIK 5",
    "lat": 40.778276,
    "lon": 29.947537
  },
  {
    "id": "80257",
    "name": "ASRİ MEZARLIK 4",
    "lat": 40.7762715,
    "lon": 29.9490043
  },
  {
    "id": "80333",
    "name": "ESKİ İSTANBUL CADDESİ 2",
    "lat": 40.7741467,
    "lon": 29.9493362
  },
  {
    "id": "80059",
    "name": "ESKİ İSTANBUL CADDESİ 4",
    "lat": 40.7716623,
    "lon": 29.9488818
  },
  {
    "id": "80060",
    "name": "TURAN GÜNEŞ CADDESİ EVLİYA CELEBİ",
    "lat": 40.770661,
    "lon": 29.9478161
  },
  {
    "id": "80061",
    "name": "KANLIBAĞ",
    "lat": 40.7699506,
    "lon": 29.9461823
  },
  {
    "id": "41413",
    "name": "TERTİP SOKAK",
    "lat": 40.7698696,
    "lon": 29.9443883
  },
  {
    "id": "80062",
    "name": "KANLIBAĞ 2",
    "lat": 40.769404,
    "lon": 29.942702
  },
  {
    "id": "80049",
    "name": "MİMAR SİNAN ANADOLU LİSESİ",
    "lat": 40.768364,
    "lon": 29.9394802
  },
  {
    "id": "80047",
    "name": "BAÇ 1",
    "lat": 40.7675323,
    "lon": 29.9363429
  },
  {
    "id": "80045",
    "name": "ÇINARLI CAMİ",
    "lat": 40.766723,
    "lon": 29.9331675
  },
  {
    "id": "80041",
    "name": "İZMİT ORTAOKULU",
    "lat": 40.7659098,
    "lon": 29.9274026
  },
  {
    "id": "80040",
    "name": "YENİ TURAN",
    "lat": 40.7651354,
    "lon": 29.9239487
  },
  {
    "id": "80035",
    "name": "MERKEZ BANKASI",
    "lat": 40.762946,
    "lon": 29.92272
  },
  {
    "id": "80037",
    "name": "İZMİT TREN İSTASYONU",
    "lat": 40.7622069,
    "lon": 29.9189969
  },
  {
    "id": "80338",
    "name": "FEVZİYE KUZEY YAN YOL",
    "lat": 40.7615325,
    "lon": 29.9238063
  },
  {
    "id": "80067",
    "name": "ALEMDAR KUZEY YAN YOL",
    "lat": 40.7615148,
    "lon": 29.9277377
  },
  {
    "id": "80339",
    "name": "MİMAR SİNAN KUZEY YANYOL",
    "lat": 40.7617617,
    "lon": 29.9323909
  },
  {
    "id": "80343",
    "name": "TURGUT ÖZAL KUZEY YANYOL",
    "lat": 40.7620503,
    "lon": 29.937345
  },
  {
    "id": "80613",
    "name": "ATATÜRK BULVARI",
    "lat": 40.76555,
    "lon": 29.942902
  },
  {
    "id": "80616",
    "name": "ŞEHİTLER PARKI",
    "lat": 40.765269,
    "lon": 29.945915
  },
  {
    "id": "80618",
    "name": "ATATÜRK ORTAOKULU 1",
    "lat": 40.7650552,
    "lon": 29.9483018
  },
  {
    "id": "80053",
    "name": "DOĞU KIŞLA",
    "lat": 40.767114,
    "lon": 29.9507693
  },
  {
    "id": "80934",
    "name": "ALİKAHYA SANAYİ CADDESİ",
    "lat": 40.766702,
    "lon": 30.003869
  },
  {
    "id": "10998",
    "name": "833. ADA 3",
    "lat": 40.766287,
    "lon": 30.005205
  },
  {
    "id": "11259",
    "name": "KOMUTANLIK",
    "lat": 40.765874,
    "lon": 30.007755
  },
  {
    "id": "11268",
    "name": "832. ADA 3",
    "lat": 40.765562,
    "lon": 30.010658
  },
  {
    "id": "11175",
    "name": "KANALBOYU CAMİ 1",
    "lat": 40.7671195,
    "lon": 30.0134825
  },
  {
    "id": "41527",
    "name": "KUMLA DERESİ",
    "lat": 40.7666875,
    "lon": 30.0144239
  },
  {
    "id": "80709",
    "name": "VATAN CADDESİ 1",
    "lat": 40.7707737,
    "lon": 30.0162855
  },
  {
    "id": "80710",
    "name": "KOCAELİ STADI 1",
    "lat": 40.773145,
    "lon": 30.015809
  },
  {
    "id": "80207",
    "name": "SEMERKENT CADDESİ",
    "lat": 40.7736101,
    "lon": 30.0113756
  },
  {
    "id": "80712",
    "name": "ALİKAHYA HAYIRSEVENLER CAMİ 2",
    "lat": 40.7734392,
    "lon": 30.0100502
  },
  {
    "id": "80714",
    "name": "AHMET MÜFİT BEY CADDESİ",
    "lat": 40.773572,
    "lon": 30.007822
  },
  {
    "id": "80716",
    "name": "ALİKAHYA İLKOKULU 1",
    "lat": 40.775166,
    "lon": 30.00847
  },
  {
    "id": "80719",
    "name": "MEHMET AKİF ERSOY CADDESİ 2",
    "lat": 40.776033,
    "lon": 30.006096
  },
  {
    "id": "81232",
    "name": "KARACALAR SOKAK",
    "lat": 40.7754808,
    "lon": 30.0055516
  },
  {
    "id": "80720",
    "name": "ALİKAHYA FIRIN",
    "lat": 40.77366788,
    "lon": 30.00473383
  },
  {
    "id": "80937",
    "name": "ALİKAHYA MERKEZ CAMİ",
    "lat": 40.772769,
    "lon": 30.003015
  },
  {
    "id": "80938",
    "name": "FATMA SEHER HANIM CADDESİ 2",
    "lat": 40.77373,
    "lon": 29.999964
  },
  {
    "id": "80303",
    "name": "KELEŞ SOKAK 1",
    "lat": 40.7735837,
    "lon": 29.9977369
  },
  {
    "id": "80302",
    "name": "FATMA SEHER HANIM CADDESİ 1",
    "lat": 40.7734341,
    "lon": 29.9951174
  },
  {
    "id": "80519",
    "name": "ALİKAHYA FATİH CAMİ",
    "lat": 40.773072,
    "lon": 29.992365
  },
  {
    "id": "41821",
    "name": "AHMET TANER KIŞLALI CADDESİ 1",
    "lat": 40.774014,
    "lon": 29.991013
  },
  {
    "id": "80943",
    "name": "AKARCA POSTANE",
    "lat": 40.7749312,
    "lon": 29.9910175
  },
  {
    "id": "80510",
    "name": "AKARCA PARKI 1",
    "lat": 40.7750419,
    "lon": 29.9882711
  },
  {
    "id": "80509",
    "name": "AKARCA İŞ MERKEZİ 1",
    "lat": 40.7749927,
    "lon": 29.9863686
  },
  {
    "id": "42155",
    "name": "YUVAM AKARCA AİLE SAĞLIĞI MERKEZİ 1",
    "lat": 40.775105,
    "lon": 29.98484
  },
  {
    "id": "41551",
    "name": "8. ADA 1",
    "lat": 40.7757621,
    "lon": 29.9861285
  },
  {
    "id": "80499",
    "name": "SEFA SİRMEN CADDESİ",
    "lat": 40.7758506,
    "lon": 29.9883835
  },
  {
    "id": "80497",
    "name": "MENEKŞE SOKAK 1",
    "lat": 40.7764912,
    "lon": 29.9898848
  },
  {
    "id": "41546",
    "name": "AKARCA B 1 BLOK 1",
    "lat": 40.777782,
    "lon": 29.991182
  },
  {
    "id": "80515",
    "name": "ÇİTLENBİK SOKAK",
    "lat": 40.7788047,
    "lon": 29.9922223
  },
  {
    "id": "80945",
    "name": "FEVZİ ÇAKMAK MUHTARLIĞI 1",
    "lat": 40.779508,
    "lon": 29.991757
  },
  {
    "id": "41734",
    "name": "AKARCA MERDİVENLER",
    "lat": 40.7796652,
    "lon": 29.9874822
  },
  {
    "id": "41418",
    "name": "ÇEPNİ SOKAK",
    "lat": 40.777572,
    "lon": 29.98163
  },
  {
    "id": "80941",
    "name": "ANADOLU OTOYOLU",
    "lat": 40.775778,
    "lon": 29.9806966
  },
  {
    "id": "80607",
    "name": "HOROSAN CADDESİ",
    "lat": 40.7757151,
    "lon": 29.9779807
  },
  {
    "id": "80606",
    "name": "HANLI SOKAK 1",
    "lat": 40.774489,
    "lon": 29.975368
  },
  {
    "id": "80596",
    "name": "SARAYÖNÜ SOKAK 1",
    "lat": 40.771819,
    "lon": 29.974865
  },
  {
    "id": "80599",
    "name": "24 KASIM ANADOLU LİSESİ 1",
    "lat": 40.7691027,
    "lon": 29.976158
  },
  {
    "id": "80590",
    "name": "SÜLEYMAN DEMİREL KÜLTÜR MERKEZİ",
    "lat": 40.765198,
    "lon": 29.977033
  },
  {
    "id": "80586",
    "name": "10. BÖLGE",
    "lat": 40.7645645,
    "lon": 29.9790882
  },
  {
    "id": "80584",
    "name": "YAHYA KAPTAN MERKEZ CAMİ 1",
    "lat": 40.764771,
    "lon": 29.980775
  },
  {
    "id": "80581",
    "name": "23 NİSAN İLKOKULU",
    "lat": 40.762593,
    "lon": 29.980198
  },
  {
    "id": "80578",
    "name": "YAHYA KAPTAN 8",
    "lat": 40.7627754,
    "lon": 29.9782897
  },
  {
    "id": "80577",
    "name": "İLK ADIM ANAOKULU 1",
    "lat": 40.763176,
    "lon": 29.976102
  },
  {
    "id": "80574",
    "name": "İZMİT ATILIM ANADOLU LİSESİ 1",
    "lat": 40.7635369,
    "lon": 29.9738803
  },
  {
    "id": "80572",
    "name": "YAHYA KAPTAN 5",
    "lat": 40.763363,
    "lon": 29.971843
  },
  {
    "id": "80570",
    "name": "YAHYA KAPTAN 4",
    "lat": 40.764747,
    "lon": 29.970274
  },
  {
    "id": "80568",
    "name": "GÖKKUŞAĞI SOKAK 1",
    "lat": 40.766881,
    "lon": 29.971268
  },
  {
    "id": "80567",
    "name": "YAHYA KAPTAN 2",
    "lat": 40.7676587,
    "lon": 29.9705726
  },
  {
    "id": "80091",
    "name": "NECİP FAZIL CADDESİ",
    "lat": 40.7677763,
    "lon": 29.9689712
  },
  {
    "id": "80523",
    "name": "YAHYA KAPTAN KÖPRÜSÜ",
    "lat": 40.768368,
    "lon": 29.967937
  },
  {
    "id": "41409",
    "name": "FEYZULLAH İZMİDİ CADDESİ",
    "lat": 40.7758983,
    "lon": 29.9689596
  },
  {
    "id": "80626",
    "name": "SEYMEN CADDESİ",
    "lat": 40.7778935,
    "lon": 29.9672556
  },
  {
    "id": "80687",
    "name": "DİNAMİK SOKAK 1",
    "lat": 40.780155,
    "lon": 29.968183
  },
  {
    "id": "80428",
    "name": "NEZİH SOKAK 1",
    "lat": 40.781796,
    "lon": 29.968553
  },
  {
    "id": "80431",
    "name": "TAVŞANTEPE SAPAĞI",
    "lat": 40.784503,
    "lon": 29.96967
  },
  {
    "id": "80465",
    "name": "YEŞİLOVA MUHTARLIĞI",
    "lat": 40.78749,
    "lon": 29.970629
  },
  {
    "id": "41571",
    "name": "GÜNDOĞDU SAPAĞI",
    "lat": 40.78756,
    "lon": 29.969456
  },
  {
    "id": "41580",
    "name": "BOĞAZİÇİ CAMİ 1",
    "lat": 40.787128,
    "lon": 29.965874
  },
  {
    "id": "81024",
    "name": "ŞEHİT NECMİ SEMERCİ SOKAK 1",
    "lat": 40.786943,
    "lon": 29.962935
  },
  {
    "id": "41376",
    "name": "YUVA SOKAK 1",
    "lat": 40.78674236,
    "lon": 29.95976861
  },
  {
    "id": "41388",
    "name": "ŞEHİT FATİH DUMAN SOKAK",
    "lat": 40.786354,
    "lon": 29.958134
  },
  {
    "id": "81025",
    "name": "ULU SOKAK 2",
    "lat": 40.7856052,
    "lon": 29.9580402
  },
  {
    "id": "81026",
    "name": "GÜNDOĞDU ZÜBEYDE HANIM CADDESİ",
    "lat": 40.7880693,
    "lon": 29.9555705
  },
  {
    "id": "41542",
    "name": "GÜNDOĞDU MEZARLIK 2",
    "lat": 40.789696,
    "lon": 29.956524
  },
  {
    "id": "80456",
    "name": "GÜNDOĞDU İLKOKULU 1",
    "lat": 40.79199457,
    "lon": 29.95696065
  },
  {
    "id": "41544",
    "name": "BİROL SOKAK 1",
    "lat": 40.79307893,
    "lon": 29.95635975
  },
  {
    "id": "80457",
    "name": "GÜNDOĞDU KONAK 1",
    "lat": 40.7939252,
    "lon": 29.9552561
  },
  {
    "id": "42304",
    "name": "GÜNDOĞDU MERKEZ CAMİ 1",
    "lat": 40.7941411,
    "lon": 29.9540225
  },
  {
    "id": "41530",
    "name": "HIZIR REİS SOKAK 2",
    "lat": 40.795097,
    "lon": 29.953426
  },
  {
    "id": "80459",
    "name": "KOCAÇEŞME CADDESİ 3",
    "lat": 40.7956875,
    "lon": 29.9528501
  },
  {
    "id": "41458",
    "name": "GÜNDOĞDU ÇEŞME",
    "lat": 40.7972032,
    "lon": 29.9513352
  },
  {
    "id": "81028",
    "name": "GÜNDOĞDU MEZARLIK",
    "lat": 40.7963175,
    "lon": 29.9500875
  },
  {
    "id": "41309",
    "name": "12. ADA 1",
    "lat": 40.7933572,
    "lon": 29.9483202
  },
  {
    "id": "41317",
    "name": "11. 12. ADA",
    "lat": 40.7929013,
    "lon": 29.948288
  },
  {
    "id": "80290",
    "name": "DÜNYA BANKASI 5",
    "lat": 40.791712,
    "lon": 29.948128
  },
  {
    "id": "80291",
    "name": "29 EKİM ORTAOKULU",
    "lat": 40.790193,
    "lon": 29.948
  },
  {
    "id": "80293",
    "name": "SELEK SOKAK",
    "lat": 40.78903477,
    "lon": 29.94943419
  },
  {
    "id": "80296",
    "name": "DÜNYA BANKASI 9",
    "lat": 40.7873236,
    "lon": 29.9497952
  },
  {
    "id": "80297",
    "name": "ÇOCUK ŞUBE MÜDÜRLÜĞÜ",
    "lat": 40.7877164,
    "lon": 29.9476048
  },
  {
    "id": "80299",
    "name": "MALTA AYAZTEPE CAMİ",
    "lat": 40.790301,
    "lon": 29.9452261
  },
  {
    "id": "80274",
    "name": "DÜNYA BANKASI 14",
    "lat": 40.79189938,
    "lon": 29.94469998
  },
  {
    "id": "80276",
    "name": "DÜNYA BANKASI 16",
    "lat": 40.79462672,
    "lon": 29.94577694
  },
  {
    "id": "80279",
    "name": "DÜNYA BANKASI 17",
    "lat": 40.79704464,
    "lon": 29.94443842
  },
  {
    "id": "80280",
    "name": "YONCA SOKAK",
    "lat": 40.79872351,
    "lon": 29.9454149
  },
  {
    "id": "11407",
    "name": "UMUTTEPE DEPOLAMA ALANI",
    "lat": 40.8223663,
    "lon": 29.9159796
  },
  {
    "id": "80220",
    "name": "ÜNİVERSİTE CADDESİ SAPAĞI",
    "lat": 40.799836,
    "lon": 29.946974
  },
  {
    "id": "81246",
    "name": "YONCA SOKAK 1",
    "lat": 40.7990996,
    "lon": 29.9454426
  },
  {
    "id": "80278",
    "name": "DÜNYA BANKASI",
    "lat": 40.7970101,
    "lon": 29.9441926
  },
  {
    "id": "80275",
    "name": "DÜNYA BANKASI 15",
    "lat": 40.79425124,
    "lon": 29.94558821
  },
  {
    "id": "80273",
    "name": "DÜNYA BANKASI 13",
    "lat": 40.79205218,
    "lon": 29.94442213
  },
  {
    "id": "80300",
    "name": "MALTA AYAZTEPE CAMİ 1",
    "lat": 40.7900613,
    "lon": 29.9451192
  },
  {
    "id": "80298",
    "name": "ÇOCUK ŞUBE MÜDÜRLÜĞÜ 1",
    "lat": 40.7876466,
    "lon": 29.9473604
  },
  {
    "id": "80295",
    "name": "DÜNYA BANKASI 10",
    "lat": 40.787254,
    "lon": 29.949883
  },
  {
    "id": "80294",
    "name": "ESER SOKAK",
    "lat": 40.78906465,
    "lon": 29.94960247
  },
  {
    "id": "80292",
    "name": "29 EKİM ORTAOKULU 1",
    "lat": 40.790301,
    "lon": 29.9481789
  },
  {
    "id": "80289",
    "name": "DÜNYA BANKASI 6",
    "lat": 40.7919827,
    "lon": 29.9483284
  },
  {
    "id": "81164",
    "name": "11. 12. ADA 1",
    "lat": 40.7926821,
    "lon": 29.9483615
  },
  {
    "id": "41735",
    "name": "12. ADA",
    "lat": 40.7932973,
    "lon": 29.9485
  },
  {
    "id": "80460",
    "name": "GÜNDOĞDU MEZARLIK 1",
    "lat": 40.7962973,
    "lon": 29.95023687
  },
  {
    "id": "41460",
    "name": "GÜNDOĞDU ÇEŞME 1",
    "lat": 40.7970131,
    "lon": 29.9511282
  },
  {
    "id": "81161",
    "name": "GÜN SOKAK 1",
    "lat": 40.795896,
    "lon": 29.9526011
  },
  {
    "id": "81027",
    "name": "KOCAÇEŞME CADDESİ 4",
    "lat": 40.7956263,
    "lon": 29.9527678
  },
  {
    "id": "41539",
    "name": "GÜNDOĞDU MERKEZ CAMİ",
    "lat": 40.7943163,
    "lon": 29.9535785
  },
  {
    "id": "80461",
    "name": "KOCADERE SOKAK",
    "lat": 40.7930196,
    "lon": 29.9535856
  },
  {
    "id": "80462",
    "name": "ERİŞ SOKAK",
    "lat": 40.7918434,
    "lon": 29.953615
  },
  {
    "id": "41540",
    "name": "KOCAÇEŞME CADDESİ 2",
    "lat": 40.790806,
    "lon": 29.953844
  },
  {
    "id": "80463",
    "name": "KOCAÇEŞME CADDESİ 1",
    "lat": 40.7881868,
    "lon": 29.9540583
  },
  {
    "id": "80464",
    "name": "ULU SOKAK 1",
    "lat": 40.7854928,
    "lon": 29.9581283
  },
  {
    "id": "41400",
    "name": "ULU SOKAK",
    "lat": 40.78602,
    "lon": 29.958313
  },
  {
    "id": "41401",
    "name": "YUVA SOKAK 2",
    "lat": 40.78662483,
    "lon": 29.96018269
  },
  {
    "id": "80453",
    "name": "ŞEHİT NECMİ SEMERCİ SOKAK",
    "lat": 40.7868487,
    "lon": 29.9629458
  },
  {
    "id": "80452",
    "name": "BOĞAZİÇİ CAMİ",
    "lat": 40.787042,
    "lon": 29.9657037
  },
  {
    "id": "41568",
    "name": "GÜNDOĞDU SAPAĞI 1",
    "lat": 40.787395,
    "lon": 29.969595
  },
  {
    "id": "80466",
    "name": "YEŞİLOVA MUHTARLIĞI 1",
    "lat": 40.7874875,
    "lon": 29.9701947
  },
  {
    "id": "11290",
    "name": "ECE SOKAK",
    "lat": 40.786217,
    "lon": 29.97078
  },
  {
    "id": "80430",
    "name": "ARKAN SOKAK",
    "lat": 40.784935,
    "lon": 29.969824
  },
  {
    "id": "80429",
    "name": "NEZİH SOKAK",
    "lat": 40.781824,
    "lon": 29.968452
  },
  {
    "id": "80688",
    "name": "SELVİLİ CAMİ",
    "lat": 40.779793,
    "lon": 29.967793
  },
  {
    "id": "42268",
    "name": "PLATİN SOKAK",
    "lat": 40.77800088,
    "lon": 29.96719741
  },
  {
    "id": "80684",
    "name": "TAVŞANTEPE OTOGAR SAPAĞI",
    "lat": 40.77706,
    "lon": 29.966599
  },
  {
    "id": "40266",
    "name": "FURKAN SOKAK",
    "lat": 40.7758616,
    "lon": 29.9680761
  },
  {
    "id": "81179",
    "name": "KARAYOLU CADDESİ",
    "lat": 40.770987,
    "lon": 29.968317
  },
  {
    "id": "80413",
    "name": "MAHMUD ESAT COŞAN CAMİ",
    "lat": 40.76836,
    "lon": 29.967535
  },
  {
    "id": "80566",
    "name": "YAHYA KAPTAN 1",
    "lat": 40.7675674,
    "lon": 29.9696095
  },
  {
    "id": "80569",
    "name": "GÖKKUŞAĞI SOKAK",
    "lat": 40.766761,
    "lon": 29.971073
  },
  {
    "id": "80571",
    "name": "AHMET YESEVİ CADDESİ 5",
    "lat": 40.76493,
    "lon": 29.970263
  },
  {
    "id": "80573",
    "name": "YAHYA KAPTAN ESENYEL SOKAK",
    "lat": 40.763311,
    "lon": 29.971685
  },
  {
    "id": "80575",
    "name": "İZMİT ATILIM ANADOLU LİSESİ",
    "lat": 40.763595,
    "lon": 29.97418
  },
  {
    "id": "80576",
    "name": "İLK ADIM ANAOKULU",
    "lat": 40.7631381,
    "lon": 29.9758539
  },
  {
    "id": "80579",
    "name": "KORU SOKAK",
    "lat": 40.76267568,
    "lon": 29.97823873
  },
  {
    "id": "80580",
    "name": "23 NİSAN İLKOKULU 1",
    "lat": 40.762492,
    "lon": 29.980279
  },
  {
    "id": "80582",
    "name": "YAHYA KAPTAN DEPOLAMA ALANI",
    "lat": 40.764518,
    "lon": 29.982419
  },
  {
    "id": "80583",
    "name": "YAHYA KAPTAN MERKEZ CAMİ",
    "lat": 40.764919,
    "lon": 29.980882
  },
  {
    "id": "80585",
    "name": "10. BÖLGE 1",
    "lat": 40.7646845,
    "lon": 29.9790777
  },
  {
    "id": "80589",
    "name": "ŞEHİT POLİS RECEP TOPALOĞLU SPOR SALONU",
    "lat": 40.765465,
    "lon": 29.977249
  },
  {
    "id": "80600",
    "name": "24 KASIM ANADOLU LİSESİ",
    "lat": 40.7690255,
    "lon": 29.9765034
  },
  {
    "id": "80595",
    "name": "SARAYÖNÜ SOKAK",
    "lat": 40.7718161,
    "lon": 29.9752316
  },
  {
    "id": "80605",
    "name": "HANLI SOKAK",
    "lat": 40.7744728,
    "lon": 29.9756043
  },
  {
    "id": "42299",
    "name": "AKARCA SECDE CAMİ",
    "lat": 40.7753701,
    "lon": 29.9768883
  },
  {
    "id": "80609",
    "name": "YUVAM KÖPRÜ KÖŞE 2",
    "lat": 40.7746809,
    "lon": 29.9800214
  },
  {
    "id": "80507",
    "name": "ANADOLU OTOYOLU 1",
    "lat": 40.775809,
    "lon": 29.980879
  },
  {
    "id": "11466",
    "name": "MUSTAFA ERYİĞİT SOKAK",
    "lat": 40.777666,
    "lon": 29.98203
  },
  {
    "id": "80874",
    "name": "UĞUR MUMCU CADDESİ",
    "lat": 40.7787971,
    "lon": 29.9849732
  },
  {
    "id": "80757",
    "name": "AKARCA MERDİVENLER 1",
    "lat": 40.779533,
    "lon": 29.987621
  },
  {
    "id": "80495",
    "name": "FEVZİ ÇAKMAK MUHTARLIĞI",
    "lat": 40.779413,
    "lon": 29.99174
  },
  {
    "id": "80496",
    "name": "ÇİTLENBİK SOKAK 1",
    "lat": 40.7788721,
    "lon": 29.9920507
  },
  {
    "id": "41547",
    "name": "AKARCA B 1 BLOK",
    "lat": 40.77786,
    "lon": 29.991013
  },
  {
    "id": "80950",
    "name": "MENEKŞE SOKAK",
    "lat": 40.7765652,
    "lon": 29.9897806
  },
  {
    "id": "80498",
    "name": "SEFA SİRMEN CADDESİ 1",
    "lat": 40.776026,
    "lon": 29.98839
  },
  {
    "id": "41549",
    "name": "8. ADA",
    "lat": 40.7759347,
    "lon": 29.9864316
  },
  {
    "id": "41543",
    "name": "YUVAM AKARCA AİLE SAĞLIĞI MERKEZİ",
    "lat": 40.775173,
    "lon": 29.98457
  },
  {
    "id": "80508",
    "name": "AKARCA İŞ MERKEZİ",
    "lat": 40.774716,
    "lon": 29.9864316
  },
  {
    "id": "80511",
    "name": "AKARCA PARKI",
    "lat": 40.7747496,
    "lon": 29.9883798
  },
  {
    "id": "80512",
    "name": "AKARCA POSTANE 2",
    "lat": 40.7747598,
    "lon": 29.9907385
  },
  {
    "id": "41528",
    "name": "AHMET TANER KIŞLALI CADDESİ 2",
    "lat": 40.77406,
    "lon": 29.990837
  },
  {
    "id": "80518",
    "name": "ALİKAHYA FATİH CAMİ 1",
    "lat": 40.7729724,
    "lon": 29.9927182
  },
  {
    "id": "41537",
    "name": "FATMA SEHER HANIM CADDESİ",
    "lat": 40.77318,
    "lon": 29.994972
  },
  {
    "id": "80520",
    "name": "KELEŞ SOKAK",
    "lat": 40.773567,
    "lon": 29.997875
  },
  {
    "id": "80878",
    "name": "ALPARSLAN SOKAK",
    "lat": 40.773643,
    "lon": 29.999964
  },
  {
    "id": "80723",
    "name": "ALİKAHYA MERKEZ CAMİ 1",
    "lat": 40.7726767,
    "lon": 30.0030862
  },
  {
    "id": "80721",
    "name": "İNCİRLİ SOKAK",
    "lat": 40.77380176,
    "lon": 30.00497392
  },
  {
    "id": "80718",
    "name": "MEHMET AKİF CADDESİ 2",
    "lat": 40.7760722,
    "lon": 30.0063492
  },
  {
    "id": "80717",
    "name": "ALİKAHYA İLKOKULU 2",
    "lat": 40.7752,
    "lon": 30.008321
  },
  {
    "id": "80715",
    "name": "AHMET MÜFİT BEY CADDESİ 1",
    "lat": 40.773487,
    "lon": 30.007782
  },
  {
    "id": "80713",
    "name": "ALİKAHYA HAYIRSEVENLER CAMİ 1",
    "lat": 40.7733488,
    "lon": 30.0101816
  },
  {
    "id": "41550",
    "name": "NİLGÜN SOKAK 1",
    "lat": 40.772892,
    "lon": 30.01271
  },
  {
    "id": "80711",
    "name": "KOCAELİ STADI",
    "lat": 40.77304188,
    "lon": 30.01579699
  },
  {
    "id": "80935",
    "name": "VATAN CADDESİ 2",
    "lat": 40.770761,
    "lon": 30.0161058
  },
  {
    "id": "80604",
    "name": "830. ADA",
    "lat": 40.766024,
    "lon": 30.015281
  },
  {
    "id": "41532",
    "name": "831. ADA",
    "lat": 40.7665,
    "lon": 30.013067
  },
  {
    "id": "80896",
    "name": "832. ADA",
    "lat": 40.766902,
    "lon": 30.010381
  },
  {
    "id": "80898",
    "name": "833. ADA",
    "lat": 40.76757,
    "lon": 30.007162
  },
  {
    "id": "41566",
    "name": "ŞEHİT YÜKSEL DİNÇ",
    "lat": 40.76778,
    "lon": 30.005631
  },
  {
    "id": "81362",
    "name": "UMUTTEPE KREŞ 1",
    "lat": 40.8203517,
    "lon": 29.9167678
  },
  {
    "id": "80214",
    "name": "KOCAELİ ÜNİVERSİTESİ BEDEN EĞİTİMİ FAKÜLTESİ 1",
    "lat": 40.816848,
    "lon": 29.91976
  },
  {
    "id": "80907",
    "name": "KOCAELİ ÜNİVERSİTESİ KAPALI YÜZME HAVUZU 1",
    "lat": 40.814542,
    "lon": 29.920704
  },
  {
    "id": "11453",
    "name": "KREDİ YURTLAR KURUMU KOCAELİ VİLAYETLER HİZMET BİRLİĞİ YURDU 1",
    "lat": 40.8133071,
    "lon": 29.9205875
  },
  {
    "id": "11523",
    "name": "UMUTTEPE  E KAPISI",
    "lat": 40.8122101,
    "lon": 29.9111353
  },
  {
    "id": "10802",
    "name": "SAĞLIK BİLİMLER FAKÜLTESİ",
    "lat": 40.816415,
    "lon": 29.913033
  },
  {
    "id": "11050",
    "name": "SEMAHAT ARACI ONKOLOJİ HASTANESİ",
    "lat": 40.8184182,
    "lon": 29.9124056
  },
  {
    "id": "11108",
    "name": "SAĞLIK BİLİMLERİ FAKÜLTESİ 1",
    "lat": 40.816925,
    "lon": 29.910825
  },
  {
    "id": "11524",
    "name": "UMUTTEPE E KAPISI 1",
    "lat": 40.8121683,
    "lon": 29.9110942
  },
  {
    "id": "11662",
    "name": "KREDİ YURTLAR KURUMU KOCAELİ VİLAYETLER HİZMET BİRLİĞİ YURDU 3",
    "lat": 40.8131496,
    "lon": 29.9205946
  },
  {
    "id": "80906",
    "name": "KOCAELİ ÜNİVERSİTESİ KAPALI YÜZME HAVUZU",
    "lat": 40.814548,
    "lon": 29.920856
  },
  {
    "id": "11276",
    "name": "KOCAELİ ÜNİVERSİTESİ BEDEN EĞİTİMİ FAKÜLTESİ",
    "lat": 40.816906,
    "lon": 29.91993
  },
  {
    "id": "81361",
    "name": "UMUTTEPE KREŞ",
    "lat": 40.8203565,
    "lon": 29.9168533
  },
  {
    "id": "81009",
    "name": "SULTAN MURAT CADDESİ 2",
    "lat": 40.77122697,
    "lon": 29.98375287
  },
  {
    "id": "11431",
    "name": "STAD SEYİRCİ GİRİŞİ 1",
    "lat": 40.7726565,
    "lon": 30.0174374
  },
  {
    "id": "11432",
    "name": "STAD SEYİRCİ GİRİŞİ",
    "lat": 40.7727926,
    "lon": 30.0178464
  },
  {
    "id": "80695",
    "name": "SULTAN MURAT CADDESİ 1",
    "lat": 40.771343,
    "lon": 29.983845
  },
  {
    "id": "80617",
    "name": "ATATÜRK ORTAOKULU",
    "lat": 40.765312,
    "lon": 29.947529
  },
  {
    "id": "80615",
    "name": "GÜVERCİN SOKAK",
    "lat": 40.765587,
    "lon": 29.944736
  },
  {
    "id": "80614",
    "name": "ATATÜRK BULVARI 5",
    "lat": 40.765713,
    "lon": 29.942932
  },
  {
    "id": "80050",
    "name": "SANTRAL",
    "lat": 40.76829652,
    "lon": 29.94094934
  },
  {
    "id": "80051",
    "name": "MEHMET ALİPAŞA BAĞDAT CADDESİ 1",
    "lat": 40.7683974,
    "lon": 29.9436639
  },
  {
    "id": "80052",
    "name": "MEHMET ALİPAŞA BAĞDAT CADDESİ 2",
    "lat": 40.7679946,
    "lon": 29.9460049
  },
  {
    "id": "41373",
    "name": "MEHMET ALİPAŞA BAĞDAT CADDESİ",
    "lat": 40.767235,
    "lon": 29.948843
  },
  {
    "id": "12106",
    "name": "GAZİ ERDOĞAN GÜRKAN CADDESİ",
    "lat": 40.76748,
    "lon": 29.950626
  },
  {
    "id": "12117",
    "name": "GAZİ ERDOĞAN GÜRKAN CADDESİ 1",
    "lat": 40.769794,
    "lon": 29.950508
  },
  {
    "id": "80058",
    "name": "TÜRBE BAYIRI SOKAK 1",
    "lat": 40.771824,
    "lon": 29.949083
  },
  {
    "id": "80332",
    "name": "ESKİ İSTANBUL CADDESİ 3",
    "lat": 40.773627,
    "lon": 29.949354
  },
  {
    "id": "80256",
    "name": "ASRİ MEZARLIK 3",
    "lat": 40.7763371,
    "lon": 29.9491479
  },
  {
    "id": "41429",
    "name": "ASRİ MEZARLIK",
    "lat": 40.778397,
    "lon": 29.947592
  },
  {
    "id": "80255",
    "name": "ASRİ MEZARLIK 1",
    "lat": 40.7785698,
    "lon": 29.945248
  },
  {
    "id": "80301",
    "name": "ÜNİVERSİTE KONUTLARI",
    "lat": 40.77653258,
    "lon": 29.94650203
  },
  {
    "id": "42185",
    "name": "SERHAT SOKAK",
    "lat": 40.774937,
    "lon": 29.946198
  },
  {
    "id": "90594",
    "name": "ATALAY SOKAK",
    "lat": 40.773867,
    "lon": 29.945523
  },
  {
    "id": "80331",
    "name": "ERENLER YUNUS EMRE CAMİ",
    "lat": 40.773105,
    "lon": 29.944765
  },
  {
    "id": "80365",
    "name": "TEPEÜSTÜ SOKAK",
    "lat": 40.7734923,
    "lon": 29.943045
  },
  {
    "id": "81377",
    "name": "NİHAN SOKAK 2",
    "lat": 40.7731823,
    "lon": 29.9423265
  },
  {
    "id": "42015",
    "name": "NİHAN SOKAK",
    "lat": 40.7726006,
    "lon": 29.941953
  },
  {
    "id": "80064",
    "name": "GAZANFER BİLGE BULVARI",
    "lat": 40.76762511,
    "lon": 29.94023116
  },
  {
    "id": "80024",
    "name": "KOCAELİ ÜNİVERSİTESİ GÜZEL SANATLAR FAKÜLTESİ",
    "lat": 40.765427,
    "lon": 29.939255
  },
  {
    "id": "80025",
    "name": "EREN CAMİ",
    "lat": 40.7649733,
    "lon": 29.9388706
  },
  {
    "id": "80881",
    "name": "BATI TERMİNALİ PERONLAR",
    "lat": 40.761959,
    "lon": 29.911448
  },
  {
    "id": "80868",
    "name": "SEKA CAMİ",
    "lat": 40.763582,
    "lon": 29.913451
  },
  {
    "id": "80345",
    "name": "ORDUEVİ",
    "lat": 40.7649236,
    "lon": 29.9129025
  },
  {
    "id": "10669",
    "name": "OĞULTÜRK HALK KÜTÜPHANESİ",
    "lat": 40.765898,
    "lon": 29.9102047
  },
  {
    "id": "80176",
    "name": "GÜLTEPE SAPAĞI",
    "lat": 40.766346,
    "lon": 29.909832
  },
  {
    "id": "80178",
    "name": "GÜLTEPE MUHTARLIĞI 1",
    "lat": 40.769064,
    "lon": 29.912453
  },
  {
    "id": "80179",
    "name": "GÜLTEPE FIRIN 1",
    "lat": 40.7702365,
    "lon": 29.9127881
  },
  {
    "id": "80181",
    "name": "EYÜP SULTAN SOKAK",
    "lat": 40.771572,
    "lon": 29.913332
  },
  {
    "id": "80183",
    "name": "YAMAN SOKAK",
    "lat": 40.7750624,
    "lon": 29.9132338
  },
  {
    "id": "80185",
    "name": "MİRALAY MÜMTAZ",
    "lat": 40.7770945,
    "lon": 29.9138563
  },
  {
    "id": "80187",
    "name": "TÜYSÜZLER YENİ SOKAK 1",
    "lat": 40.7779307,
    "lon": 29.9168725
  },
  {
    "id": "41946",
    "name": "KAYACIK SOKAK",
    "lat": 40.7792802,
    "lon": 29.9206073
  },
  {
    "id": "11340",
    "name": "TÜYSÜZLER SAPAĞI 1",
    "lat": 40.781173,
    "lon": 29.924058
  },
  {
    "id": "81345",
    "name": "ERSOYLU CADDESİ 5",
    "lat": 40.7847878,
    "lon": 29.928143
  },
  {
    "id": "81346",
    "name": "ERSOYLU CADDESİ 1",
    "lat": 40.7872393,
    "lon": 29.9275465
  },
  {
    "id": "81348",
    "name": "ERSOYLU CADDESİ 3",
    "lat": 40.7891213,
    "lon": 29.9266004
  },
  {
    "id": "80210",
    "name": "PROF BAKİ KOMSUOĞLU BULVARI",
    "lat": 40.793887,
    "lon": 29.929655
  },
  {
    "id": "80211",
    "name": "ÜÇTEPELER KAVŞAK",
    "lat": 40.797289,
    "lon": 29.929309
  },
  {
    "id": "12099",
    "name": "TÜRGEV YÜKSEK ÖĞRETİM KIZ ÖĞRENCİ YURDU",
    "lat": 40.7994268,
    "lon": 29.9301595
  },
  {
    "id": "80029",
    "name": "TONBUL SOKAK 1",
    "lat": 40.802652,
    "lon": 29.933653
  },
  {
    "id": "41784",
    "name": "TONBUL SOKAK",
    "lat": 40.802867,
    "lon": 29.933484
  },
  {
    "id": "81234",
    "name": "TÜRGEV YÜKSEK ÖĞRETİM KIZ ÖĞRENCİ YURDU 1",
    "lat": 40.8011445,
    "lon": 29.932223
  },
  {
    "id": "41942",
    "name": "LEVENT SOKAK",
    "lat": 40.799732,
    "lon": 29.930255
  },
  {
    "id": "80227",
    "name": "ÜÇTEPELER KAVŞAK 1",
    "lat": 40.79737,
    "lon": 29.92875
  },
  {
    "id": "80228",
    "name": "PROF BAKİ KOMSUOĞLU BULVARI 5",
    "lat": 40.79317,
    "lon": 29.928035
  },
  {
    "id": "80930",
    "name": "PROF BAKİ KOMSUOĞLU BULVARI 3",
    "lat": 40.7916232,
    "lon": 29.9271566
  },
  {
    "id": "81349",
    "name": "ERSOYLU CADDESİ 4",
    "lat": 40.789105,
    "lon": 29.9265327
  },
  {
    "id": "81347",
    "name": "ERSOYLU CADDESİ 2",
    "lat": 40.7872507,
    "lon": 29.9274906
  },
  {
    "id": "81167",
    "name": "KARAÇAY SOKAK",
    "lat": 40.784019,
    "lon": 29.9279415
  },
  {
    "id": "81035",
    "name": "TÜYSÜZLER SAPAĞI",
    "lat": 40.781665,
    "lon": 29.924275
  },
  {
    "id": "80188",
    "name": "TÜYSÜZLER YENİ SOKAK 2",
    "lat": 40.778054,
    "lon": 29.916791
  },
  {
    "id": "80186",
    "name": "MİRALAY MÜMTAZ 1",
    "lat": 40.77701,
    "lon": 29.9135988
  },
  {
    "id": "81037",
    "name": "KIRKMEŞE KÖŞE 1",
    "lat": 40.7742321,
    "lon": 29.9128136
  },
  {
    "id": "80182",
    "name": "EYÜP SULTAN SOKAK 1",
    "lat": 40.77154,
    "lon": 29.91303
  },
  {
    "id": "80180",
    "name": "ÇAĞDAŞ SOKAK 2",
    "lat": 40.7702879,
    "lon": 29.9125845
  },
  {
    "id": "80970",
    "name": "GÜLTEPE MUHTARLIĞI",
    "lat": 40.7692522,
    "lon": 29.9122123
  },
  {
    "id": "80972",
    "name": "GÜLTEPE SAPAĞI 1",
    "lat": 40.7663805,
    "lon": 29.9096756
  },
  {
    "id": "80359",
    "name": "SEKA",
    "lat": 40.7651704,
    "lon": 29.9112439
  },
  {
    "id": "80870",
    "name": "BATI TERMİNALİ GİRİŞ",
    "lat": 40.763316,
    "lon": 29.9123732
  },
  {
    "id": "80379",
    "name": "GÜNEY TERMİNALİ",
    "lat": 40.740681,
    "lon": 29.941668
  },
  {
    "id": "41410",
    "name": "VİNSAN",
    "lat": 40.74208,
    "lon": 29.943537
  },
  {
    "id": "41414",
    "name": "AMBULANS NAKİL KOMUTA MERKEZİ",
    "lat": 40.743337,
    "lon": 29.944351
  },
  {
    "id": "80381",
    "name": "SANAYİ BATI GİRİŞ",
    "lat": 40.74637583,
    "lon": 29.94627134
  },
  {
    "id": "80387",
    "name": "ULUSLARARASI FUAR MERKEZİ",
    "lat": 40.75046,
    "lon": 29.948814
  },
  {
    "id": "10985",
    "name": "15 TEMMUZ KÖPRÜSÜ",
    "lat": 40.7539753,
    "lon": 29.9493114
  },
  {
    "id": "80388",
    "name": "SADIK AHMET ÜST GEÇİDİ",
    "lat": 40.756036,
    "lon": 29.946358
  },
  {
    "id": "80396",
    "name": "LUNAPARK 1",
    "lat": 40.7600185,
    "lon": 29.9414613
  },
  {
    "id": "80363",
    "name": "VALİLİK D 100",
    "lat": 40.762277,
    "lon": 29.945608
  },
  {
    "id": "80525",
    "name": "KANDIRA SAPAĞI 1",
    "lat": 40.7623359,
    "lon": 29.9551792
  },
  {
    "id": "80886",
    "name": "POSTAHANE 1",
    "lat": 40.7634902,
    "lon": 29.95814
  },
  {
    "id": "80873",
    "name": "DEMOKRASİ CADDESİ 3",
    "lat": 40.76318,
    "lon": 29.962376
  },
  {
    "id": "80888",
    "name": "DEMOKRASİ CADDESİ HASTANE 1",
    "lat": 40.76318442,
    "lon": 29.96515527
  },
  {
    "id": "42215",
    "name": "AKKAVAKLAR CADDESİ 1",
    "lat": 40.7641085,
    "lon": 29.9686324
  },
  {
    "id": "80449",
    "name": "YEŞİLOVA MERKEZ",
    "lat": 40.7874993,
    "lon": 29.9720586
  },
  {
    "id": "80479",
    "name": "YEŞİLOVA MERKEZ CAMİ 1",
    "lat": 40.789341,
    "lon": 29.973341
  },
  {
    "id": "80477",
    "name": "ALAN SOKAK",
    "lat": 40.79095718,
    "lon": 29.97457511
  },
  {
    "id": "80475",
    "name": "KOÇ SOKAK",
    "lat": 40.792655,
    "lon": 29.975799
  },
  {
    "id": "80919",
    "name": "TEPEKÖY KAMER CAMİ 2",
    "lat": 40.794486,
    "lon": 29.978431
  },
  {
    "id": "80473",
    "name": "TEPEKÖY KAMER CAMİ 1",
    "lat": 40.794506,
    "lon": 29.978234
  },
  {
    "id": "80474",
    "name": "DEĞİRMEN SOKAK 1",
    "lat": 40.79272783,
    "lon": 29.97567751
  },
  {
    "id": "80476",
    "name": "DAĞ ÇİÇEĞİ SOKAK",
    "lat": 40.790967,
    "lon": 29.97437
  },
  {
    "id": "80478",
    "name": "YEŞİLOVA MERKEZ CAMİ 2",
    "lat": 40.7891105,
    "lon": 29.9730177
  },
  {
    "id": "41426",
    "name": "AKASYA PARK 1",
    "lat": 40.76123,
    "lon": 29.975843
  },
  {
    "id": "80558",
    "name": "YAHYA KAPTAN KUZEY YANYOL",
    "lat": 40.7607104,
    "lon": 29.9747058
  },
  {
    "id": "80560",
    "name": "KAVAKCILIK",
    "lat": 40.76141044,
    "lon": 29.96959001
  },
  {
    "id": "80561",
    "name": "500 VARYANT",
    "lat": 40.7620421,
    "lon": 29.9646936
  },
  {
    "id": "41712",
    "name": "AKÇAKOCABEY",
    "lat": 40.762643,
    "lon": 29.958411
  },
  {
    "id": "80562",
    "name": "KANDIRA SAPAĞI",
    "lat": 40.7627903,
    "lon": 29.9562229
  },
  {
    "id": "80373",
    "name": "LUNAPARK",
    "lat": 40.7592259,
    "lon": 29.9416876
  },
  {
    "id": "80374",
    "name": "SADIK AHMET ÜST GEÇİDİ 1",
    "lat": 40.755127,
    "lon": 29.94712
  },
  {
    "id": "80375",
    "name": "15 TEMMUZ KÖPRÜSÜ 1",
    "lat": 40.7537,
    "lon": 29.948934
  },
  {
    "id": "80376",
    "name": "ULUSLARARASI FUAR MERKEZİ 1",
    "lat": 40.7512713,
    "lon": 29.9488058
  },
  {
    "id": "80377",
    "name": "GALERİCİLER SİTESİ",
    "lat": 40.7469089,
    "lon": 29.9460926
  },
  {
    "id": "80378",
    "name": "AMBULANS NAKİL KOMUTA MERKEZİ 1",
    "lat": 40.7432019,
    "lon": 29.9437568
  },
  {
    "id": "40134",
    "name": "DERİNCE KİPA AVM",
    "lat": 40.759199,
    "lon": 29.849216
  },
  {
    "id": "40437",
    "name": "DERİNCE HÜRRİYET CADDESİ 2",
    "lat": 40.7598618,
    "lon": 29.8481069
  },
  {
    "id": "40439",
    "name": "ERGENEKON CADDESİ 1",
    "lat": 40.7603835,
    "lon": 29.8511308
  },
  {
    "id": "40394",
    "name": "ÇENESUYU TIR PARKI",
    "lat": 40.7599877,
    "lon": 29.852309
  },
  {
    "id": "41200",
    "name": "AHU DUDU SOKAK",
    "lat": 40.761433,
    "lon": 29.856771
  },
  {
    "id": "80403",
    "name": "MUAMMER DERELİ ŞİRİNTEPE AİLE SAĞLIĞI MERKEZİ 2",
    "lat": 40.761332,
    "lon": 29.860808
  },
  {
    "id": "80127",
    "name": "KEREM CAN SOKAK 1",
    "lat": 40.760989,
    "lon": 29.86304
  },
  {
    "id": "80125",
    "name": "CUMHURİYET MAHALLESİ 1",
    "lat": 40.760956,
    "lon": 29.865026
  },
  {
    "id": "80123",
    "name": "CUMHURİYET MAHALLESİ 3",
    "lat": 40.7611,
    "lon": 29.86791
  },
  {
    "id": "80121",
    "name": "CUMHURİYET MAHALLESİ 6",
    "lat": 40.76127,
    "lon": 29.871891
  },
  {
    "id": "80119",
    "name": "CUMHURİYET MAHALLESİ 8",
    "lat": 40.761525,
    "lon": 29.875922
  },
  {
    "id": "41387",
    "name": "75. YIL ORTAOKULU",
    "lat": 40.759388,
    "lon": 29.877386
  },
  {
    "id": "41381",
    "name": "ADALET SOKAK 1",
    "lat": 40.760548,
    "lon": 29.88044
  },
  {
    "id": "41462",
    "name": "SAHİL YOLU SOKAK",
    "lat": 40.760677,
    "lon": 29.882833
  },
  {
    "id": "41453",
    "name": "PLAJYOLU İSU ARITMA 1",
    "lat": 40.761665,
    "lon": 29.88579
  },
  {
    "id": "11103",
    "name": "GARAJ DEPOLAMA ALANI 1",
    "lat": 40.7621604,
    "lon": 29.8887876
  },
  {
    "id": "10768",
    "name": "AVNİ KALKAVAN STADI 1",
    "lat": 40.761797,
    "lon": 29.891711
  },
  {
    "id": "80353",
    "name": "EĞİTİM KAMPÜSÜ 1",
    "lat": 40.7637439,
    "lon": 29.8917603
  },
  {
    "id": "80354",
    "name": "İSU GENEL MÜDÜRLÜĞÜ",
    "lat": 40.7646129,
    "lon": 29.896687
  },
  {
    "id": "80356",
    "name": "SEKA DEVLET HASTANESİ D 100 1",
    "lat": 40.766273,
    "lon": 29.900068
  },
  {
    "id": "80357",
    "name": "YENİDOĞAN D 100 1",
    "lat": 40.7665931,
    "lon": 29.904174
  },
  {
    "id": "80054",
    "name": "SİPAHİ 1",
    "lat": 40.7686961,
    "lon": 29.9517773
  },
  {
    "id": "80055",
    "name": "SİPAHİ 2",
    "lat": 40.770101,
    "lon": 29.9514868
  },
  {
    "id": "80056",
    "name": "ÜÇYOL ZİNCİRLİKUYU 1",
    "lat": 40.77181238,
    "lon": 29.95093006
  },
  {
    "id": "80411",
    "name": "ŞEHİT FERHAT ÖZER",
    "lat": 40.772374,
    "lon": 29.951005
  },
  {
    "id": "80407",
    "name": "BEKİRDERE",
    "lat": 40.7723889,
    "lon": 29.9552613
  },
  {
    "id": "80408",
    "name": "MİMAR SİNAN ORTAOKULU",
    "lat": 40.7727782,
    "lon": 29.956771
  },
  {
    "id": "80917",
    "name": "BEKİRDERE 1",
    "lat": 40.7734661,
    "lon": 29.9585669
  },
  {
    "id": "80918",
    "name": "MERDİVEN 1",
    "lat": 40.774883,
    "lon": 29.961624
  },
  {
    "id": "80427",
    "name": "ŞİRİNEVLER CAMİ 1",
    "lat": 40.7757015,
    "lon": 29.9634861
  },
  {
    "id": "80683",
    "name": "İZMİT OTOGAR SAPAĞI 1",
    "lat": 40.77642191,
    "lon": 29.96612901
  },
  {
    "id": "80612",
    "name": "SULTAN MURAT CADDESİ 4",
    "lat": 40.7731855,
    "lon": 29.9810113
  },
  {
    "id": "11647",
    "name": "TÜRKİYE BÜYÜK MİLLET MECLİSİ İLKOKULU 1",
    "lat": 40.7726912,
    "lon": 29.984854
  },
  {
    "id": "80493",
    "name": "FEVZİ ÇAKMAK AKARCA 4",
    "lat": 40.7800346,
    "lon": 29.9889713
  },
  {
    "id": "41742",
    "name": "KARANFİL SOKAK",
    "lat": 40.781273,
    "lon": 29.98603
  },
  {
    "id": "81250",
    "name": "KOCAELİ MESLEKİ TEKNİK VE ANADOLU LİSESİ 1",
    "lat": 40.7817976,
    "lon": 29.9849772
  },
  {
    "id": "81017",
    "name": "ESKİ ÇOCUK HASTANESİ 1",
    "lat": 40.7824012,
    "lon": 29.9897946
  },
  {
    "id": "42249",
    "name": "ELMA TEPE CADDESİ 1",
    "lat": 40.7834241,
    "lon": 29.9943119
  },
  {
    "id": "10462",
    "name": "ÜNLÜ PINAR CADDESİ 3",
    "lat": 40.785655,
    "lon": 29.993662
  },
  {
    "id": "10461",
    "name": "ÜNLÜ PINAR CADDESİ",
    "lat": 40.78718,
    "lon": 29.992717
  },
  {
    "id": "11123",
    "name": "TURHAN SOKAK",
    "lat": 40.788349,
    "lon": 29.9918041
  },
  {
    "id": "80485",
    "name": "KADENİZLİLER CAMİ",
    "lat": 40.78877,
    "lon": 29.993681
  },
  {
    "id": "80867",
    "name": "GİRNE CADDESİ 1",
    "lat": 40.7891925,
    "lon": 29.9972009
  },
  {
    "id": "10799",
    "name": "SOLAKLAR CADDESİ 4",
    "lat": 40.7895635,
    "lon": 29.9996671
  },
  {
    "id": "80487",
    "name": "ESKİOGLU SOKAK 1",
    "lat": 40.7895391,
    "lon": 30.0019672
  },
  {
    "id": "41563",
    "name": "KARADENİZLİLER ÇARŞIBAŞI CADDESİ 1",
    "lat": 40.7895773,
    "lon": 30.0049818
  },
  {
    "id": "81112",
    "name": "MEZBAHALAR MÜDÜRLÜĞÜ 1",
    "lat": 40.7898514,
    "lon": 30.0104936
  },
  {
    "id": "81312",
    "name": "İSU LOJİSTİK MERKEZİ",
    "lat": 40.7898796,
    "lon": 30.0136193
  },
  {
    "id": "81330",
    "name": "İSU LOJİSTİK MERKEZİ 1",
    "lat": 40.7901592,
    "lon": 30.0136673
  },
  {
    "id": "41570",
    "name": "MEZBAHALAR MÜDÜRLÜĞÜ",
    "lat": 40.789997,
    "lon": 30.00967
  },
  {
    "id": "80404",
    "name": "KARADENİZLİLER ÇARŞIBAŞI CADDESİ 2",
    "lat": 40.7896475,
    "lon": 30.0050745
  },
  {
    "id": "80486",
    "name": "ESKİOGLU SOKAK",
    "lat": 40.7897354,
    "lon": 30.0022037
  },
  {
    "id": "10800",
    "name": "SOLAKLAR CADDESİ 5",
    "lat": 40.789667,
    "lon": 29.9994137
  },
  {
    "id": "41577",
    "name": "GİRNE CADDESİ",
    "lat": 40.789463,
    "lon": 29.996855
  },
  {
    "id": "80484",
    "name": "SOLAKLAR CADDESİ 1",
    "lat": 40.789049,
    "lon": 29.994109
  },
  {
    "id": "11240",
    "name": "TURHAN SOKAK 1",
    "lat": 40.7880764,
    "lon": 29.9913328
  },
  {
    "id": "10967",
    "name": "ÜNLÜPINAR CADDESİ 1",
    "lat": 40.7873887,
    "lon": 29.992281
  },
  {
    "id": "42247",
    "name": "ELMA TEPE CADDESİ",
    "lat": 40.783432,
    "lon": 29.993996
  },
  {
    "id": "81018",
    "name": "ESKİ ÇOCUK HASTANESİ 2",
    "lat": 40.7825388,
    "lon": 29.989707
  },
  {
    "id": "81249",
    "name": "KOCAELİ MESLEKİ TEKNİK VE ANADOLU LİSESİ",
    "lat": 40.782054,
    "lon": 29.9850465
  },
  {
    "id": "11185",
    "name": "KARANFİL SOKAK 1",
    "lat": 40.7811749,
    "lon": 29.9861043
  },
  {
    "id": "41533",
    "name": "FEVZİ ÇAKMAK CAMİ",
    "lat": 40.779916,
    "lon": 29.988731
  },
  {
    "id": "80516",
    "name": "FATMA SEHER HANIM CADDESİ 3",
    "lat": 40.7723247,
    "lon": 29.9882226
  },
  {
    "id": "11666",
    "name": "SULTAN MURAT CADDESİ 6",
    "lat": 40.7736488,
    "lon": 29.9807984
  },
  {
    "id": "80426",
    "name": "ŞİRİNEVLER CAMİ 2",
    "lat": 40.775785,
    "lon": 29.963934
  },
  {
    "id": "80425",
    "name": "MERDİVEN",
    "lat": 40.77466,
    "lon": 29.961222
  },
  {
    "id": "80424",
    "name": "BEKİRDERE 2",
    "lat": 40.7735623,
    "lon": 29.9585622
  },
  {
    "id": "11304",
    "name": "KARAAĞAÇ SOKAK",
    "lat": 40.772915,
    "lon": 29.956636
  },
  {
    "id": "80409",
    "name": "BEKİRDERE 5",
    "lat": 40.7726228,
    "lon": 29.9545427
  },
  {
    "id": "80410",
    "name": "ŞEHİT FERHAT ÖZER 1",
    "lat": 40.772538,
    "lon": 29.95143
  },
  {
    "id": "80057",
    "name": "ZİNCİRLİKUYU CAMİ",
    "lat": 40.7716551,
    "lon": 29.9493929
  },
  {
    "id": "80042",
    "name": "CUMHURİYET PARKI",
    "lat": 40.7660522,
    "lon": 29.9295414
  },
  {
    "id": "80346",
    "name": "DOSTLUK SİTESİ",
    "lat": 40.76651092,
    "lon": 29.90749297
  },
  {
    "id": "80347",
    "name": "YENİDOĞAN D 100",
    "lat": 40.7670528,
    "lon": 29.9031065
  },
  {
    "id": "80348",
    "name": "SEKA DEVLET HASTANESİ D 100",
    "lat": 40.7657031,
    "lon": 29.8983139
  },
  {
    "id": "80349",
    "name": "İSU GENEL MÜDÜRLÜĞÜ 1",
    "lat": 40.76483866,
    "lon": 29.89577313
  },
  {
    "id": "80164",
    "name": "İZMİT LİSESİ D 100",
    "lat": 40.763842,
    "lon": 29.8909683
  },
  {
    "id": "80350",
    "name": "MEHMET SİNAN DERELİ ORTAOKULU",
    "lat": 40.763345,
    "lon": 29.886783
  },
  {
    "id": "80087",
    "name": "MEHMET SİNAN DERELİ ORTAOKULU 1",
    "lat": 40.763864,
    "lon": 29.887669
  },
  {
    "id": "11209",
    "name": "AVNİ KALKAVAN STADI",
    "lat": 40.762075,
    "lon": 29.891199
  },
  {
    "id": "80136",
    "name": "GARAJ DEPOLAMA ALANI",
    "lat": 40.762282,
    "lon": 29.888383
  },
  {
    "id": "41430",
    "name": "PLAJYOLU İSU ARITMA",
    "lat": 40.7614875,
    "lon": 29.88539279
  },
  {
    "id": "41459",
    "name": "ORTA SOKAK",
    "lat": 40.760826,
    "lon": 29.882927
  },
  {
    "id": "41464",
    "name": "ADALET SOKAK",
    "lat": 40.7607429,
    "lon": 29.8806068
  },
  {
    "id": "40401",
    "name": "75.YIL ORTAOKULU 1",
    "lat": 40.759455,
    "lon": 29.8771458
  },
  {
    "id": "80118",
    "name": "CUMHURİYET MAHALLESİ 7",
    "lat": 40.761581,
    "lon": 29.87582
  },
  {
    "id": "80120",
    "name": "CUMHURİYET MAHALLESİ 5",
    "lat": 40.7613778,
    "lon": 29.871956
  },
  {
    "id": "80122",
    "name": "CUMHURİYET MAHALLESİ 4",
    "lat": 40.7611436,
    "lon": 29.8679077
  },
  {
    "id": "80124",
    "name": "CUMHURİYET MAHALLESİ 2",
    "lat": 40.7609933,
    "lon": 29.8650566
  },
  {
    "id": "80126",
    "name": "KEREM CAN SOKAK",
    "lat": 40.7610426,
    "lon": 29.8631989
  },
  {
    "id": "81010",
    "name": "MUAMMER DERELİ ŞİRİNTEPE AİLE SAĞLIĞI MERKEZİ 1",
    "lat": 40.7614908,
    "lon": 29.8608023
  },
  {
    "id": "40336",
    "name": "ERGENEKON CADDESİ",
    "lat": 40.7604325,
    "lon": 29.8512407
  },
  {
    "id": "40438",
    "name": "DERİNCE HÜRRİYET CADDESİ 1",
    "lat": 40.7597605,
    "lon": 29.8479352
  },
  {
    "id": "80131",
    "name": "ALİKAHYA DEPOLAMA ALANI",
    "lat": 40.781697,
    "lon": 29.9910042
  },
  {
    "id": "81218",
    "name": "UĞUR MUMCU CADDESİ 4",
    "lat": 40.780015,
    "lon": 29.994458
  },
  {
    "id": "81215",
    "name": "BOŞNAKLAR CAMİ 1",
    "lat": 40.78139,
    "lon": 29.995894
  },
  {
    "id": "80483",
    "name": "FARABİ İLKOKULU 1",
    "lat": 40.7873927,
    "lon": 29.9895299
  },
  {
    "id": "81328",
    "name": "SOLAKLAR CADDESİ",
    "lat": 40.787393,
    "lon": 29.98684
  },
  {
    "id": "80482",
    "name": "KARADENİZLİLER ÇARŞIBAŞI CADDESİ 4",
    "lat": 40.7865536,
    "lon": 29.9850112
  },
  {
    "id": "41555",
    "name": "KOCAELİ FEN LİSESİ",
    "lat": 40.785706,
    "lon": 29.98094
  },
  {
    "id": "80480",
    "name": "ALTINOĞLU CAMİ",
    "lat": 40.785148,
    "lon": 29.978759
  },
  {
    "id": "80028",
    "name": "ALTINCIOĞLU CADDESİ",
    "lat": 40.784268,
    "lon": 29.977696
  },
  {
    "id": "80097",
    "name": "ULUDAĞ SOKAK",
    "lat": 40.7710294,
    "lon": 30.0105521
  },
  {
    "id": "80705",
    "name": "ESKİ ALİKAHYA BELEDİYESİ",
    "lat": 40.7707555,
    "lon": 30.0052934
  },
  {
    "id": "80696",
    "name": "KANALBOYU KÖPRÜ",
    "lat": 40.769213,
    "lon": 30.004568
  },
  {
    "id": "41554",
    "name": "ŞEHİT YÜKSEL DİNÇ 1",
    "lat": 40.767647,
    "lon": 30.005568
  },
  {
    "id": "80899",
    "name": "833. ADA 1",
    "lat": 40.76743,
    "lon": 30.0071
  },
  {
    "id": "80897",
    "name": "832. ADA 1",
    "lat": 40.766777,
    "lon": 30.010346
  },
  {
    "id": "11404",
    "name": "831. ADA 1",
    "lat": 40.766301,
    "lon": 30.012986
  },
  {
    "id": "80603",
    "name": "830. ADA 1",
    "lat": 40.765918,
    "lon": 30.015194
  },
  {
    "id": "80601",
    "name": "830. ADA 2",
    "lat": 40.765242,
    "lon": 30.014988
  },
  {
    "id": "80699",
    "name": "831. ADA 2",
    "lat": 40.76542,
    "lon": 30.013207
  },
  {
    "id": "11263",
    "name": "832. ADA 3",
    "lat": 40.76574,
    "lon": 30.010715
  },
  {
    "id": "10997",
    "name": "FINDIKLI CADDESİ",
    "lat": 40.7661157,
    "lon": 30.0072742
  },
  {
    "id": "11258",
    "name": "833. ADA 2",
    "lat": 40.766357,
    "lon": 30.005636
  },
  {
    "id": "80700",
    "name": "ALİKAHYA DÖRTYOL",
    "lat": 40.766525,
    "lon": 30.003336
  },
  {
    "id": "80702",
    "name": "MEMDUH TAĞMAÇ KIŞLASI 1",
    "lat": 40.763457,
    "lon": 30.000531
  },
  {
    "id": "80704",
    "name": "KORDSA 1",
    "lat": 40.762445,
    "lon": 29.997693
  },
  {
    "id": "96274",
    "name": "SAKIP SABANCI CADDESİ 2",
    "lat": 40.758531,
    "lon": 29.994295
  },
  {
    "id": "80559",
    "name": "SABANCI KÖPRÜLÜ KAVŞAĞI",
    "lat": 40.758488,
    "lon": 29.989613
  },
  {
    "id": "80336",
    "name": "ESNAF KEFALET",
    "lat": 40.76183364,
    "lon": 29.93017685
  },
  {
    "id": "80337",
    "name": "FEVZİYE KUZEY YAN YOL 1",
    "lat": 40.7617012,
    "lon": 29.9234567
  },
  {
    "id": "80362",
    "name": "ADNAN MENDERES D 100",
    "lat": 40.7612467,
    "lon": 29.9257697
  },
  {
    "id": "80360",
    "name": "YENİ CUMA BATI",
    "lat": 40.761335,
    "lon": 29.9297973
  },
  {
    "id": "80361",
    "name": "YENİ CUMA DOĞU",
    "lat": 40.761527,
    "lon": 29.9322986
  },
  {
    "id": "80527",
    "name": "KAVAKCILIK 1",
    "lat": 40.76093524,
    "lon": 29.96996524
  },
  {
    "id": "80528",
    "name": "YAHYA KAPTAN GÜNEY YANYOL",
    "lat": 40.7600823,
    "lon": 29.9756581
  },
  {
    "id": "41001",
    "name": "BAŞİSKELE SYMBOL AVM",
    "lat": 40.759372,
    "lon": 29.980236
  },
  {
    "id": "96273",
    "name": "SAKIP SABANCI CADDESİ 1",
    "lat": 40.75844,
    "lon": 29.99438
  },
  {
    "id": "80703",
    "name": "KORDSA",
    "lat": 40.762425,
    "lon": 29.997817
  },
  {
    "id": "80701",
    "name": "MEMDUH TAĞMAÇ KIŞLASI",
    "lat": 40.76332,
    "lon": 30.000885
  },
  {
    "id": "80698",
    "name": "831. ADA 3",
    "lat": 40.765279,
    "lon": 30.013017
  },
  {
    "id": "80602",
    "name": "830. ADA 3",
    "lat": 40.765011,
    "lon": 30.015247
  },
  {
    "id": "80697",
    "name": "KANALBOYU KÖPRÜ 1",
    "lat": 40.7691437,
    "lon": 30.0046748
  },
  {
    "id": "80100",
    "name": "ULUDAĞ SOKAK 1",
    "lat": 40.7709788,
    "lon": 30.0106377
  },
  {
    "id": "11412",
    "name": "OTOGAR TRAMVAY AKTARMA",
    "lat": 40.7755237,
    "lon": 29.975811
  },
  {
    "id": "81398",
    "name": "GİZEMNUR CADDESİ 1",
    "lat": 40.7836847,
    "lon": 29.9777562
  },
  {
    "id": "80924",
    "name": "KARADENİZLİLER ÇARŞIBAŞI CADDESİ",
    "lat": 40.784986,
    "lon": 29.978834
  },
  {
    "id": "80216",
    "name": "KOCAELİ FEN LİSESİ 1",
    "lat": 40.7856163,
    "lon": 29.9809584
  },
  {
    "id": "80481",
    "name": "KARADENİZLİLER ÇARŞIBAŞI CADDESİ 3",
    "lat": 40.786436,
    "lon": 29.98528
  },
  {
    "id": "80488",
    "name": "FARABİ İLKOKULU",
    "lat": 40.7872554,
    "lon": 29.9867065
  },
  {
    "id": "81045",
    "name": "KARADENİZLİLER KAHVE",
    "lat": 40.787304,
    "lon": 29.990075
  },
  {
    "id": "11512",
    "name": "ÜNLÜPINAR CADDESİ 2",
    "lat": 40.7854422,
    "lon": 29.9933928
  },
  {
    "id": "81216",
    "name": "BOŞNAKLAR CAMİ 2",
    "lat": 40.7815741,
    "lon": 29.9957913
  },
  {
    "id": "81217",
    "name": "UĞUR MUMCU CADDESİ 3",
    "lat": 40.7802803,
    "lon": 29.9948053
  },
  {
    "id": "80489",
    "name": "ESKİ ÇOCUK HASTANESİ",
    "lat": 40.782583,
    "lon": 29.989066
  },
  {
    "id": "80491",
    "name": "FEVZİ ÇAKMAK AKARCA",
    "lat": 40.7797893,
    "lon": 29.9853929
  },
  {
    "id": "80492",
    "name": "FEVZİ ÇAKMAK AKARCA 3",
    "lat": 40.779877,
    "lon": 29.9871652
  },
  {
    "id": "80500",
    "name": "ALİKAHYA CUMHURİYET MUHTARLIĞI",
    "lat": 40.77547441,
    "lon": 29.98449882
  },
  {
    "id": "80504",
    "name": "HASAN TAHSİN CADDESİ 3",
    "lat": 40.7767371,
    "lon": 29.9842368
  },
  {
    "id": "80502",
    "name": "AKASYA SOKAK 1",
    "lat": 40.7780576,
    "lon": 29.9846699
  },
  {
    "id": "80506",
    "name": "MUALLİM NACİ",
    "lat": 40.77712375,
    "lon": 29.98214943
  },
  {
    "id": "80942",
    "name": "ALİKAHYA CUMHURİYET MUHTARLIĞI 1",
    "lat": 40.77535296,
    "lon": 29.98443402
  },
  {
    "id": "80564",
    "name": "KINALI ASKER 1",
    "lat": 40.76263449,
    "lon": 29.96671759
  },
  {
    "id": "80505",
    "name": "MUALLİM NACİ 1",
    "lat": 40.777163,
    "lon": 29.982251
  },
  {
    "id": "80503",
    "name": "AKASYA SOKAK",
    "lat": 40.7779268,
    "lon": 29.9844448
  },
  {
    "id": "80501",
    "name": "HASAN TAHSİN CADDESİ 2",
    "lat": 40.7765499,
    "lon": 29.9840809
  },
  {
    "id": "80946",
    "name": "FEVZİ ÇAKMAK AKARCA 1",
    "lat": 40.7799436,
    "lon": 29.987165
  },
  {
    "id": "80947",
    "name": "FEVZİ ÇAKMAK AKARCA 2",
    "lat": 40.7798889,
    "lon": 29.9854078
  },
  {
    "id": "80490",
    "name": "ESKİ ÇOCUK HASTANESİ OTOPARK",
    "lat": 40.7832109,
    "lon": 29.9890193
  },
  {
    "id": "11646",
    "name": "TÜRKİYE BÜYÜK MİLLET MECLİSİ İLKOKULU",
    "lat": 40.7727887,
    "lon": 29.9848982
  },
  {
    "id": "81169",
    "name": "CAHAR DUDAYEV PARKI",
    "lat": 40.7749111,
    "lon": 29.9499279
  },
  {
    "id": "80259",
    "name": "ELMALIK CAMİ",
    "lat": 40.776276,
    "lon": 29.94957
  },
  {
    "id": "80981",
    "name": "DERE SOKAK 3",
    "lat": 40.77767,
    "lon": 29.949259
  },
  {
    "id": "80261",
    "name": "ULUBATLI HASAN ORTAOKULU 2",
    "lat": 40.7794274,
    "lon": 29.9486982
  },
  {
    "id": "41731",
    "name": "VADİKENT",
    "lat": 40.782241,
    "lon": 29.94638605
  },
  {
    "id": "80982",
    "name": "İZMİT KENT 3. ETAP  2",
    "lat": 40.7826271,
    "lon": 29.9440935
  },
  {
    "id": "80264",
    "name": "DÜNYA BANKASI OTOBAN KÖPRÜSÜ",
    "lat": 40.7839064,
    "lon": 29.9420611
  },
  {
    "id": "10966",
    "name": "ŞEHİR HASTANESİ YOLU 1",
    "lat": 40.785317,
    "lon": 29.946123
  },
  {
    "id": "81263",
    "name": "ŞEHİR HASTANESİ POLİKLİNİKLER",
    "lat": 40.783664,
    "lon": 29.960621
  },
  {
    "id": "81264",
    "name": "ŞEHİR HASTANESİ KARDİYOLOJİ POLİKLİNİKLERİ",
    "lat": 40.7818037,
    "lon": 29.9623331
  },
  {
    "id": "81265",
    "name": "ŞEHİR HASTANESİ ERİŞKİN ACİL SERVİSİ",
    "lat": 40.781621,
    "lon": 29.961252
  },
  {
    "id": "81266",
    "name": "ŞEHİR HASTANESİ ÇOCUK ACİL SERVİSİ",
    "lat": 40.7823756,
    "lon": 29.9582407
  },
  {
    "id": "81267",
    "name": "ŞEHİR HASTANESİ FİZİK TEDAVİ VE REHABİLİTASYON",
    "lat": 40.784075,
    "lon": 29.95375
  },
  {
    "id": "80885",
    "name": "BOĞAZOVA MERDİVEN 2",
    "lat": 40.7870377,
    "lon": 29.9570616
  },
  {
    "id": "80759",
    "name": "SOYKAN SOKAK 2",
    "lat": 40.78815,
    "lon": 29.958853
  },
  {
    "id": "40360",
    "name": "BOĞAZOVA CADDESİ 1",
    "lat": 40.7892091,
    "lon": 29.9604231
  },
  {
    "id": "80608",
    "name": "AKGÜNEŞ SOKAK 1",
    "lat": 40.790376,
    "lon": 29.962095
  },
  {
    "id": "80470",
    "name": "ARNAVUT SOKAK 2",
    "lat": 40.791987,
    "lon": 29.963215
  },
  {
    "id": "80358",
    "name": "AYVALIK SOKAK 3",
    "lat": 40.793754,
    "lon": 29.965045
  },
  {
    "id": "80355",
    "name": "YADİGAR SOKAK 2",
    "lat": 40.79501,
    "lon": 29.967541
  },
  {
    "id": "80063",
    "name": "BEDİR SOKAK",
    "lat": 40.796178,
    "lon": 29.9699871
  },
  {
    "id": "81308",
    "name": "ZÜMRA SOKAK",
    "lat": 40.796727,
    "lon": 29.971847
  },
  {
    "id": "81261",
    "name": "KUVAYİ MİLLİYE CADDESİ 3",
    "lat": 40.8023909,
    "lon": 29.9655122
  },
  {
    "id": "81259",
    "name": "GAZİ EMİR SOKAK 1",
    "lat": 40.800658,
    "lon": 29.9639076
  },
  {
    "id": "81258",
    "name": "KUVAYİ MİLLİYE CADDESİ 1",
    "lat": 40.8007633,
    "lon": 29.9621303
  },
  {
    "id": "81239",
    "name": "GÜNDOĞDU TOKİ",
    "lat": 40.7998826,
    "lon": 29.9572118
  },
  {
    "id": "81282",
    "name": "BEYPINARI PARKI 1",
    "lat": 40.7987072,
    "lon": 29.9532374
  },
  {
    "id": "80904",
    "name": "BEYPINARI CADDESİ",
    "lat": 40.7999621,
    "lon": 29.9529534
  },
  {
    "id": "42059",
    "name": "GÜNDOĞDU 3 NOLU AİLE SAĞLIĞI MERKEZİ 1",
    "lat": 40.800455,
    "lon": 29.949256
  },
  {
    "id": "11083",
    "name": "BAYINDIRLIK DEPOLAMA ALANI 1",
    "lat": 40.801508,
    "lon": 29.949288
  },
  {
    "id": "80226",
    "name": "BAYINDIRLIK DEPOLAMA ALANI",
    "lat": 40.801461,
    "lon": 29.949168
  },
  {
    "id": "42058",
    "name": "GÜNDOĞDU 3 NOLU AİLE SAĞLIĞI MERKEZİ",
    "lat": 40.800456,
    "lon": 29.949168
  },
  {
    "id": "81225",
    "name": "BEYPINARI CADDESİ 1",
    "lat": 40.7998529,
    "lon": 29.9527694
  },
  {
    "id": "81281",
    "name": "BEYPINARI PARKI",
    "lat": 40.798536,
    "lon": 29.953312
  },
  {
    "id": "41755",
    "name": "GÜNDOĞDU TOKİ 1",
    "lat": 40.79977961,
    "lon": 29.95720903
  },
  {
    "id": "12220",
    "name": "KUVAYİ MİLLİYE CADDESİ",
    "lat": 40.8007064,
    "lon": 29.96172213
  },
  {
    "id": "41758",
    "name": "GAZİ EMİR SOKAK",
    "lat": 40.800365,
    "lon": 29.963873
  },
  {
    "id": "81260",
    "name": "KUVAYİ MİLLİYE CADDESİ 2",
    "lat": 40.802482,
    "lon": 29.965769
  },
  {
    "id": "81309",
    "name": "ZÜMRA SOKAK 1",
    "lat": 40.796809,
    "lon": 29.9718
  },
  {
    "id": "80044",
    "name": "İKİZDERE CADDESİ",
    "lat": 40.7961006,
    "lon": 29.9693521
  },
  {
    "id": "80334",
    "name": "YADİGAR SOKAK 1",
    "lat": 40.794823,
    "lon": 29.966852
  },
  {
    "id": "80400",
    "name": "AYVALIK SOKAK 4",
    "lat": 40.793737,
    "lon": 29.964919
  },
  {
    "id": "80401",
    "name": "ARNAVUT SOKAK 1",
    "lat": 40.7920137,
    "lon": 29.9630013
  },
  {
    "id": "80563",
    "name": "AKGÜNEŞ SOKAK",
    "lat": 40.790583,
    "lon": 29.962021
  },
  {
    "id": "40359",
    "name": "BOĞAZOVA CADDESİ",
    "lat": 40.78924,
    "lon": 29.960392
  },
  {
    "id": "80676",
    "name": "SOYKAN SOKAK 1",
    "lat": 40.788397,
    "lon": 29.959004
  },
  {
    "id": "80760",
    "name": "BOĞAZOVA MERDİVEN 1",
    "lat": 40.7870915,
    "lon": 29.9563786
  },
  {
    "id": "10965",
    "name": "ŞEHİR HASTANESİ YOLU",
    "lat": 40.785588,
    "lon": 29.946155
  },
  {
    "id": "81333",
    "name": "BAHRİYE SOKAK",
    "lat": 40.783844,
    "lon": 29.941609
  },
  {
    "id": "80263",
    "name": "İZMİT KENT 3. ETAP 1",
    "lat": 40.7825013,
    "lon": 29.9440625
  },
  {
    "id": "41729",
    "name": "VADİKENT 1",
    "lat": 40.78205126,
    "lon": 29.94666576
  },
  {
    "id": "80262",
    "name": "ULUBATLI HASAN ORTAOKULU 1",
    "lat": 40.7792611,
    "lon": 29.9484978
  },
  {
    "id": "80260",
    "name": "DERE SOKAK 2",
    "lat": 40.77765,
    "lon": 29.9491821
  },
  {
    "id": "80258",
    "name": "ELMALIK CAMİ 1",
    "lat": 40.77667,
    "lon": 29.949393
  },
  {
    "id": "10843",
    "name": "BADEM SOKAK 1",
    "lat": 40.773571,
    "lon": 29.9492282
  },
  {
    "id": "41720",
    "name": "İZMİT KENT 5. ETAP",
    "lat": 40.780277,
    "lon": 29.94659
  },
  {
    "id": "80253",
    "name": "İZMİT KENT 3 .ETAP",
    "lat": 40.7811747,
    "lon": 29.9459077
  },
  {
    "id": "11021",
    "name": "TOKİ KONUTLARI",
    "lat": 40.782585,
    "lon": 29.94229
  },
  {
    "id": "80251",
    "name": "İZMİT KENT 1. ETAP 1",
    "lat": 40.781875,
    "lon": 29.940005
  },
  {
    "id": "80928",
    "name": "ESKİ İSTANBUL CADDESİ 1",
    "lat": 40.7826116,
    "lon": 29.9320934
  },
  {
    "id": "80208",
    "name": "PROF BAKİ KOMSUOĞLU BULVARI 2",
    "lat": 40.7850157,
    "lon": 29.9293888
  },
  {
    "id": "80209",
    "name": "PROF BAKİ KOMSUOĞLU BULVARI 4",
    "lat": 40.790414,
    "lon": 29.928094
  },
  {
    "id": "80229",
    "name": "PROF BAKİ KOMSUOĞLU BULVARI 1",
    "lat": 40.785187,
    "lon": 29.929085
  },
  {
    "id": "81462",
    "name": "İZMİT SANAYİ SİTESİ 3",
    "lat": 40.7460201,
    "lon": 29.9468155
  },
  {
    "id": "80879",
    "name": "İZMİT SANAYİ MERKEZ",
    "lat": 40.7463439,
    "lon": 29.9515449
  },
  {
    "id": "81033",
    "name": "SAHİL OTOPARK",
    "lat": 40.759568,
    "lon": 29.93115
  },
  {
    "id": "81395",
    "name": "BALIKHAN",
    "lat": 40.7603238,
    "lon": 29.9292074
  },
  {
    "id": "80371",
    "name": "MİMAR SİNAN GÜNEY YANYOL",
    "lat": 40.760964,
    "lon": 29.931273
  },
  {
    "id": "80372",
    "name": "İZMİT MİLLET BAHÇESİ",
    "lat": 40.7612428,
    "lon": 29.9374157
  },
  {
    "id": "80039",
    "name": "KOLORDU 1",
    "lat": 40.76417984,
    "lon": 29.92103407
  },
  {
    "id": "80875",
    "name": "50. YIL CUMHURİYET ORTAOKULU",
    "lat": 40.7641061,
    "lon": 29.9185184
  },
  {
    "id": "80894",
    "name": "RUŞEN HAKKI CADDESİ",
    "lat": 40.76385,
    "lon": 29.915889
  },
  {
    "id": "80368",
    "name": "TREN GARI GÜNEY YANYOL 2",
    "lat": 40.7609663,
    "lon": 29.9173516
  },
  {
    "id": "80370",
    "name": "ADNAN MENDERES GÜNEY YANYOL",
    "lat": 40.760838,
    "lon": 29.924423
  },
  {
    "id": "98172",
    "name": "HEREKE TERMİNALİ 1",
    "lat": 40.7839806,
    "lon": 29.6152603
  },
  {
    "id": "98174",
    "name": "HEREKE DÖRTYOL 2",
    "lat": 40.7848431,
    "lon": 29.6171828
  },
  {
    "id": "98176",
    "name": "KOCAELİ ÜNİVERSİTESİ HEREKE BORUSAN KAMPÜSÜ 1",
    "lat": 40.7840806,
    "lon": 29.6196973
  },
  {
    "id": "11231",
    "name": "KINAY CADDESİ AYNA DURAĞI",
    "lat": 40.783919,
    "lon": 29.621477
  },
  {
    "id": "98180",
    "name": "HEREKE TEKEL D 100",
    "lat": 40.7849,
    "lon": 29.622211
  },
  {
    "id": "98168",
    "name": "ŞİRİNYALI YALIKENT",
    "lat": 40.778623,
    "lon": 29.68264
  },
  {
    "id": "41175",
    "name": "KİRAZLIYALI OKUL",
    "lat": 40.7773237,
    "lon": 29.7030203
  },
  {
    "id": "11464",
    "name": "KOCAELİ ÜNİVERSİTESİ YABANCI DİLLER YÜKSEK OKULU KÖRFEZ KAMPÜSÜ 1",
    "lat": 40.774497,
    "lon": 29.733804
  },
  {
    "id": "98293",
    "name": "KÖRFEZ BELEDİYESİ",
    "lat": 40.7734687,
    "lon": 29.7442871
  },
  {
    "id": "98028",
    "name": "KÖRFEZ KAYMAKAMLIK",
    "lat": 40.7696996,
    "lon": 29.7647399
  },
  {
    "id": "98278",
    "name": "KÖRFEZ DİŞ HASTANESİ",
    "lat": 40.765653,
    "lon": 29.775072
  },
  {
    "id": "98025",
    "name": "TÜTÜNÇİFTLİK MERKEZ 3",
    "lat": 40.760823,
    "lon": 29.787205
  },
  {
    "id": "98027",
    "name": "95 EVLER",
    "lat": 40.75826,
    "lon": 29.7944693
  },
  {
    "id": "40123",
    "name": "DERİNCE 60 EVLER",
    "lat": 40.7566325,
    "lon": 29.8092172
  },
  {
    "id": "10868",
    "name": "DERİNCE 44 EVLER 2",
    "lat": 40.7560217,
    "lon": 29.8187981
  },
  {
    "id": "40128",
    "name": "DERİNCE GEÇİT 2",
    "lat": 40.7558356,
    "lon": 29.8304408
  },
  {
    "id": "40133",
    "name": "ÇENESUYU KAŞIK ÜST GEÇİT",
    "lat": 40.7610102,
    "lon": 29.8517348
  },
  {
    "id": "80129",
    "name": "ŞİRİNTEPE ÜST GEÇİT 1",
    "lat": 40.7615205,
    "lon": 29.8607742
  },
  {
    "id": "80352",
    "name": "SGK İL MÜDÜRLÜĞÜ D 100",
    "lat": 40.7629814,
    "lon": 29.8777459
  },
  {
    "id": "96001",
    "name": "PAKMAYA",
    "lat": 40.75815981,
    "lon": 29.98921037
  },
  {
    "id": "96180",
    "name": "MOBİLYACILAR SİTESİ",
    "lat": 40.7559512,
    "lon": 30.0035053
  },
  {
    "id": "90754",
    "name": "ASKERİYE SAPAĞI 1",
    "lat": 40.753978,
    "lon": 30.017202
  },
  {
    "id": "96275",
    "name": "KARTEPE İSTASYON 1",
    "lat": 40.75326,
    "lon": 30.022679
  },
  {
    "id": "96276",
    "name": "GAZOZ",
    "lat": 40.7522403,
    "lon": 30.0294904
  },
  {
    "id": "96278",
    "name": "ÇELİK HALAT ÜST GEÇİDİ 1",
    "lat": 40.75039177,
    "lon": 30.0432107
  },
  {
    "id": "96161",
    "name": "ÖZDİLEK D 100 1",
    "lat": 40.7473942,
    "lon": 30.0633005
  },
  {
    "id": "41127",
    "name": "ÖZDİLEK D 100",
    "lat": 40.74786,
    "lon": 30.063039
  },
  {
    "id": "96285",
    "name": "ÇELİK HALAT ÜST GEÇİDİ",
    "lat": 40.7507906,
    "lon": 30.0426209
  },
  {
    "id": "96289",
    "name": "GAZOZ 1",
    "lat": 40.752849,
    "lon": 30.028458
  },
  {
    "id": "96577",
    "name": "KARTEPE İSTASYON",
    "lat": 40.753704,
    "lon": 30.022463
  },
  {
    "id": "96576",
    "name": "ASKERİYE SAPAĞI",
    "lat": 40.7545645,
    "lon": 30.016132
  },
  {
    "id": "90514",
    "name": "MOBİLYACILAR SİTESİ D 100 KARAYOLU 1",
    "lat": 40.7565708,
    "lon": 30.0032682
  },
  {
    "id": "80351",
    "name": "KURUÇEŞME IŞIKLAR",
    "lat": 40.764091,
    "lon": 29.875057
  },
  {
    "id": "80001",
    "name": "ŞİRİNTEPE ÜST GEÇİT",
    "lat": 40.7618325,
    "lon": 29.8596262
  },
  {
    "id": "40259",
    "name": "ÇENESUYU KAŞIK 1",
    "lat": 40.7613065,
    "lon": 29.8514852
  },
  {
    "id": "40112",
    "name": "DERİNCE GEÇİT 1",
    "lat": 40.756304,
    "lon": 29.830306
  },
  {
    "id": "10867",
    "name": "DERİNCE 44 EVLER 3",
    "lat": 40.756579,
    "lon": 29.819012
  },
  {
    "id": "40119",
    "name": "DERİNCE ÇEVİK KUVVET MÜDÜRLÜĞÜ",
    "lat": 40.757118,
    "lon": 29.808784
  },
  {
    "id": "98029",
    "name": "95 EVLER KAVŞAK",
    "lat": 40.7585825,
    "lon": 29.7954573
  },
  {
    "id": "98036",
    "name": "TÜTÜNÇİFTLİK MERKEZ",
    "lat": 40.762181,
    "lon": 29.785038
  },
  {
    "id": "98039",
    "name": "KÖRFEZ DIŞ HASTANESİ 1",
    "lat": 40.7660788,
    "lon": 29.7752532
  },
  {
    "id": "98283",
    "name": "ALT GEÇİT 2",
    "lat": 40.77087409,
    "lon": 29.76331229
  },
  {
    "id": "98285",
    "name": "KÖRFEZ ÜST GEÇİT",
    "lat": 40.77257926,
    "lon": 29.75836404
  },
  {
    "id": "98288",
    "name": "KÖRFEZ BELEDİYESİ 1",
    "lat": 40.773805,
    "lon": 29.746126
  },
  {
    "id": "98290",
    "name": "YARIMCA ORTAOKULU",
    "lat": 40.77456904,
    "lon": 29.73774792
  },
  {
    "id": "41793",
    "name": "KOCAELİ ÜNİVERSİTESİ YABANCI DİLLER YÜKSEK OKULU KÖRFEZ KAMPÜSÜ",
    "lat": 40.77508,
    "lon": 29.733278
  },
  {
    "id": "98154",
    "name": "KİRAZLIYALI MUHTARLIĞI D-100",
    "lat": 40.7778527,
    "lon": 29.6999186
  },
  {
    "id": "98165",
    "name": "ŞİRİNYALI GÜNDÜZ CADDESİ",
    "lat": 40.7786978,
    "lon": 29.6881337
  },
  {
    "id": "98169",
    "name": "ŞİRİNYALI",
    "lat": 40.778765,
    "lon": 29.673185
  },
  {
    "id": "98170",
    "name": "ŞİRİNYALI ÜÇ EVLER 1",
    "lat": 40.77897984,
    "lon": 29.66803033
  },
  {
    "id": "98183",
    "name": "HEREKE D 100",
    "lat": 40.78628,
    "lon": 29.620515
  },
  {
    "id": "98181",
    "name": "HEREKE TEKEL",
    "lat": 40.7849021,
    "lon": 29.6214044
  },
  {
    "id": "98177",
    "name": "KOCAELİ ÜNİVERSİTESİ HEREKE BORUSAN KAMPÜSÜ",
    "lat": 40.7847421,
    "lon": 29.6199161
  },
  {
    "id": "98178",
    "name": "HEREKE DÖRTYOL",
    "lat": 40.7851672,
    "lon": 29.6166402
  },
  {
    "id": "98171",
    "name": "HEREKE TERMİNALİ",
    "lat": 40.7844326,
    "lon": 29.6151897
  },
  {
    "id": "80161",
    "name": "ÖVÜL TEZİŞLER 1",
    "lat": 40.76464333,
    "lon": 29.91899079
  },
  {
    "id": "42257",
    "name": "SADETTİN YALIM CADDESİ 1",
    "lat": 40.76651,
    "lon": 29.919233
  },
  {
    "id": "80163",
    "name": "METEOROLOJİ GÖZLEM YERİ 1",
    "lat": 40.766562,
    "lon": 29.917704
  },
  {
    "id": "40380",
    "name": "AKCAKOCA CAMİ",
    "lat": 40.7667025,
    "lon": 29.9210361
  },
  {
    "id": "81177",
    "name": "ŞAKİR",
    "lat": 40.768541,
    "lon": 29.918034
  },
  {
    "id": "11315",
    "name": "PALMİYE SOKAK",
    "lat": 40.769844,
    "lon": 29.918901
  },
  {
    "id": "80959",
    "name": "BAĞÇEŞME MEYDAN",
    "lat": 40.7698445,
    "lon": 29.92139
  },
  {
    "id": "41904",
    "name": "KORNİŞ CADDESİ",
    "lat": 40.77033,
    "lon": 29.92379
  },
  {
    "id": "80329",
    "name": "KORNİŞ CADDESİ 1",
    "lat": 40.771195,
    "lon": 29.925475
  },
  {
    "id": "81178",
    "name": "KAYMAZ SOKAK 1",
    "lat": 40.7716979,
    "lon": 29.9304899
  },
  {
    "id": "11048",
    "name": "MÜJDAT  AFŞİN PARKI",
    "lat": 40.771645,
    "lon": 29.929064
  },
  {
    "id": "81176",
    "name": "KAYMAZ SOKAK",
    "lat": 40.7709103,
    "lon": 29.9280347
  },
  {
    "id": "80328",
    "name": "KORNİŞ CADDESİ 3",
    "lat": 40.771988,
    "lon": 29.926755
  },
  {
    "id": "80325",
    "name": "RAIF BAKKAL DURAĞI",
    "lat": 40.769869,
    "lon": 29.9279
  },
  {
    "id": "80323",
    "name": "KORNİŞ CADDESİ 5",
    "lat": 40.771058,
    "lon": 29.929597
  },
  {
    "id": "80322",
    "name": "KORNİŞ CADDESİ 7",
    "lat": 40.76954433,
    "lon": 29.93053973
  },
  {
    "id": "10981",
    "name": "TERZİBAYIRI MUHTARLIĞI",
    "lat": 40.769978,
    "lon": 29.931725
  },
  {
    "id": "41903",
    "name": "KORNİŞ CADDESİ 8",
    "lat": 40.7717852,
    "lon": 29.9326506
  },
  {
    "id": "10992",
    "name": "TEVFİK FİKRET CADDESİ 1",
    "lat": 40.770958,
    "lon": 29.933207
  },
  {
    "id": "42158",
    "name": "ÖZKAHRAMAN SOKAK 1",
    "lat": 40.76951,
    "lon": 29.933699
  },
  {
    "id": "80320",
    "name": "BAÇ ÇINARLI CAMİ",
    "lat": 40.7674136,
    "lon": 29.9338805
  },
  {
    "id": "81219",
    "name": "BAĞÇEŞME İTFAİYE",
    "lat": 40.7706711,
    "lon": 29.9216024
  },
  {
    "id": "80960",
    "name": "SERZENİŞ SOKAK",
    "lat": 40.772124,
    "lon": 29.92223
  },
  {
    "id": "80244",
    "name": "HAYAT CADDESİ 1",
    "lat": 40.773973,
    "lon": 29.923743
  },
  {
    "id": "80246",
    "name": "GAFFAR OKKAN SOKAK",
    "lat": 40.775032,
    "lon": 29.924073
  },
  {
    "id": "11511",
    "name": "ŞEREF SOKAK 3",
    "lat": 40.777546,
    "lon": 29.925407
  },
  {
    "id": "11300",
    "name": "BAĞTEPE SOKAK 1",
    "lat": 40.777363,
    "lon": 29.926682
  },
  {
    "id": "81172",
    "name": "ŞEREF SOKAK 2",
    "lat": 40.7783386,
    "lon": 29.9284511
  },
  {
    "id": "11212",
    "name": "DAMLA SOKAK 1",
    "lat": 40.7780126,
    "lon": 29.9289491
  },
  {
    "id": "80961",
    "name": "ŞEHİT NAKİ ÖNDER SOKAK",
    "lat": 40.77895,
    "lon": 29.930632
  },
  {
    "id": "41909",
    "name": "BAĞÇEŞME HAYAT CADDESİ",
    "lat": 40.775887,
    "lon": 29.922678
  },
  {
    "id": "80963",
    "name": "GAFFAR OKKAN SOKAK 1",
    "lat": 40.774912,
    "lon": 29.9238315
  },
  {
    "id": "80245",
    "name": "HAYAT CADDESİ 2",
    "lat": 40.774036,
    "lon": 29.923618
  },
  {
    "id": "80243",
    "name": "SERZENİŞ SOKAK 1",
    "lat": 40.772162,
    "lon": 29.9221105
  },
  {
    "id": "80242",
    "name": "BAĞÇESME",
    "lat": 40.769741,
    "lon": 29.921176
  },
  {
    "id": "80327",
    "name": "KORNİŞ CADDESİ 2",
    "lat": 40.77185555,
    "lon": 29.92671082
  },
  {
    "id": "80248",
    "name": "TURGUT 1",
    "lat": 40.7763833,
    "lon": 29.9220012
  },
  {
    "id": "80198",
    "name": "ŞEHİT ÖĞRETMEN ERKAN AYDIN İLKOKULU",
    "lat": 40.78136,
    "lon": 29.916689
  },
  {
    "id": "80952",
    "name": "VADİ İZMİT",
    "lat": 40.778909,
    "lon": 29.91275
  },
  {
    "id": "81202",
    "name": "VADİKENT 3",
    "lat": 40.777486,
    "lon": 29.91083
  },
  {
    "id": "81203",
    "name": "VADİKENT 2",
    "lat": 40.776378,
    "lon": 29.906138
  },
  {
    "id": "80193",
    "name": "BEYHAN SOKAK 1",
    "lat": 40.7728295,
    "lon": 29.9091265
  },
  {
    "id": "81297",
    "name": "HÜR SOKAK",
    "lat": 40.775368,
    "lon": 29.909464
  },
  {
    "id": "81321",
    "name": "SİNEM SOKAK 1",
    "lat": 40.7749487,
    "lon": 29.9086222
  },
  {
    "id": "81298",
    "name": "SİNEM SOKAK",
    "lat": 40.7740986,
    "lon": 29.9087795
  },
  {
    "id": "80968",
    "name": "BEYHAN SOKAK 2",
    "lat": 40.7729305,
    "lon": 29.9090359
  },
  {
    "id": "80192",
    "name": "ZİYA PAŞA SOKAK 1",
    "lat": 40.7734355,
    "lon": 29.9100493
  },
  {
    "id": "80189",
    "name": "ŞAİRANE SOKAK",
    "lat": 40.7750036,
    "lon": 29.9115785
  },
  {
    "id": "81375",
    "name": "MİRALAY MÜMTAZ 2",
    "lat": 40.7743799,
    "lon": 29.9130884
  },
  {
    "id": "81363",
    "name": "CİHAN SOKAK 3",
    "lat": 40.7744899,
    "lon": 29.9141801
  },
  {
    "id": "81343",
    "name": "CİHAN SOKAK 1",
    "lat": 40.7724957,
    "lon": 29.9148617
  },
  {
    "id": "81344",
    "name": "CEVAHİR ANA SAĞLIK OCAĞI",
    "lat": 40.7709461,
    "lon": 29.9144393
  },
  {
    "id": "80736",
    "name": "İSMAİL KOLAYLI CADDESİ",
    "lat": 40.7696367,
    "lon": 29.9143488
  },
  {
    "id": "80751",
    "name": "MESUDİYE CAMİ",
    "lat": 40.7680237,
    "lon": 29.9131904
  },
  {
    "id": "81360",
    "name": "ATLAS SOKAK 2",
    "lat": 40.7677486,
    "lon": 29.914918
  },
  {
    "id": "80920",
    "name": "TURGUT MAHALLE MUHTARLIĞI",
    "lat": 40.768384,
    "lon": 29.915722
  },
  {
    "id": "81407",
    "name": "ORHAN VELİ SOKAK",
    "lat": 40.7669128,
    "lon": 29.9105128
  },
  {
    "id": "81332",
    "name": "NUMAN KAHYA SOKAK 1",
    "lat": 40.766616,
    "lon": 29.9147008
  },
  {
    "id": "80638",
    "name": "NUMAN KAHYA SOKAK",
    "lat": 40.7666723,
    "lon": 29.9148962
  },
  {
    "id": "80639",
    "name": "KADIBAYIRI CAMİ",
    "lat": 40.7675854,
    "lon": 29.9162964
  },
  {
    "id": "80217",
    "name": "TURGUT MAHALLE KONAĞI",
    "lat": 40.7685737,
    "lon": 29.9158407
  },
  {
    "id": "80321",
    "name": "MESUDİYE CAMİ 1",
    "lat": 40.7678701,
    "lon": 29.9133439
  },
  {
    "id": "80913",
    "name": "İSMAİL KOLAYLI CADDESİ 1",
    "lat": 40.7694777,
    "lon": 29.9144768
  },
  {
    "id": "80190",
    "name": "EGE SOKAK 1",
    "lat": 40.774672,
    "lon": 29.9113207
  },
  {
    "id": "80191",
    "name": "ZİYA PAŞA SOKAK 2",
    "lat": 40.7734259,
    "lon": 29.9098985
  },
  {
    "id": "81299",
    "name": "ALTUN SOKAK",
    "lat": 40.7764154,
    "lon": 29.9063755
  },
  {
    "id": "81300",
    "name": "ALTUN SOKAK 4",
    "lat": 40.7774315,
    "lon": 29.9110493
  },
  {
    "id": "80199",
    "name": "ŞEHİT ÖĞRETMEN ERKAN AYDIN ORTAOKULU",
    "lat": 40.781391,
    "lon": 29.91685
  },
  {
    "id": "80954",
    "name": "SILA SOKAK  1",
    "lat": 40.777633,
    "lon": 29.915446
  },
  {
    "id": "80955",
    "name": "HACI BAYRAM VELİ SOKAK",
    "lat": 40.77606088,
    "lon": 29.91486159
  },
  {
    "id": "80168",
    "name": "MURAT EVLER CAMİ",
    "lat": 40.7749469,
    "lon": 29.9150579
  },
  {
    "id": "80173",
    "name": "ERGUVAN SOKAK 2",
    "lat": 40.772929,
    "lon": 29.917556
  },
  {
    "id": "10968",
    "name": "KOCAELİ HUZUREVİ",
    "lat": 40.773623,
    "lon": 29.916753
  },
  {
    "id": "80995",
    "name": "ERTUĞRUL GAZİ İLKOKULU 2",
    "lat": 40.7705149,
    "lon": 29.9150863
  },
  {
    "id": "81255",
    "name": "DEMİRAĞA SOKAK",
    "lat": 40.7719638,
    "lon": 29.91687
  },
  {
    "id": "81180",
    "name": "MURAT EVLER CAMİ 1",
    "lat": 40.7749555,
    "lon": 29.9151058
  },
  {
    "id": "80169",
    "name": "HACI BAYRAM VELİ SOKAK 1",
    "lat": 40.776082,
    "lon": 29.914938
  },
  {
    "id": "80170",
    "name": "SILA SOKAK",
    "lat": 40.777541,
    "lon": 29.915529
  },
  {
    "id": "41902",
    "name": "ÖZ KAHRAMAN SOKAK",
    "lat": 40.769609,
    "lon": 29.933786
  },
  {
    "id": "80016",
    "name": "ESKİ TAŞOCAĞI SOKAK",
    "lat": 40.7697447,
    "lon": 29.9346644
  },
  {
    "id": "80761",
    "name": "SEKA SOKAK",
    "lat": 40.769122,
    "lon": 29.935378
  },
  {
    "id": "80866",
    "name": "TOPÇULAR SOKAK",
    "lat": 40.770656,
    "lon": 29.935856
  },
  {
    "id": "80319",
    "name": "TOPÇULAR YOLU CAMİ 1",
    "lat": 40.772333,
    "lon": 29.936382
  },
  {
    "id": "80318",
    "name": "ŞEREF MEYDANI",
    "lat": 40.774478,
    "lon": 29.936843
  },
  {
    "id": "80317",
    "name": "HİLAL SOKAK 4",
    "lat": 40.775975,
    "lon": 29.938264
  },
  {
    "id": "80315",
    "name": "TOPÇULAR İLKOKULU 1",
    "lat": 40.7764953,
    "lon": 29.9400615
  },
  {
    "id": "80310",
    "name": "TUANA EVLERİ 1",
    "lat": 40.78057252,
    "lon": 29.93239793
  },
  {
    "id": "80308",
    "name": "MUHAMMER AKSOY İLKOKULU 1",
    "lat": 40.779056,
    "lon": 29.934409
  },
  {
    "id": "80306",
    "name": "CEDİT",
    "lat": 40.7782055,
    "lon": 29.938471
  },
  {
    "id": "80931",
    "name": "ŞEHİT ÜMİT BALKAN 1",
    "lat": 40.776976,
    "lon": 29.941981
  },
  {
    "id": "41716",
    "name": "GAZETECİ KAZIM ERTEK CADDESİ",
    "lat": 40.7758902,
    "lon": 29.9450876
  },
  {
    "id": "41711",
    "name": "CEMRE SOKAK 4",
    "lat": 40.7755967,
    "lon": 29.9452052
  },
  {
    "id": "41258",
    "name": "DEVEBAĞIRTAN SOKAK 1",
    "lat": 40.7748243,
    "lon": 29.9425025
  },
  {
    "id": "80313",
    "name": "ERENLER DEVEBAĞIRTAN",
    "lat": 40.7755523,
    "lon": 29.9414802
  },
  {
    "id": "80314",
    "name": "TOPÇULAR İLKOKULU 2",
    "lat": 40.77653,
    "lon": 29.939761
  },
  {
    "id": "80316",
    "name": "HİLAL SOKAK 3",
    "lat": 40.776051,
    "lon": 29.938246
  },
  {
    "id": "80932",
    "name": "ŞEREF MEYDANI 1",
    "lat": 40.774498,
    "lon": 29.936766
  },
  {
    "id": "80933",
    "name": "TOPÇULAR YOLU CAMİ 2",
    "lat": 40.772324,
    "lon": 29.93633
  },
  {
    "id": "11299",
    "name": "TURGUT ÇOCUK BAHÇESİ",
    "lat": 40.7758706,
    "lon": 29.9205383
  },
  {
    "id": "41761",
    "name": "ÖZGÜL SOKAK",
    "lat": 40.775913,
    "lon": 29.919104
  },
  {
    "id": "41910",
    "name": "YEŞİLVADİ SOKAK",
    "lat": 40.776913,
    "lon": 29.918945
  },
  {
    "id": "11210",
    "name": "YEŞİL VADİ SOKAK 1",
    "lat": 40.7774459,
    "lon": 29.9216294
  },
  {
    "id": "41901",
    "name": "ANI SOKAK",
    "lat": 40.778185,
    "lon": 29.923246
  },
  {
    "id": "41907",
    "name": "DEVRAN CADDESİ 2",
    "lat": 40.777269,
    "lon": 29.928987
  },
  {
    "id": "41908",
    "name": "BAĞÇEŞME ŞEHİTLİK 1",
    "lat": 40.77617455,
    "lon": 29.92807278
  },
  {
    "id": "80172",
    "name": "DEVRAN CADDESİ",
    "lat": 40.7732812,
    "lon": 29.9239402
  },
  {
    "id": "80027",
    "name": "İZMİT MESLEKİ VE TEKNİK ANADOLU LİSESİ",
    "lat": 40.7646245,
    "lon": 29.9363386
  },
  {
    "id": "80966",
    "name": "MANOLYA SOKAK 3",
    "lat": 40.7774354,
    "lon": 29.9118641
  },
  {
    "id": "80967",
    "name": "MANOLYA SOKAK 2",
    "lat": 40.7760929,
    "lon": 29.9110103
  },
  {
    "id": "80195",
    "name": "BEYHAN SOKAK 3",
    "lat": 40.774077,
    "lon": 29.909853
  },
  {
    "id": "80230",
    "name": "KOÇAL SOKAK",
    "lat": 40.7740265,
    "lon": 29.9117206
  },
  {
    "id": "81137",
    "name": "KOÇAL SOKAK 2",
    "lat": 40.7705545,
    "lon": 29.9079651
  },
  {
    "id": "81256",
    "name": "ZABITAN MAHALLESİ",
    "lat": 40.7699025,
    "lon": 29.9069324
  },
  {
    "id": "80722",
    "name": "ZEYTİNLİK CAMİ",
    "lat": 40.7696608,
    "lon": 29.9052929
  },
  {
    "id": "80233",
    "name": "BAYRAKTAR SOKAK 2",
    "lat": 40.770163,
    "lon": 29.904515
  },
  {
    "id": "80234",
    "name": "TARİH SOKAK 1",
    "lat": 40.768799,
    "lon": 29.905512
  },
  {
    "id": "80236",
    "name": "ZABITAN ÜÇYOL 1",
    "lat": 40.767672,
    "lon": 29.906573
  },
  {
    "id": "80237",
    "name": "HACI ARİF CADDESİ 1",
    "lat": 40.767403,
    "lon": 29.908237
  },
  {
    "id": "41562",
    "name": "ZABITAN MAHALLESİ MAHALLE KONAĞI",
    "lat": 40.768343,
    "lon": 29.909244
  },
  {
    "id": "81194",
    "name": "NAMIK KEMAL CADDESİ 2",
    "lat": 40.76919,
    "lon": 29.910604
  },
  {
    "id": "80969",
    "name": "NAMIK KEMAL CADDESİ 3",
    "lat": 40.770835,
    "lon": 29.9115222
  },
  {
    "id": "80240",
    "name": "NAMIK KEMAL CADDESİ 4",
    "lat": 40.7707408,
    "lon": 29.9113975
  },
  {
    "id": "81193",
    "name": "NAMIK KEMAL CADDESİ 1",
    "lat": 40.7691161,
    "lon": 29.9103673
  },
  {
    "id": "80238",
    "name": "TÜPRAŞ SİTESİ 1",
    "lat": 40.768544,
    "lon": 29.909298
  },
  {
    "id": "80964",
    "name": "HACI ARİF CADDESİ",
    "lat": 40.767483,
    "lon": 29.908178
  },
  {
    "id": "80965",
    "name": "ZABITAN ÜÇYOL 2",
    "lat": 40.767758,
    "lon": 29.906621
  },
  {
    "id": "10924",
    "name": "ERTÜRK SOKAK",
    "lat": 40.7682838,
    "lon": 29.9062847
  },
  {
    "id": "80235",
    "name": "TARİH SOKAK",
    "lat": 40.7688792,
    "lon": 29.9054318
  },
  {
    "id": "80232",
    "name": "BAYRAKTAR SOKAK 1",
    "lat": 40.770129,
    "lon": 29.904649
  },
  {
    "id": "10915",
    "name": "CANDAN SOKAK",
    "lat": 40.7698304,
    "lon": 29.9069539
  },
  {
    "id": "80231",
    "name": "KOÇAL SOKAK 1",
    "lat": 40.774876,
    "lon": 29.912142
  },
  {
    "id": "80194",
    "name": "BEYHAN  SOKAK 4",
    "lat": 40.7738995,
    "lon": 29.9098532
  },
  {
    "id": "80196",
    "name": "MANOLYA SOKAK 1",
    "lat": 40.7760452,
    "lon": 29.9111629
  },
  {
    "id": "80197",
    "name": "MANOLYA SOKAK 4",
    "lat": 40.7773729,
    "lon": 29.912025
  },
  {
    "id": "80200",
    "name": "ALTUN SOKAK 1",
    "lat": 40.7833855,
    "lon": 29.9196331
  },
  {
    "id": "80202",
    "name": "DALYAN SOKAK 1",
    "lat": 40.784161,
    "lon": 29.921414
  },
  {
    "id": "80201",
    "name": "IRMAK SOKAK",
    "lat": 40.786356,
    "lon": 29.9229194
  },
  {
    "id": "80610",
    "name": "ALİ ÖRDEN CADDESİ 2",
    "lat": 40.7868643,
    "lon": 29.9218526
  },
  {
    "id": "81199",
    "name": "DEFNE SOKAK",
    "lat": 40.7879607,
    "lon": 29.9205115
  },
  {
    "id": "81289",
    "name": "FATİH CADDESİ 9",
    "lat": 40.7866287,
    "lon": 29.9198985
  },
  {
    "id": "81290",
    "name": "FATİH CADDESİ 10",
    "lat": 40.7850667,
    "lon": 29.9199194
  },
  {
    "id": "80203",
    "name": "TÜYSÜZLER 2",
    "lat": 40.78273796,
    "lon": 29.92107181
  },
  {
    "id": "80205",
    "name": "TÜYSÜZLER 1",
    "lat": 40.78215572,
    "lon": 29.92418266
  },
  {
    "id": "80167",
    "name": "SILA SOKAK 2",
    "lat": 40.773611,
    "lon": 29.914881
  },
  {
    "id": "11205",
    "name": "SABIRLI SOKAK 1",
    "lat": 40.7724472,
    "lon": 29.9163937
  },
  {
    "id": "80165",
    "name": "TURGUT CAMİ",
    "lat": 40.7705072,
    "lon": 29.9167599
  },
  {
    "id": "11206",
    "name": "KADIBAYIRI SOKAK",
    "lat": 40.7709989,
    "lon": 29.9178609
  },
  {
    "id": "80162",
    "name": "METEOROLOJİ GÖZLEM YERİ",
    "lat": 40.7664746,
    "lon": 29.9176175
  },
  {
    "id": "42255",
    "name": "SADETTİN YALIM CADDESİ",
    "lat": 40.766443,
    "lon": 29.919186
  },
  {
    "id": "80956",
    "name": "ÖVÜL TEZİŞLER CADDESİ",
    "lat": 40.76459,
    "lon": 29.918924
  },
  {
    "id": "80957",
    "name": "KOLORDU",
    "lat": 40.7640536,
    "lon": 29.9211039
  },
  {
    "id": "80038",
    "name": "YENİ TURAN 1",
    "lat": 40.7650567,
    "lon": 29.9238952
  },
  {
    "id": "81128",
    "name": "CAMİ ARKASI SOKAK 1",
    "lat": 40.770286,
    "lon": 29.918627
  },
  {
    "id": "80175",
    "name": "ÇINARALTI",
    "lat": 40.771617,
    "lon": 29.918227
  },
  {
    "id": "81254",
    "name": "CAMİ ARKASI SOKAK",
    "lat": 40.7707963,
    "lon": 29.9165062
  },
  {
    "id": "80171",
    "name": "ERGUVAN SOKAK 4",
    "lat": 40.773331,
    "lon": 29.916097
  },
  {
    "id": "80206",
    "name": "TÜYSÜZLER 4",
    "lat": 40.782187,
    "lon": 29.924409
  },
  {
    "id": "80204",
    "name": "TÜYSÜZLER 3",
    "lat": 40.78281,
    "lon": 29.921152
  },
  {
    "id": "80953",
    "name": "ALTUN SOKAK 2",
    "lat": 40.78349,
    "lon": 29.919538
  },
  {
    "id": "80095",
    "name": "KULFALLI CAMİ",
    "lat": 40.7940003,
    "lon": 29.8939759
  },
  {
    "id": "88001",
    "name": "KULFALI AŞAĞI PINAR DURAĞI",
    "lat": 40.7948553,
    "lon": 29.8924622
  },
  {
    "id": "40433",
    "name": "KAZAN SOKAK",
    "lat": 40.7995554,
    "lon": 29.8835587
  },
  {
    "id": "81235",
    "name": "AKPINAR KÖY İÇİ",
    "lat": 40.7964326,
    "lon": 29.8835241
  },
  {
    "id": "80093",
    "name": "AKPINAR MUHTARLIĞI",
    "lat": 40.7955487,
    "lon": 29.8832779
  },
  {
    "id": "88000",
    "name": "AKPINAR DURAĞI 2",
    "lat": 40.7942353,
    "lon": 29.8833183
  },
  {
    "id": "40435",
    "name": "AKPINARKÖYÜ MEZARLIĞI",
    "lat": 40.7921624,
    "lon": 29.8830137
  },
  {
    "id": "11578",
    "name": "AKPINARKÖYÜ KÜME EVLERİ",
    "lat": 40.7908102,
    "lon": 29.8839683
  },
  {
    "id": "44000",
    "name": "AKPINARKÖYÜ GİRİŞ",
    "lat": 40.7888776,
    "lon": 29.8833608
  },
  {
    "id": "81516",
    "name": "HATİPKÖY ÇIKIŞ 1",
    "lat": 40.7766391,
    "lon": 29.8809106
  },
  {
    "id": "80022",
    "name": "HATİPKÖY",
    "lat": 40.77547862,
    "lon": 29.88039273
  },
  {
    "id": "42171",
    "name": "HARMAN PARKI",
    "lat": 40.773451,
    "lon": 29.87844
  },
  {
    "id": "81126",
    "name": "KEMAL ÇELEBİ CADDESİ",
    "lat": 40.77196,
    "lon": 29.878286
  },
  {
    "id": "80021",
    "name": "HATİPKÖY VİLLALARI 1",
    "lat": 40.77294605,
    "lon": 29.8769394
  },
  {
    "id": "41435",
    "name": "ŞEHİT ARİF MEYDAN",
    "lat": 40.77398,
    "lon": 29.876009
  },
  {
    "id": "41437",
    "name": "BEŞEVLER SOKAK 1",
    "lat": 40.77290607,
    "lon": 29.87470939
  },
  {
    "id": "80014",
    "name": "GÜL PARKI",
    "lat": 40.77008,
    "lon": 29.874471
  },
  {
    "id": "41412",
    "name": "İSMAİL ÖZEN CADDESİ 1",
    "lat": 40.76879301,
    "lon": 29.87460226
  },
  {
    "id": "41392",
    "name": "KURUCEŞME MERKEZ CAMİ",
    "lat": 40.76627,
    "lon": 29.874514
  },
  {
    "id": "80077",
    "name": "KURUÇEŞME POLİS MERKEZİ",
    "lat": 40.764734,
    "lon": 29.875596
  },
  {
    "id": "81356",
    "name": "KURUÇEŞME TRAMVAY DEPOLAMA ALANI",
    "lat": 40.763746,
    "lon": 29.877246
  },
  {
    "id": "81355",
    "name": "ASALET SOKAK",
    "lat": 40.7641104,
    "lon": 29.881146
  },
  {
    "id": "80079",
    "name": "KURUÇEŞME POLİS MERKEZİ AMİRLİĞİ",
    "lat": 40.764965,
    "lon": 29.87517
  },
  {
    "id": "41397",
    "name": "İSMAİL ÖZEN CADDESİ",
    "lat": 40.768524,
    "lon": 29.874683
  },
  {
    "id": "80991",
    "name": "GÜL PARKI 1",
    "lat": 40.770111,
    "lon": 29.874611
  },