[
  {
    "id": "39001",
    "name": "TERMINAL",
    "lat": 41.4045373,
    "lon": 27.347064,
    "routes": [
      "39101",
      "39102",
      "39103",
      "39104",
      "39105",
      "39106",
      "39107",
      "39108"
    ]
  },
  {
    "id": "39002",
    "name": "ONUR MARKET",
    "lat": 41.4057141,
    "lon": 27.35077,
    "routes": [
      "39101",
      "39102",
      "39103",
      "39104",
      "39105",
      "39106",
      "39107",
      "39108"
    ]
  },
  {
    "id": "39004",
    "name": "DERMAN HASTANESI YANI",
    "lat": 41.4038497,
    "lon": 27.355189,
    "routes": [
      "39101",
      "39102",
      "39103",
      "39104",
      "39105",
      "39106",
      "39107",
      "39108"
    ]
  },
  {
    "id": "39011",
    "name": "MIGROS",
    "lat": 41.4009592,
    "lon": 27.3711197,
    "routes": []
  },
  {
    "id": "39012",
    "name": "ENDUSTRI MESLEK",
    "lat": 41.398703,
    "lon": 27.376254,
    "routes": []
  },
  {
    "id": "39015",
    "name": "MESLEK YUKSEK OKULU",
    "lat": 41.382982,
    "lon": 27.394031,
    "routes": []
  },
  {
    "id": "39019",
    "name": "TEK LOJMANLARI",
    "lat": 41.399095,
    "lon": 27.376304,
    "routes": []
  },
  {
    "id": "39020",
    "name": "HEAS LOJMANLARI",
    "lat": 41.3997627,
    "lon": 27.3763757,
    "routes": [
      "39101"
    ]
  },
  {
    "id": "39022",
    "name": "TOTAL BENZINLIK",
    "lat": 41.401431,
    "lon": 27.370574,
    "routes": [
      "39101"
    ]
  },
  {
    "id": "39027",
    "name": "LULEBURGAZ LISESI",
    "lat": 41.402495,
    "lon": 27.3553018,
    "routes": []
  },
  {
    "id": "39029",
    "name": "KONGRE MEYDANI",
    "lat": 41.4067234,
    "lon": 27.3550605,
    "routes": [
      "39101",
      "39104"
    ]
  },
  {
    "id": "39035",
    "name": "PAZAR YERI",
    "lat": 41.4005197,
    "lon": 27.3453865,
    "routes": []
  },
  {
    "id": "39039",
    "name": "NOKTA",
    "lat": 41.4036222,
    "lon": 27.3640173,
    "routes": [
      "39101",
      "39104",
      "39105",
      "39108"
    ]
  },
  {
    "id": "39042",
    "name": "PINAR MARKET",
    "lat": 41.405613,
    "lon": 27.36857,
    "routes": [
      "39105"
    ]
  },
  {
    "id": "39046",
    "name": "ECZACIBASI SON DURAK",
    "lat": 41.4037642,
    "lon": 27.3751302,
    "routes": [
      "39105"
    ]
  },
  {
    "id": "39051",
    "name": "NOKTA DONUS",
    "lat": 41.403752,
    "lon": 27.364022,
    "routes": [
      "39101",
      "39104",
      "39105",
      "39108"
    ]
  },
  {
    "id": "39057",
    "name": "KUŞTEPE KÖŞE",
    "lat": 41.4127917,
    "lon": 27.3698981,
    "routes": [
      "39104"
    ]
  },
  {
    "id": "39058",
    "name": "MİŞON",
    "lat": 41.408093,
    "lon": 27.366003,
    "routes": [
      "39104"
    ]
  },
  {
    "id": "39083",
    "name": "CARIKCI PARKI",
    "lat": 41.3937538,
    "lon": 27.3628368,
    "routes": [
      "39102"
    ]
  },
  {
    "id": "39085",
    "name": "LEVENT TAKSI",
    "lat": 41.395453,
    "lon": 27.3573157,
    "routes": [
      "39102"
    ]
  },
  {
    "id": "39088",
    "name": "DAMAK",
    "lat": 41.3984353,
    "lon": 27.3616865,
    "routes": [
      "39102"
    ]
  },
  {
    "id": "39096",
    "name": "ASKERI LOJMANLAR2",
    "lat": 41.399871,
    "lon": 27.354358,
    "routes": [
      "39106"
    ]
  },
  {
    "id": "39098",
    "name": "SEYTAN DURAGI",
    "lat": 41.396245,
    "lon": 27.352848,
    "routes": [
      "39103",
      "39107"
    ]
  },
  {
    "id": "39109",
    "name": "AYDINKENT",
    "lat": 41.3895136,
    "lon": 27.349547,
    "routes": [
      "39103"
    ]
  },
  {
    "id": "39131",
    "name": "ADLİYE2",
    "lat": 41.397221,
    "lon": 27.3486003,
    "routes": [
      "39106"
    ]
  },
  {
    "id": "39140",
    "name": "NEFES HASTANESİ",
    "lat": 41.39296,
    "lon": 27.358394,
    "routes": [
      "39107"
    ]
  },
  {
    "id": "39148",
    "name": "TOKİ KIZ YURDU",
    "lat": 41.382753,
    "lon": 27.3604126,
    "routes": [
      "39107"
    ]
  },
  {
    "id": "39149",
    "name": "TOKİ GİRİŞ",
    "lat": 41.3843323,
    "lon": 27.3553871,
    "routes": [
      "39107"
    ]
  },
  {
    "id": "39167",
    "name": "MEDIKENT",
    "lat": 41.407823,
    "lon": 27.332987,
    "routes": [
      "39109"
    ]
  },
  {
    "id": "39172",
    "name": "CESME MEYDAN",
    "lat": 41.409551,
    "lon": 27.35375,
    "routes": []
  },
  {
    "id": "39178",
    "name": "ZİRAAT BANKASI",
    "lat": 41.4084923,
    "lon": 27.3511158,
    "routes": [
      "39109"
    ]
  },
  {
    "id": "39180",
    "name": "SİGORTA",
    "lat": 41.401702,
    "lon": 27.3637845,
    "routes": [
      "39102"
    ]
  },
  {
    "id": "39185",
    "name": "LEVENT TAKSI 2",
    "lat": 41.3953985,
    "lon": 27.3572753,
    "routes": [
      "39102"
    ]
  },
  {
    "id": "39187",
    "name": "CARIKCI PARKI 2",
    "lat": 41.3938141,
    "lon": 27.3627523,
    "routes": [
      "39102"
    ]
  },
  {
    "id": "39189",
    "name": "SİGORTA 2",
    "lat": 41.4017148,
    "lon": 27.3638746,
    "routes": [
      "39102"
    ]
  },
  {
    "id": "39193",
    "name": "MEYDAN",
    "lat": 41.3569063,
    "lon": 27.3349273,
    "routes": [
      "39103"
    ]
  },
  {
    "id": "39195",
    "name": "İSTASYON ÇIKIŞ",
    "lat": 41.361849,
    "lon": 27.3368955,
    "routes": [
      "39103"
    ]
  },
  {
    "id": "39199",
    "name": "SEYTAN DURAGI 2",
    "lat": 41.3961442,
    "lon": 27.3530195,
    "routes": [
      "39103"
    ]
  },
  {
    "id": "39201",
    "name": "OZLEM MARKET 2",
    "lat": 41.4129128,
    "lon": 27.3649354,
    "routes": [
      "39104"
    ]
  },
  {
    "id": "39209",
    "name": "TOSUN KIRAATHANESİ 2",
    "lat": 41.402379,
    "lon": 27.372098,
    "routes": [
      "39105"
    ]
  },
  {
    "id": "39224",
    "name": "ŞOK MARKET 2",
    "lat": 41.3942741,
    "lon": 27.367255,
    "routes": [
      "39108"
    ]
  },
  {
    "id": "39227",
    "name": "YILDIZ PARK",
    "lat": 41.3991341,
    "lon": 27.3701119,
    "routes": [
      "39108"
    ]
  },
  {
    "id": "39233",
    "name": "MEDIKENT 2",
    "lat": 41.4077948,
    "lon": 27.332944,
    "routes": [
      "39109"
    ]
  },
  {
    "id": "39240",
    "name": "CESME MEYDANI KARSISI",
    "lat": 41.4093981,
    "lon": 27.3537607,
    "routes": []
  },
  {
    "id": "39254",
    "name": "PAZAR YERİ",
    "lat": 41.4004665,
    "lon": 27.3454649,
    "routes": [
      "39101",
      "39102",
      "39103",
      "39104",
      "39105",
      "39106",
      "39107",
      "39108"
    ]
  },
  {
    "id": "39255",
    "name": "DOĞA KOLEJİ",
    "lat": 41.3908298,
    "lon": 27.3740549,
    "routes": [
      "39108"
    ]
  },
  {
    "id": "39256",
    "name": "HÜKÜMET KONAĞI",
    "lat": 41.3897138,
    "lon": 27.37091,
    "routes": [
      "39108"
    ]
  },
  {
    "id": "39257",
    "name": "ALYA KONUTLARI-1",
    "lat": 41.3887007,
    "lon": 27.3615173,
    "routes": [
      "39102"
    ]
  },
  {
    "id": "39258",
    "name": "SAKIZKÖY MEYDAN",
    "lat": 41.4125432,
    "lon": 27.3596633,
    "routes": [
      "39104"
    ]
  },
  {
    "id": "39259",
    "name": "PAZARYERİ SON",
    "lat": 41.4011989,
    "lon": 27.345925,
    "routes": [
      "39101",
      "39102",
      "39103",
      "39104",
      "39105",
      "39106",
      "39108"
    ]
  },
  {
    "id": "39302",
    "name": "YENİ HASTANE",
    "lat": 41.3984104,
    "lon": 27.3736511,
    "routes": [
      "39101"
    ]
  },
  {
    "id": "39290",
    "name": "ALYA 3",
    "lat": 41.3874379,
    "lon": 27.3672607,
    "routes": [
      "39102"
    ]
  },
  {
    "id": "39301",
    "name": "ALYA3",
    "lat": 41.3866935,
    "lon": 27.3660363,
    "routes": [
      "39102"
    ]
  },
  {
    "id": "39264",
    "name": "ORDUEVİ",
    "lat": 41.4041967,
    "lon": 27.3558385,
    "routes": [
      "39102",
      "39103"
    ]
  },
  {
    "id": "39292",
    "name": "39 Burda",
    "lat": 41.38645,
    "lon": 27.3477409,
    "routes": [
      "39103",
      "39106",
      "39107"
    ]
  },
  {
    "id": "39406",
    "name": "FİDANLIK",
    "lat": 41.3560923,
    "lon": 27.3257803,
    "routes": [
      "39103"
    ]
  },
  {
    "id": "39402",
    "name": "DURAK MAHALLESİ CAMİSİ",
    "lat": 41.3568291,
    "lon": 27.3353357,
    "routes": [
      "39103"
    ]
  },
  {
    "id": "39405",
    "name": "ATATÜRK ANADOLU LİSESİ",
    "lat": 41.40407,
    "lon": 27.35505,
    "routes": [
      "39104"
    ]
  },
  {
    "id": "39293",
    "name": "AKIM KOLEJI",
    "lat": 41.3914787,
    "lon": 27.3497499,
    "routes": [
      "39106"
    ]
  },
  {
    "id": "39291",
    "name": "MINIBUS GARAJI",
    "lat": 41.3963037,
    "lon": 27.3419168,
    "routes": [
      "39107"
    ]
  },
  {
    "id": "39295",
    "name": "LYSA",
    "lat": 41.3967604,
    "lon": 27.3725002,
    "routes": [
      "39107"
    ]
  },
  {
    "id": "99992",
    "name": "TEST2",
    "lat": 41.4943945,
    "lon": 27.3694695,
    "routes": []
  },
  {
    "id": "99991",
    "name": "TEST1",
    "lat": 41.4964517,
    "lon": 27.3718727,
    "routes": []
  }
]