[
  {
    "id": "10001",
    "name": "Mercan",
    "lat": 37.323979,
    "lon": 40.735921,
    "routes": [
      "00191",
      "10190"
    ]
  },
  {
    "id": "10002",
    "name": "Mercan",
    "lat": 37.323968,
    "lon": 40.735696,
    "routes": [
      "00220",
      "10190"
    ]
  },
  {
    "id": "10003",
    "name": "Kasrı Mardin",
    "lat": 37.323339,
    "lon": 40.732574,
    "routes": [
      "00191",
      "00220"
    ]
  },
  {
    "id": "10004",
    "name": "Kasrı Mardin",
    "lat": 37.323216,
    "lon": 40.732598,
    "routes": [
      "00191"
    ]
  },
  {
    "id": "10005",
    "name": "Kız Yurdu",
    "lat": 37.323456,
    "lon": 40.730426,
    "routes": [
      "00191",
      "00220"
    ]
  },
  {
    "id": "10006",
    "name": "Kız Yurdu",
    "lat": 37.32321,
    "lon": 40.730094,
    "routes": [
      "00191"
    ]
  },
  {
    "id": "10007",
    "name": "Yalım Mah. 5",
    "lat": 37.324615,
    "lon": 40.730447,
    "routes": [
      "00191",
      "00220"
    ]
  },
  {
    "id": "10008",
    "name": "Yalım Mah. 6",
    "lat": 37.324494,
    "lon": 40.730015,
    "routes": [
      "00191"
    ]
  },
  {
    "id": "10009",
    "name": "Yalım Mah. 7",
    "lat": 37.324707,
    "lon": 40.727251,
    "routes": [
      "00191",
      "00220"
    ]
  },
  {
    "id": "10010",
    "name": "Yalım Mah. 8",
    "lat": 37.324552,
    "lon": 40.726945,
    "routes": [
      "00191"
    ]
  },
  {
    "id": "10011",
    "name": "13 Mart",
    "lat": 37.324814,
    "lon": 40.725731,
    "routes": [
      "00191",
      "00220"
    ]
  },
  {
    "id": "10012",
    "name": "Halk Eğitim Müdürlüğü",
    "lat": 37.327484,
    "lon": 40.725422,
    "routes": [
      "00191"
    ]
  },
  {
    "id": "10013",
    "name": "Şakir Nuhoğlu Lisesi",
    "lat": 37.329633,
    "lon": 40.725392,
    "routes": [
      "00180",
      "10190"
    ]
  },
  {
    "id": "10014",
    "name": "Polis Lojmanları",
    "lat": 37.331924,
    "lon": 40.725436,
    "routes": [
      "00180",
      "10190",
      "10210"
    ]
  },
  {
    "id": "10015",
    "name": "Mükerrem Tüfekçoğlu 1",
    "lat": 37.331996,
    "lon": 40.723653,
    "routes": [
      "10190"
    ]
  },
  {
    "id": "10016",
    "name": "Mükerrem Tüfekçoğlu 2",
    "lat": 37.331948,
    "lon": 40.722648,
    "routes": [
      "00180",
      "10190"
    ]
  },
  {
    "id": "10017",
    "name": "Abdulkadir Tutaşı İlkokulu",
    "lat": 37.329315,
    "lon": 40.722993,
    "routes": [
      "00180",
      "00191",
      "10190",
      "10210"
    ]
  },
  {
    "id": "10018",
    "name": "Saruhan Camii",
    "lat": 37.321751,
    "lon": 40.73129,
    "routes": [
      "10000",
      "10020",
      "10030",
      "10040",
      "10050",
      "10060",
      "10070",
      "10080",
      "10090",
      "10100",
      "10201",
      "10211",
      "51020",
      "51040",
      "90060",
      "90070",
      "90071",
      "90080"
    ]
  },
  {
    "id": "10019",
    "name": "Yalım",
    "lat": 37.322185,
    "lon": 40.736609,
    "routes": [
      "10000",
      "10020",
      "10030",
      "10040",
      "10050",
      "10060",
      "10070",
      "10080",
      "10090",
      "10100",
      "10201",
      "10211",
      "51020",
      "51040",
      "90060",
      "90070",
      "90071",
      "90080"
    ]
  },
  {
    "id": "10020",
    "name": "Kalekent Sitesi",
    "lat": 37.323081,
    "lon": 40.742158,
    "routes": [
      "00191",
      "10000",
      "10020",
      "10030",
      "10040",
      "10050",
      "10060",
      "10070",
      "10080",
      "10090",
      "10100",
      "10201",
      "10211",
      "51020",
      "51030",
      "51040",
      "90060",
      "90070",
      "90071",
      "90080"
    ]
  },
  {
    "id": "10021",
    "name": "Altınşehir Sitesi",
    "lat": 37.324499,
    "lon": 40.748057,
    "routes": [
      "00191",
      "10000",
      "10020",
      "10030",
      "10040",
      "10050",
      "10060",
      "10070",
      "10080",
      "10090",
      "10100",
      "10201",
      "10211",
      "51020",
      "51030",
      "51040",
      "90060",
      "90070",
      "90071",
      "90080"
    ]
  },
  {
    "id": "10022",
    "name": "Mavişehir Sitesi",
    "lat": 37.326852,
    "lon": 40.755768,
    "routes": [
      "00191",
      "10000",
      "10020",
      "10030",
      "10040",
      "10050",
      "10060",
      "10070",
      "10080",
      "10090",
      "10100",
      "10201",
      "10211",
      "51020",
      "51030",
      "51040",
      "90060",
      "90070",
      "90071",
      "90080"
    ]
  },
  {
    "id": "10023",
    "name": "İl Tarım Müdürlüğü",
    "lat": 37.352108,
    "lon": 40.654223,
    "routes": [
      "10050",
      "90080"
    ]
  },
  {
    "id": "10024",
    "name": "Marsu",
    "lat": 37.3178697,
    "lon": 40.7238992,
    "routes": [
      "00160"
    ]
  },
  {
    "id": "10025",
    "name": "Marsu",
    "lat": 37.317805,
    "lon": 40.723998,
    "routes": [
      "00160"
    ]
  },
  {
    "id": "10026",
    "name": "Şimal",
    "lat": 37.31067,
    "lon": 40.731261,
    "routes": [
      "00010",
      "00020",
      "00030",
      "00160",
      "00172",
      "00180",
      "00190",
      "00210",
      "10191",
      "10200",
      "90040"
    ]
  },
  {
    "id": "10027",
    "name": "Cezaevi",
    "lat": 37.30418,
    "lon": 40.762245,
    "routes": [
      "00020",
      "00171",
      "00210",
      "10070",
      "10191",
      "90020",
      "90070",
      "90071"
    ]
  },
  {
    "id": "10028",
    "name": "Kayacan",
    "lat": 37.314276,
    "lon": 40.758481,
    "routes": [
      "00020",
      "00171",
      "00210",
      "10070",
      "10191",
      "10200",
      "10201",
      "90020",
      "90070",
      "90071"
    ]
  },
  {
    "id": "10029",
    "name": "Kapalı Spor Salonu",
    "lat": 37.315041,
    "lon": 40.756786,
    "routes": [
      "00020",
      "00171",
      "00210",
      "10070",
      "10191",
      "10200",
      "10201",
      "90020",
      "90070",
      "90071"
    ]
  },
  {
    "id": "10030",
    "name": "Abbara",
    "lat": 37.316158,
    "lon": 40.728694,
    "routes": [
      "00160",
      "00171",
      "00172",
      "00180",
      "00190",
      "00210",
      "00220",
      "10210"
    ]
  },
  {
    "id": "10031",
    "name": "Diyarbakır Kapı",
    "lat": 37.313152,
    "lon": 40.728269,
    "routes": [
      "00160",
      "00171",
      "00172",
      "00180",
      "00190",
      "00210",
      "00220",
      "10210"
    ]
  },
  {
    "id": "10032",
    "name": "Şeyh Çabuk Camii",
    "lat": 37.313046,
    "lon": 40.731909,
    "routes": [
      "00160",
      "00171",
      "00172",
      "00180",
      "00190",
      "00210",
      "00220"
    ]
  },
  {
    "id": "10033",
    "name": "Cumhuriyet Meydanı",
    "lat": 37.313033,
    "lon": 40.735019,
    "routes": [
      "00160",
      "00171",
      "00172",
      "00180",
      "00190",
      "00210",
      "00220"
    ]
  },
  {
    "id": "10034",
    "name": "Tuğmaner",
    "lat": 37.313307,
    "lon": 40.737434,
    "routes": [
      "00160",
      "00171",
      "00172",
      "00180",
      "00190",
      "00210",
      "00220"
    ]
  },
  {
    "id": "10035",
    "name": "Kuyumcular",
    "lat": 37.313386,
    "lon": 40.73975,
    "routes": [
      "00160",
      "00171",
      "00172",
      "00180",
      "00190",
      "00210",
      "00220"
    ]
  },
  {
    "id": "10036",
    "name": "Şehidiye Camii",
    "lat": 37.314195,
    "lon": 40.742958,
    "routes": [
      "00160",
      "00171",
      "00172",
      "00180",
      "00190",
      "00210",
      "00220"
    ]
  },
  {
    "id": "10037",
    "name": "Melik Mahmut Camii",
    "lat": 37.31395,
    "lon": 40.747808,
    "routes": [
      "00160",
      "00171",
      "00172",
      "00180",
      "00190",
      "00210",
      "00220"
    ]
  },
  {
    "id": "10038",
    "name": "Savur Kapı",
    "lat": 37.316442,
    "lon": 40.751017,
    "routes": [
      "00160",
      "00171",
      "00172",
      "00180",
      "00190",
      "00210",
      "00220"
    ]
  },
  {
    "id": "10039",
    "name": "Sultan",
    "lat": 37.319654,
    "lon": 40.724852,
    "routes": [
      "00160",
      "00171"
    ]
  },
  {
    "id": "10040",
    "name": "Gençlik Merkezi",
    "lat": 37.323196,
    "lon": 40.715926,
    "routes": [
      "00160",
      "00171",
      "00172",
      "10211",
      "90040",
      "90042"
    ]
  },
  {
    "id": "10041",
    "name": "Selçuklu",
    "lat": 37.322108,
    "lon": 40.71753,
    "routes": [
      "00160"
    ]
  },
  {
    "id": "10042",
    "name": "Tatlı Dede",
    "lat": 37.320758,
    "lon": 40.718747,
    "routes": [
      "00160"
    ]
  },
  {
    "id": "10043",
    "name": "Ravza Caddesi",
    "lat": 37.318782,
    "lon": 40.721341,
    "routes": [
      "00160"
    ]
  },
  {
    "id": "10044",
    "name": "Barış Cad.",
    "lat": 37.324036,
    "lon": 40.719647,
    "routes": [
      "00171",
      "00172"
    ]
  },
  {
    "id": "10045",
    "name": "15 Temmuz",
    "lat": 37.3230406,
    "lon": 40.7229365,
    "routes": [
      "00010",
      "00020",
      "00030",
      "00180",
      "00190",
      "10000",
      "10030",
      "10040",
      "10050",
      "10060",
      "10070",
      "10080",
      "10090",
      "10100",
      "10190",
      "10191",
      "10200",
      "10201",
      "10210",
      "10211",
      "51020",
      "51030",
      "90040",
      "90060",
      "90070",
      "90071",
      "90080"
    ]
  },
  {
    "id": "10046",
    "name": "Dara",
    "lat": 37.325953,
    "lon": 40.723016,
    "routes": [
      "00180",
      "00191"
    ]
  },
  {
    "id": "10047",
    "name": "Dara",
    "lat": 37.326093,
    "lon": 40.723168,
    "routes": [
      "00180",
      "00191"
    ]
  },
  {
    "id": "10048",
    "name": "Park Hastanesi",
    "lat": 37.325765,
    "lon": 40.720633,
    "routes": [
      "00151",
      "00180",
      "00191"
    ]
  },
  {
    "id": "10049",
    "name": "Mehtap Caddesi",
    "lat": 37.326105,
    "lon": 40.719574,
    "routes": [
      "00151",
      "00180",
      "00191"
    ]
  },
  {
    "id": "10050",
    "name": "Bozkuş",
    "lat": 37.32661,
    "lon": 40.717839,
    "routes": [
      "00151",
      "00180"
    ]
  },
  {
    "id": "60013",
    "name": "Demir Yolu",
    "lat": 37.075067,
    "lon": 41.208697,
    "routes": [
      "10070",
      "30040",
      "30060",
      "30080",
      "30130"
    ]
  },
  {
    "id": "60017",
    "name": "Kocaeli Parkı",
    "lat": 37.0782448,
    "lon": 41.2077025,
    "routes": [
      "10070",
      "30040",
      "30060",
      "30080",
      "30130"
    ]
  },
  {
    "id": "60019",
    "name": "8 Mart Muhtarlık",
    "lat": 37.0802039,
    "lon": 41.2066146,
    "routes": [
      "10070",
      "30040",
      "30060",
      "30080",
      "30130"
    ]
  },
  {
    "id": "60020",
    "name": "Tarım Kooperatif",
    "lat": 37.0822784,
    "lon": 41.20538,
    "routes": [
      "10070",
      "30040",
      "30060",
      "30080",
      "30130"
    ]
  },
  {
    "id": "60018",
    "name": "Dem Sitesi",
    "lat": 37.084301,
    "lon": 41.204182,
    "routes": [
      "10070",
      "30040",
      "30060",
      "30080",
      "30130"
    ]
  },
  {
    "id": "60022",
    "name": "Medya",
    "lat": 37.0876753,
    "lon": 41.2021695,
    "routes": [
      "10070",
      "30040",
      "30060",
      "30080",
      "30130"
    ]
  },
  {
    "id": "60025",
    "name": "Damla Koleji",
    "lat": 37.0885986,
    "lon": 41.2017046,
    "routes": [
      "10070",
      "30040",
      "30060",
      "30080",
      "30130"
    ]
  },
  {
    "id": "60023",
    "name": "Barış",
    "lat": 37.0908638,
    "lon": 41.2002168,
    "routes": [
      "10070",
      "30010",
      "30040",
      "30060",
      "30080",
      "30090",
      "30130"
    ]
  },
  {
    "id": "60064",
    "name": "Bilal Habeşi Camii",
    "lat": 37.0913059,
    "lon": 41.2127779,
    "routes": [
      "30120"
    ]
  },
  {
    "id": "30073",
    "name": "Catalözü Mezarlık",
    "lat": 37.094333,
    "lon": 41.2147306,
    "routes": []
  },
  {
    "id": "60068",
    "name": "Selin Sitesi",
    "lat": 37.0975207,
    "lon": 41.216851,
    "routes": [
      "30120"
    ]
  },
  {
    "id": "60070",
    "name": "Çatalözü Mahallesi",
    "lat": 37.1003574,
    "lon": 41.2187062,
    "routes": [
      "30120"
    ]
  },
  {
    "id": "60071",
    "name": "Çağlar Camii",
    "lat": 37.1126511,
    "lon": 41.2266575,
    "routes": [
      "30120"
    ]
  },
  {
    "id": "60072",
    "name": "Baraj",
    "lat": 37.1170654,
    "lon": 41.2289319,
    "routes": [
      "30120"
    ]
  },
  {
    "id": "30106",
    "name": "Budaklı Mahallesi",
    "lat": 37.3781309,
    "lon": 41.348037,
    "routes": []
  },
  {
    "id": "50030",
    "name": "Mermid Tekstil 2",
    "lat": 37.415985,
    "lon": 41.343308,
    "routes": [
      "40020"
    ]
  },
  {
    "id": "50028",
    "name": "Binbir Kargo",
    "lat": 37.418888,
    "lon": 41.344748,
    "routes": [
      "40020"
    ]
  },
  {
    "id": "50026",
    "name": "Nene Hatun Lisesi 2",
    "lat": 37.424673,
    "lon": 41.339933,
    "routes": [
      "40011",
      "40030"
    ]
  },
  {
    "id": "50024",
    "name": "Otogar",
    "lat": 37.428002,
    "lon": 41.339133,
    "routes": [
      "10060",
      "40011"
    ]
  },
  {
    "id": "50025",
    "name": "Nene Hatun Lisesi 1",
    "lat": 37.42446,
    "lon": 41.339772,
    "routes": [
      "10060",
      "40011",
      "40030"
    ]
  },
  {
    "id": "50006",
    "name": "Noter",
    "lat": 37.421212,
    "lon": 41.345634,
    "routes": [
      "40020"
    ]
  },
  {
    "id": "50027",
    "name": "Binbir Kargo",
    "lat": 37.419055,
    "lon": 41.344461,
    "routes": [
      "40020"
    ]
  },
  {
    "id": "50029",
    "name": "Mermid Tekstil 1",
    "lat": 37.415996,
    "lon": 41.342993,
    "routes": [
      "40020"
    ]
  },
  {
    "id": "30105",
    "name": "Budaklı Mahallesi",
    "lat": 37.3781331,
    "lon": 41.3479286,
    "routes": []
  },
  {
    "id": "60073",
    "name": "Çağlar Mahallesi",
    "lat": 37.1134133,
    "lon": 41.2269876,
    "routes": [
      "30120"
    ]
  },
  {
    "id": "30048",
    "name": "Çatalözü Mahallesi",
    "lat": 37.101198,
    "lon": 41.218988,
    "routes": [
      "30120"
    ]
  },
  {
    "id": "60069",
    "name": "Selin Sitesi",
    "lat": 37.0980124,
    "lon": 41.2169991,
    "routes": [
      "30120"
    ]
  },
  {
    "id": "60066",
    "name": "Catalözü Mezarlık",
    "lat": 37.0945104,
    "lon": 41.2146913,
    "routes": [
      "30120"
    ]
  },
  {
    "id": "60065",
    "name": "Bilal Habeşi Camii",
    "lat": 37.0918314,
    "lon": 41.2128898,
    "routes": [
      "30120"
    ]
  },
  {
    "id": "60024",
    "name": "Barış",
    "lat": 37.0907989,
    "lon": 41.200063,
    "routes": [
      "10070",
      "30010",
      "30060",
      "30080",
      "30090",
      "30130"
    ]
  },
  {
    "id": "60009",
    "name": "Şehri Med",
    "lat": 37.088559,
    "lon": 41.201424,
    "routes": [
      "10070",
      "30060",
      "30080",
      "30090",
      "30130"
    ]
  },
  {
    "id": "60008",
    "name": "Medya",
    "lat": 37.087013,
    "lon": 41.202309,
    "routes": [
      "10070",
      "30060",
      "30080",
      "30130"
    ]
  },
  {
    "id": "60007",
    "name": "Dem Sitesi",
    "lat": 37.0839423,
    "lon": 41.2040927,
    "routes": [
      "10070",
      "30060",
      "30080",
      "30130"
    ]
  },
  {
    "id": "60006",
    "name": "Tarım Kredi Kooperatifi",
    "lat": 37.0823462,
    "lon": 41.2050612,
    "routes": [
      "10070",
      "30060",
      "30080",
      "30130"
    ]
  },
  {
    "id": "60015",
    "name": "8 Mart Muhtarlık",
    "lat": 37.0800439,
    "lon": 41.2063708,
    "routes": [
      "10070",
      "30060",
      "30080",
      "30130"
    ]
  },
  {
    "id": "60016",
    "name": "Kocaeli Parkı",
    "lat": 37.078144,
    "lon": 41.2074544,
    "routes": [
      "10070",
      "30060",
      "30080",
      "30130"
    ]
  },
  {
    "id": "60005",
    "name": "Demir Yolu",
    "lat": 37.074948,
    "lon": 41.208562,
    "routes": [
      "10070",
      "30060",
      "30080",
      "30130"
    ]
  },
  {
    "id": "30058",
    "name": "Akdoğan Mahallesi",
    "lat": 37.024946,
    "lon": 40.41354,
    "routes": [
      "90011"
    ]
  },
  {
    "id": "30041",
    "name": "Atmaca Mahallesi",
    "lat": 37.0345868,
    "lon": 40.4247253,
    "routes": [
      "90011"
    ]
  },
  {
    "id": "30003",
    "name": "İnandı Mah.",
    "lat": 37.065119,
    "lon": 40.477171,
    "routes": [
      "90011",
      "90012"
    ]
  },
  {
    "id": "30004",
    "name": "Yolaldı İ.Ö.O",
    "lat": 37.070963,
    "lon": 40.481271,
    "routes": [
      "90011",
      "90012"
    ]
  },
  {
    "id": "30005",
    "name": "Yurtözü Mahallesi",
    "lat": 37.083637,
    "lon": 40.497722,
    "routes": [
      "90011",
      "90012"
    ]
  },
  {
    "id": "30007",
    "name": "Fındıktepe Mahallesi",
    "lat": 37.120167,
    "lon": 40.549701,
    "routes": [
      "90011",
      "90012"
    ]
  },
  {
    "id": "30008",
    "name": "Barış Mah.2",
    "lat": 37.127672,
    "lon": 40.555885,
    "routes": [
      "90011",
      "90012"
    ]
  },
  {
    "id": "40098",
    "name": "Günlüce",
    "lat": 37.135626,
    "lon": 40.56203,
    "routes": [
      "20050",
      "20051",
      "90011",
      "90012"
    ]
  },
  {
    "id": "30009",
    "name": "Alemdar Mahallesi",
    "lat": 37.148043,
    "lon": 40.569351,
    "routes": [
      "20050",
      "20051",
      "90011",
      "90012"
    ]
  },
  {
    "id": "30010",
    "name": "Buğday Pazarı",
    "lat": 37.169964,
    "lon": 40.576361,
    "routes": [
      "20050",
      "20051",
      "90011",
      "90012"
    ]
  },
  {
    "id": "30011",
    "name": "Zergan İ.Ö.O",
    "lat": 37.173386,
    "lon": 40.577185,
    "routes": [
      "20050",
      "20051",
      "90011",
      "90012"
    ]
  },
  {
    "id": "40093",
    "name": "Tunç",
    "lat": 37.180019,
    "lon": 40.578459,
    "routes": [
      "20050",
      "20051",
      "90011",
      "90012"
    ]
  },
  {
    "id": "40089",
    "name": "Hamidiye Camii",
    "lat": 37.1834613,
    "lon": 40.5791174,
    "routes": [
      "20050",
      "20051",
      "90011",
      "90012"
    ]
  },
  {
    "id": "40088",
    "name": "Fırat İ.Ö.O",
    "lat": 37.186788,
    "lon": 40.579737,
    "routes": [
      "20050",
      "20051",
      "90011",
      "90012"
    ]
  },
  {
    "id": "40086",
    "name": "Taşkın",
    "lat": 37.18789,
    "lon": 40.580821,
    "routes": [
      "10211",
      "20010",
      "20011",
      "20020",
      "20021",
      "20030",
      "20040",
      "20060",
      "20061",
      "90011",
      "90012",
      "90030"
    ]
  },
  {
    "id": "40126",
    "name": "İş Bankası",
    "lat": 37.186923,
    "lon": 40.586957,
    "routes": [
      "10211",
      "20030",
      "20040",
      "20080",
      "90011",
      "90012"
    ]
  },
  {
    "id": "40127",
    "name": "Barış",
    "lat": 37.186697,
    "lon": 40.588402,
    "routes": [
      "10211",
      "20030",
      "20040",
      "20080",
      "90011",
      "90012"
    ]
  },
  {
    "id": "40128",
    "name": "Mehmet Emin Değer İ.Ö.O",
    "lat": 37.185904,
    "lon": 40.593674,
    "routes": [
      "10211",
      "20030",
      "20040",
      "20080",
      "20110",
      "90011",
      "90012",
      "90051"
    ]
  },
  {
    "id": "40131",
    "name": "Karayolları",
    "lat": 37.1853689,
    "lon": 40.5966257,
    "routes": [
      "10211",
      "20020",
      "20030",
      "20110",
      "90011",
      "90012",
      "90072"
    ]
  },
  {
    "id": "40009",
    "name": "Kızıltepe Otogar",
    "lat": 37.18799,
    "lon": 40.594831,
    "routes": [
      "10030",
      "10211",
      "20010",
      "20020",
      "20030",
      "20040",
      "20060",
      "20070",
      "20080",
      "20090",
      "51020",
      "90011",
      "90012",
      "90030",
      "90051",
      "90072"
    ]
  },
  {
    "id": "40120",
    "name": "İlçe Milli Eğitim Müdürlüğü",
    "lat": 37.186272,
    "lon": 40.593678,
    "routes": [
      "10211",
      "20040",
      "20080",
      "20110",
      "90011",
      "90012",
      "90051"
    ]
  },
  {
    "id": "40129",
    "name": "Otogar",
    "lat": 37.186599,
    "lon": 40.591397,
    "routes": [
      "20040",
      "20080",
      "90011",
      "90012"
    ]
  },
  {
    "id": "40130",
    "name": "Üst Geçit",
    "lat": 37.187071,
    "lon": 40.588328,
    "routes": [
      "10211",
      "20040",
      "20080",
      "90011",
      "90012"
    ]
  },
  {
    "id": "40066",
    "name": "Taşkın",
    "lat": 37.188389,
    "lon": 40.580074,
    "routes": [
      "10211",
      "20080",
      "90011",
      "90012",
      "90030"
    ]
  },
  {
    "id": "40067",
    "name": "Emniyet Müdürlüğü",
    "lat": 37.188863,
    "lon": 40.577333,
    "routes": [
      "10211",
      "20080",
      "90011",
      "90012",
      "90030"
    ]
  },
  {
    "id": "40085",
    "name": "Kızıltepe Emniyet Müdürlüğü",
    "lat": 37.188564,
    "lon": 40.57672,
    "routes": [
      "10211",
      "20010",
      "20011",
      "20020",
      "20030",
      "20040",
      "20050",
      "20051",
      "20060",
      "20061",
      "90011",
      "90012",
      "90030"
    ]
  },
  {
    "id": "40087",
    "name": "Fırat İ.Ö.O",
    "lat": 37.186717,
    "lon": 40.579606,
    "routes": [
      "20050",
      "20051",
      "90011",
      "90012"
    ]
  },
  {
    "id": "40090",
    "name": "Hamidiye Camii",
    "lat": 37.1834023,
    "lon": 40.5789943,
    "routes": [
      "20050",
      "20051",
      "90011",
      "90012"
    ]
  },
  {
    "id": "40091",
    "name": "Tunç",
    "lat": 37.180071,
    "lon": 40.578308,
    "routes": [
      "20050",
      "20051",
      "90011",
      "90012"
    ]
  },
  {
    "id": "40094",
    "name": "Zergan İ.Ö.O",
    "lat": 37.173506,
    "lon": 40.577049,
    "routes": [
      "20050",
      "20051",
      "90011",
      "90012"
    ]
  },
  {
    "id": "40095",
    "name": "Buğday Pazarı",
    "lat": 37.168943,
    "lon": 40.575918,
    "routes": [
      "20050",
      "20051",
      "90011",
      "90012"
    ]
  },
  {
    "id": "30033",
    "name": "Sandıklı Mah.",
    "lat": 37.162296,
    "lon": 40.574102,
    "routes": [
      "20050",
      "20051",
      "90011",
      "90012"
    ]
  },
  {
    "id": "40096",
    "name": "Halkalı",
    "lat": 37.147946,
    "lon": 40.569204,
    "routes": [
      "20050",
      "20051",
      "90011",
      "90012"
    ]
  },
  {
    "id": "40097",
    "name": "Günlüce",
    "lat": 37.135962,
    "lon": 40.562184,
    "routes": [
      "20050",
      "20051",
      "90011",
      "90012"
    ]
  },
  {
    "id": "30034",
    "name": "Barış Mahallesi",
    "lat": 37.128384,
    "lon": 40.556287,
    "routes": [
      "90011",
      "90012"
    ]
  },
  {
    "id": "30059",
    "name": "Akdoğan İ.Ö.O",
    "lat": 37.01646,
    "lon": 40.402375,
    "routes": [
      "90012"
    ]
  },
  {
    "id": "30060",
    "name": "Akdoğan Mahallesi 2",
    "lat": 37.018194,
    "lon": 40.405076,
    "routes": [
      "90012"
    ]
  },
  {
    "id": "60319",
    "name": "Zindan",
    "lat": 37.1781095,
    "lon": 40.9524352,
    "routes": [
      "90020"
    ]
  },
  {
    "id": "60318",
    "name": "Aydın",
    "lat": 37.1599601,
    "lon": 40.8988239,
    "routes": [
      "90020"
    ]
  },
  {
    "id": "60316",
    "name": "incekuyu",
    "lat": 37.163565,
    "lon": 40.877381,
    "routes": [
      "90020"
    ]
  },
  {
    "id": "30066",
    "name": "Akıncı Mahallesi",
    "lat": 37.1756197,
    "lon": 40.8531759,
    "routes": [
      "10070",
      "90020"
    ]
  },
  {
    "id": "60268",
    "name": "Höyüklü Mahallesi 2",
    "lat": 37.18967,
    "lon": 40.8313701,
    "routes": [
      "10070",
      "90020"
    ]
  },
  {
    "id": "60266",
    "name": "Karademir Mahallesi 2",
    "lat": 37.2020365,
    "lon": 40.8123935,
    "routes": [
      "10070",
      "90020"
    ]
  },
  {
    "id": "60237",
    "name": "Ortaköy",
    "lat": 37.2275771,
    "lon": 40.7905496,
    "routes": [
      "90020",
      "90070",
      "90071"
    ]
  },
  {
    "id": "60204",
    "name": "Cezaevi Son Durak",
    "lat": 37.3028713,
    "lon": 40.7642398,
    "routes": [
      "00020",
      "00171",
      "00210",
      "10191",
      "10200",
      "90020",
      "90070",
      "90071"
    ]
  },
  {
    "id": "60205",
    "name": "Ordu Evi",
    "lat": 37.3064193,
    "lon": 40.760997,
    "routes": [
      "00020",
      "00171",
      "00210",
      "10070",
      "10191",
      "10200",
      "10201",
      "90020",
      "90070",
      "90071"
    ]
  },
  {
    "id": "10136",
    "name": "Firdevs Kasrı",
    "lat": 37.308822,
    "lon": 40.760247,
    "routes": [
      "00020",
      "00171",
      "00210",
      "10070",
      "10191",
      "10200",
      "10201",
      "90020",
      "90070",
      "90071"
    ]
  },
  {
    "id": "10137",
    "name": "Kayacan Sitesi",
    "lat": 37.312525,
    "lon": 40.75819,
    "routes": [
      "00020",
      "00171",
      "00210",
      "10070",
      "10200",
      "10201",
      "90020",
      "90070",
      "90071"
    ]
  },
  {
    "id": "10138",
    "name": "Kapalı Spor Salonu",
    "lat": 37.314975,
    "lon": 40.757375,
    "routes": [
      "00020",
      "00171",
      "00210",
      "10070",
      "10191",
      "10200",
      "10201",
      "90020",
      "90070",
      "90071"
    ]
  },
  {
    "id": "10168",
    "name": "Kamor",
    "lat": 37.322438,
    "lon": 40.758039,
    "routes": [
      "00010",
      "00030",
      "00172",
      "00220",
      "10070",
      "10201",
      "90020",
      "90070",
      "90071"
    ]
  },
  {
    "id": "10139",
    "name": "Mardin Otogar",
    "lat": 37.3271,
    "lon": 40.758472,
    "routes": [
      "00010",
      "00030",
      "00172",
      "00191",
      "00220",
      "10000",
      "10030",
      "10050",
      "10070",
      "10080",
      "10090",
      "10100",
      "10170",
      "10201",
      "10211",
      "10980",
      "10990",
      "51020",
      "51030",
      "51040",
      "90020",
      "90070",
      "90071",
      "90080"
    ]
  },
  {
    "id": "10140",
    "name": "Mardin Otogar",
    "lat": 37.327108,
    "lon": 40.758226,
    "routes": [
      "00010",
      "00030",
      "00172",
      "00191",
      "00220",
      "10000",
      "10020",
      "10030",
      "10040",
      "10050",
      "10070",
      "10201",
      "10211",
      "10980",
      "10990",
      "51030",
      "51040",
      "90020",
      "90070",
      "90071",
      "90080"
    ]
  },
  {
    "id": "10167",
    "name": "Kamor",
    "lat": 37.322989,
    "lon": 40.758102,
    "routes": [
      "00010",
      "00030",
      "00172",
      "10070",
      "10201",
      "90020",
      "90070",
      "90071"
    ]
  },
  {
    "id": "60200",
    "name": "Kayacan Sitesi",
    "lat": 37.31443,
    "lon": 40.7581136,
    "routes": [
      "00020",
      "00171",
      "00210",
      "10191",
      "10200",
      "10201",
      "90020",
      "90070",
      "90071"
    ]
  },
  {
    "id": "60201",
    "name": "Kayacan Sitesi",
    "lat": 37.3124204,
    "lon": 40.7580627,
    "routes": [
      "00020",
      "00171",
      "00210",
      "10070",
      "10191",
      "10200",
      "10201",
      "90020",
      "90070",
      "90071"
    ]
  },
  {
    "id": "60227",
    "name": "Firdevs Kasrı",
    "lat": 37.3088258,
    "lon": 40.7600207,
    "routes": [
      "00020",
      "00171",
      "00210",
      "10070",
      "10191",
      "10200",
      "10201",
      "90020",
      "90070",
      "90071"
    ]
  },
  {
    "id": "60202",
    "name": "Ordu Evi",
    "lat": 37.3067777,
    "lon": 40.7604713,
    "routes": [
      "00020",
      "00171",
      "00210",
      "10070",
      "10191",
      "10200",
      "10201",
      "90020",
      "90070",
      "90071"
    ]
  },
  {
    "id": "60203",
    "name": "Cezaevi",
    "lat": 37.3039487,
    "lon": 40.762373,
    "routes": [
      "00020",
      "00171",
      "00210",
      "10070",
      "10191",
      "10200",
      "10201",
      "90020",
      "90070",
      "90071"
    ]
  },
  {
    "id": "60236",
    "name": "Ortaköy",
    "lat": 37.225341,
    "lon": 40.7879049,
    "routes": [
      "10070",
      "10201",
      "90020",
      "90070",
      "90071",
      "90072"
    ]
  },
  {
    "id": "60265",
    "name": "Karademir Mahallesi 1",
    "lat": 37.2019852,
    "lon": 40.812136,
    "routes": [
      "10070",
      "90020"
    ]
  },
  {
    "id": "60267",
    "name": "Höyüklü Mahallesi 1",
    "lat": 37.1894456,
    "lon": 40.8313192,
    "routes": [
      "10070",
      "90020"
    ]
  },
  {
    "id": "60269",
    "name": "Akıncı Mahallesi 2",
    "lat": 37.1749827,
    "lon": 40.8539194,
    "routes": [
      "10070",
      "90020"
    ]
  },
  {
    "id": "30037",
    "name": "Çatalça Mah.",
    "lat": 36.968357,
    "lon": 40.215229,
    "routes": [
      "90030"
    ]
  },
  {
    "id": "30036",
    "name": "Kılıçlı Mah.",
    "lat": 36.990989,
    "lon": 40.227754,
    "routes": [
      "90030"
    ]
  },
  {
    "id": "30035",
    "name": "Tosunlu Mah.",
    "lat": 37.019279,
    "lon": 40.239716,
    "routes": [
      "90030"
    ]
  },
  {
    "id": "30014",
    "name": "Işıklı Mah.",
    "lat": 37.036973,
    "lon": 40.268473,
    "routes": [
      "90030"
    ]
  },
  {
    "id": "30015",
    "name": "Tarlabaşı Mah.",
    "lat": 37.04742,
    "lon": 40.287624,
    "routes": [
      "90030"
    ]
  },
  {
    "id": "30016",
    "name": "Yamaç Mah.",
    "lat": 37.05571,
    "lon": 40.303045,
    "routes": [
      "90030"
    ]
  },
  {
    "id": "30017",
    "name": "Kırıkkuyu Mahallesi",
    "lat": 37.068556,
    "lon": 40.327326,
    "routes": [
      "90030"
    ]
  },
  {
    "id": "60251",
    "name": "Alakuş Mahallesi",
    "lat": 37.0763262,
    "lon": 40.3420607,
    "routes": [
      "90030"
    ]
  },
  {
    "id": "30013",
    "name": "Otluca Mahallesi",
    "lat": 37.086358,
    "lon": 40.407868,
    "routes": [
      "90030"
    ]
  },
  {
    "id": "60298",
    "name": "Dikmen İlköğretim Okulu",
    "lat": 37.0874064,
    "lon": 40.4125298,
    "routes": [
      "90030"
    ]
  },
  {
    "id": "30103",
    "name": "Dikmen Mah.",
    "lat": 37.0874513,
    "lon": 40.4136689,
    "routes": [
      "90030"
    ]
  },
  {
    "id": "60299",
    "name": "Dikmen Market",
    "lat": 37.0877958,
    "lon": 40.4171003,
    "routes": [
      "90030"
    ]
  },
  {
    "id": "60295",
    "name": "Dikmen Mahallesi 2",
    "lat": 37.0906244,
    "lon": 40.4235161,
    "routes": [
      "90030"
    ]
  },
  {
    "id": "30089",
    "name": "Çakır Mahallesi",
    "lat": 37.0948172,
    "lon": 40.4331394,
    "routes": [
      "90030"
    ]
  },
  {
    "id": "30023",
    "name": "Yoncalı Mah.",
    "lat": 37.104024,
    "lon": 40.454086,
    "routes": [
      "90030"
    ]
  },
  {
    "id": "30024",
    "name": "Yeniköy Mahallesi",
    "lat": 37.114942,
    "lon": 40.470396,
    "routes": [
      "90030"
    ]
  },
  {
    "id": "60302",
    "name": "Hocaköy Mahallesi",
    "lat": 37.1388153,
    "lon": 40.5056507,
    "routes": [
      "20060",
      "90030"
    ]
  },
  {
    "id": "30025",
    "name": "Büyüktepe Mahallesi",
    "lat": 37.146354,
    "lon": 40.516806,
    "routes": [
      "20060",
      "20061",
      "90030"
    ]
  },
  {
    "id": "40106",
    "name": "Karakuyu Mahallesi",
    "lat": 37.161362,
    "lon": 40.536439,
    "routes": [
      "20060",
      "90030"
    ]
  },
  {
    "id": "30026",
    "name": "Zabıta Durağı",
    "lat": 37.168683,
    "lon": 40.547017,
    "routes": [
      "20060",
      "20061",
      "90030"
    ]
  },
  {
    "id": "30027",
    "name": "Yolüstü Mah.1",
    "lat": 37.170641,
    "lon": 40.549928,
    "routes": [
      "20060",
      "90030"
    ]
  },
  {
    "id": "30028",
    "name": "Yolüstü Mahallesi",
    "lat": 37.174789,
    "lon": 40.556525,
    "routes": [
      "20060",
      "20061",
      "90030"
    ]
  },
  {
    "id": "30029",
    "name": "Akyazı Mahallesi",
    "lat": 37.176383,
    "lon": 40.559077,
    "routes": [
      "20060",
      "20061",
      "90030"
    ]
  },
  {
    "id": "30030",
    "name": "Nazar",
    "lat": 37.177522,
    "lon": 40.560854,
    "routes": [
      "20060",
      "20061",
      "90030"
    ]
  },
  {
    "id": "40102",
    "name": "Süleyman Demirel İ.Ö.O",
    "lat": 37.179651,
    "lon": 40.563678,
    "routes": [
      "20060",
      "20061",
      "90030"
    ]
  },
  {
    "id": "30031",
    "name": "Pınarbaşı Camii",
    "lat": 37.182457,
    "lon": 40.567465,
    "routes": [
      "20060",
      "20061",
      "90030"
    ]
  },
  {
    "id": "30032",
    "name": "Taşkın Mezarlığı",
    "lat": 37.185437,
    "lon": 40.571412,
    "routes": [
      "20060",
      "20061",
      "90030"
    ]
  },
  {
    "id": "40004",
    "name": "Çeçen Mezarlığı",
    "lat": 37.188511,
    "lon": 40.584495,
    "routes": [
      "20010",
      "20011",
      "20020",
      "20030",
      "20040",
      "20060",
      "20080",
      "90030"
    ]
  },
  {
    "id": "30043",
    "name": "Şanlıurfa Caddesi",
    "lat": 37.190001,
    "lon": 40.5854603,
    "routes": [
      "20010",
      "20011",
      "20020",
      "20030",
      "20040",
      "20060",
      "90030"
    ]
  },
  {
    "id": "30064",
    "name": "Cumhuriyet Meydanı",
    "lat": 37.1913881,
    "lon": 40.5861973,
    "routes": [
      "20010",
      "20011",
      "20020",
      "20030",
      "20040",
      "20060",
      "20070",
      "90030"
    ]
  },
  {
    "id": "30104",
    "name": "Maliye Kavşağı",
    "lat": 37.1931619,
    "lon": 40.5876334,
    "routes": [
      "20010",
      "20011",
      "20020",
      "20030",
      "20040",
      "20060",
      "20070",
      "20080",
      "20090",
      "90030"
    ]
  },
  {
    "id": "60300",
    "name": "İbrahim Kalay Camii",
    "lat": 37.1938665,
    "lon": 40.5900437,
    "routes": [
      "20010",
      "20011",
      "20020",
      "20030",
      "20040",
      "20060",
      "20070",
      "20080",
      "20090",
      "90030"
    ]
  },
  {
    "id": "40065",
    "name": "Kütüphane",
    "lat": 37.193923,
    "lon": 40.591479,
    "routes": [
      "10030",
      "20010",
      "20011",
      "20020",
      "20050",
      "20060",
      "20070",
      "20090",
      "51020",
      "51030",
      "90030"
    ]
  },
  {
    "id": "40006",
    "name": "Diş Hastanesi",
    "lat": 37.192528,
    "lon": 40.592606,
    "routes": [
      "10030",
      "20010",
      "20011",
      "20020",
      "20050",
      "20060",
      "20070",
      "20090",
      "51020",
      "51030",
      "90030"
    ]
  },
  {
    "id": "40114",
    "name": "Kuveyt Türk Banka",
    "lat": 37.191141,
    "lon": 40.593532,
    "routes": [
      "10030",
      "20010",
      "20011",
      "20020",
      "20050",
      "20060",
      "20070",
      "20090",
      "51020",
      "51030",
      "90030"
    ]
  },
  {
    "id": "40118",
    "name": "Kızıltepe Otogar Giriş",
    "lat": 37.188546,
    "lon": 40.595217,
    "routes": [
      "10030",
      "20010",
      "20020",
      "20050",
      "20060",
      "20070",
      "20090",
      "20110",
      "51030",
      "51040",
      "90030"
    ]
  },
  {
    "id": "40008",
    "name": "Kızıltepe Otogar Çıkış",
    "lat": 37.188645,
    "lon": 40.595248,
    "routes": [
      "10030",
      "20010",
      "20020",
      "20050",
      "20060",
      "20070",
      "20090",
      "20110",
      "51020",
      "51030",
      "51040",
      "90030"
    ]
  },
  {
    "id": "40007",
    "name": "Polis Lojmanları",
    "lat": 37.191487,
    "lon": 40.59356,
    "routes": [
      "10030",
      "20010",
      "20020",
      "20050",
      "20060",
      "20070",
      "20090",
      "51020",
      "51030",
      "90030"
    ]
  },
  {
    "id": "40119",
    "name": "Diş Hastanesi",
    "lat": 37.192687,
    "lon": 40.59281,
    "routes": [
      "10030",
      "20010",
      "20011",
      "20020",
      "20021",
      "20050",
      "20060",
      "20070",
      "20090",
      "51020",
      "51030",
      "90030"
    ]
  },
  {
    "id": "40041",
    "name": "Yapıkredi bankası",
    "lat": 37.193935,
    "lon": 40.591709,
    "routes": [
      "10030",
      "20010",
      "20020",
      "20050",
      "20060",
      "20070",
      "20090",
      "51020",
      "51030",
      "90030"
    ]
  },
  {
    "id": "20005",
    "name": "Carrefour Market",
    "lat": 37.1941073,
    "lon": 40.5901953,
    "routes": [
      "20010",
      "20020",
      "20030",
      "20040",
      "20060",
      "20070",
      "20080",
      "20090",
      "90030"
    ]
  },
  {
    "id": "20006",
    "name": "Maliye Kavşağı",
    "lat": 37.1929424,
    "lon": 40.5868049,
    "routes": [
      "20080",
      "90030"
    ]
  },
  {
    "id": "40005",
    "name": "Cumhuriyet Meydanı",
    "lat": 37.191341,
    "lon": 40.585915,
    "routes": [
      "20080",
      "90030"
    ]
  },
  {
    "id": "30042",
    "name": "Şanlıurfa Caddesi",
    "lat": 37.1900666,
    "lon": 40.58529,
    "routes": [
      "20080",
      "90030"
    ]
  },
  {
    "id": "40099",
    "name": "Taşkın Mezarlığı",
    "lat": 37.185521,
    "lon": 40.571323,
    "routes": [
      "20060",
      "20061",
      "90030"
    ]
  },
  {
    "id": "40100",
    "name": "Pınarbaşı Camii",
    "lat": 37.182763,
    "lon": 40.56765,
    "routes": [
      "20060",
      "20061",
      "90030"
    ]
  },
  {
    "id": "40101",
    "name": "Süleyman Demirel İ.Ö.O",
    "lat": 37.179512,
    "lon": 40.56333,
    "routes": [
      "20060",
      "20061",
      "90030"
    ]
  },
  {
    "id": "40104",
    "name": "Nazar",
    "lat": 37.177409,
    "lon": 40.560514,
    "routes": [
      "20060",
      "20061",
      "90030"
    ]
  },
  {
    "id": "40105",
    "name": "Zaza",
    "lat": 37.168693,
    "lon": 40.546855,
    "routes": [
      "20060",
      "90030"
    ]
  },
  {
    "id": "60294",
    "name": "Dikmen Mahallesi 2",
    "lat": 37.0906008,
    "lon": 40.4231245,
    "routes": [
      "90030"
    ]
  },
  {
    "id": "60296",
    "name": "Dikmen Market",
    "lat": 37.0880612,
    "lon": 40.4173551,
    "routes": [
      "90030"
    ]
  },
  {
    "id": "60297",
    "name": "Dikmen İlköğretim Okulu",
    "lat": 37.0875262,
    "lon": 40.4126746,
    "routes": [
      "90030"
    ]
  },
  {
    "id": "30063",
    "name": "Konuklu Mah.",
    "lat": 37.0787457,
    "lon": 40.360949,
    "routes": [
      "90030"
    ]
  },
  {
    "id": "30062",
    "name": "Eryeri Mah.",
    "lat": 37.2929062,
    "lon": 40.7464946,
    "routes": [
      "90040",
      "90041"
    ]
  },
  {
    "id": "30020",
    "name": "Çiftlik Mahallesi",
    "lat": 37.2853087,
    "lon": 40.7281144,
    "routes": [
      "90040",
      "90041"
    ]
  },
  {
    "id": "10151",
    "name": "İstasyon",
    "lat": 37.288187,
    "lon": 40.711533,
    "routes": [
      "00030",
      "00040",
      "10020",
      "10030",
      "10211",
      "51020",
      "51030",
      "51040",
      "90040",
      "90042",
      "90050"
    ]
  },
  {
    "id": "10150",
    "name": "Mardin Boru",
    "lat": 37.298238,
    "lon": 40.712697,
    "routes": [
      "00030",
      "00040",
      "10020",
      "10030",
      "10211",
      "51020",
      "51030",
      "51040",
      "90040",
      "90042",
      "90050"
    ]
  },
  {
    "id": "10068",
    "name": "Garanti Bankası",
    "lat": 37.324653,
    "lon": 40.718095,
    "routes": [
      "00010",
      "00020",
      "00030",
      "00171",
      "00172",
      "00190",
      "10000",
      "10020",
      "10030",
      "10040",
      "10050",
      "10060",
      "10070",
      "10080",
      "10090",
      "10100",
      "10191",
      "10200",
      "10201",
      "10211",
      "51020",
      "51030",
      "51040",
      "90040",
      "90060",
      "90070",
      "90071",
      "90080"
    ]
  },
  {
    "id": "10117",
    "name": "15 Temmuz Parkı",
    "lat": 37.322857,
    "lon": 40.722722,
    "routes": [
      "00010",
      "00020",
      "00030",
      "00180",
      "00190",
      "00220",
      "10000",
      "10020",
      "10030",
      "10040",
      "10050",
      "10060",
      "10070",
      "10080",
      "10090",
      "10100",
      "10200",
      "10201",
      "51020",
      "51030",
      "51040",
      "90040",
      "90060",
      "90070",
      "90071",
      "90080"
    ]
  },
  {
    "id": "10118",
    "name": "Hatuniye",
    "lat": 37.321967,
    "lon": 40.723674,
    "routes": [
      "00010",
      "00020",
      "00030",
      "00180",
      "00190",
      "00220",
      "10000",
      "10020",
      "10030",
      "10040",
      "10050",
      "10060",
      "10070",
      "10080",
      "10090",
      "10100",
      "10191",
      "10200",
      "10201",
      "10210",
      "10211",
      "51020",
      "51030",
      "51040",
      "90040",
      "90060",
      "90070",
      "90071",
      "90080"
    ]
  },
  {
    "id": "10119",
    "name": "Migros",
    "lat": 37.320155,
    "lon": 40.725978,
    "routes": [
      "00010",
      "00020",
      "00030",
      "00160",
      "00171",
      "00172",
      "00180",
      "00190",
      "00220",
      "10191",
      "10200",
      "10210",
      "51030",
      "90040"
    ]
  },
  {
    "id": "10097",
    "name": "Hava Radar",
    "lat": 37.3187,
    "lon": 40.729913,
    "routes": [
      "00010",
      "00020",
      "00030",
      "00160",
      "00171",
      "00172",
      "00180",
      "00190",
      "00220",
      "10191",
      "10200",
      "10210",
      "90040"
    ]
  },
  {
    "id": "10120",
    "name": "Stadyum",
    "lat": 37.316268,
    "lon": 40.72845,
    "routes": [
      "00010",
      "00020",
      "00030",
      "00160",
      "00171",
      "00172",
      "00180",
      "00190",
      "00210",
      "10191",
      "10200",
      "90040"
    ]
  },
  {
    "id": "10121",
    "name": "Ayfer Gök Okulu",
    "lat": 37.314544,
    "lon": 40.726996,
    "routes": [
      "00010",
      "00020",
      "00030",
      "00160",
      "00171",
      "00172",
      "00180",
      "00190",
      "00210",
      "10191",
      "10200",
      "90040"
    ]
  },
  {
    "id": "10122",
    "name": "Kasimiye",
    "lat": 37.312483,
    "lon": 40.725542,
    "routes": [
      "00010",
      "00020",
      "00030",
      "00160",
      "00171",
      "00172",
      "00180",
      "00190",
      "00210",
      "10191",
      "10200",
      "90040"
    ]
  },
  {
    "id": "10124",
    "name": "Meteroloji",
    "lat": 37.310797,
    "lon": 40.72927,
    "routes": [
      "00010",
      "00020",
      "00030",
      "10191",
      "10200",
      "90040"
    ]
  },
  {
    "id": "10125",
    "name": "Mezarlık",
    "lat": 37.310086,
    "lon": 40.735481,
    "routes": [
      "00010",
      "00020",
      "00030",
      "00210",
      "10191",
      "10200",
      "90040"
    ]
  },
  {
    "id": "10127",
    "name": "Ebulula Okulu",
    "lat": 37.310631,
    "lon": 40.739228,
    "routes": [
      "00010",
      "00020",
      "00030",
      "00160",
      "00172",
      "00180",
      "00190",
      "00210",
      "10191",
      "10200",
      "90040"
    ]
  },
  {
    "id": "10128",
    "name": "Selçuklu",
    "lat": 37.310977,
    "lon": 40.741128,
    "routes": [
      "00010",
      "00020",
      "00030",
      "00160",
      "00171",
      "00172",
      "00180",
      "00190",
      "00210",
      "10191",
      "10200",
      "90040"
    ]
  },
  {
    "id": "10129",
    "name": "Eyyübi",
    "lat": 37.312056,
    "lon": 40.747491,
    "routes": [
      "00010",
      "00020",
      "00030",
      "10191",
      "10200",
      "90040"
    ]
  },
  {
    "id": "10131",
    "name": "Babessor Parkı",
    "lat": 37.314156,
    "lon": 40.750213,
    "routes": [
      "00010",
      "00020",
      "00030",
      "00160",
      "00171",
      "00172",
      "00180",
      "00190",
      "00210",
      "10191",
      "10200",
      "90040"
    ]
  },
  {
    "id": "10133",
    "name": "Aziz Sancar",
    "lat": 37.316788,
    "lon": 40.751957,
    "routes": [
      "00010",
      "00020",
      "00030",
      "00171",
      "00172",
      "00210",
      "10191",
      "10200",
      "90040",
      "90070"
    ]
  },
  {
    "id": "10132",
    "name": "Diş Hastanesi",
    "lat": 37.31602,
    "lon": 40.751318,
    "routes": [
      "00010",
      "00020",
      "00030",
      "00160",
      "00171",
      "00172",
      "00180",
      "00190",
      "00210",
      "10191",
      "10200",
      "90040"
    ]
  },
  {
    "id": "10130",
    "name": "Eyyübi",
    "lat": 37.312208,
    "lon": 40.747563,
    "routes": [
      "00010",
      "00020",
      "00030",
      "00160",
      "00171",
      "00172",
      "00180",
      "00190",
      "00210",
      "10191",
      "10200",
      "90040"
    ]
  },
  {
    "id": "10126",
    "name": "Saraçoğlu Mah.",
    "lat": 37.310135,
    "lon": 40.737001,
    "routes": [
      "00010",
      "00020",
      "00030",
      "00160",
      "00172",
      "00180",
      "00190",
      "00210",
      "10191",
      "10200",
      "90040"
    ]
  },
  {
    "id": "10123",
    "name": "Meteroloji",
    "lat": 37.310983,
    "lon": 40.729212,
    "routes": [
      "00010",
      "00020",
      "00030",
      "00160",
      "00172",
      "00180",
      "00190",
      "00210",
      "10191",
      "10200",
      "90040"
    ]
  },
  {
    "id": "10101",
    "name": "Artuklu",
    "lat": 37.32156,
    "lon": 40.724574,
    "routes": [
      "00010",
      "00020",
      "00030",
      "00180",
      "00190",
      "10000",
      "10030",
      "10040",
      "10050",
      "10060",
      "10070",
      "10080",
      "10090",
      "10100",
      "10190",
      "10191",
      "10200",
      "10201",
      "10210",
      "10211",
      "51020",
      "51030",
      "90040",
      "90060",
      "90070",
      "90071",
      "90080"
    ]
  },
  {
    "id": "10069",
    "name": "Garanti Bankası",
    "lat": 37.324624,
    "lon": 40.719427,
    "routes": [
      "00010",
      "00020",
      "00030",
      "00190",
      "10000",
      "10030",
      "10040",
      "10050",
      "10060",
      "10070",
      "10080",
      "10090",
      "10100",
      "10191",
      "10200",
      "10201",
      "10211",
      "51020",
      "51030",
      "90040",
      "90060",
      "90070",
      "90071",
      "90080"
    ]
  },
  {
    "id": "10166",
    "name": "Polis Evi",
    "lat": 37.323742,
    "lon": 40.715742,
    "routes": [
      "00030",
      "00040",
      "00190",
      "10030",
      "10211",
      "51020",
      "51030",
      "90040",
      "90041",
      "90042",
      "90050"
    ]
  },
  {
    "id": "10149",
    "name": "Mardin Boru",
    "lat": 37.300672,
    "lon": 40.712128,
    "routes": [
      "00030",
      "00040",
      "10030",
      "10211",
      "51020",
      "51030",
      "90040",
      "90041",
      "90042",
      "90050"
    ]
  },
  {
    "id": "10061",
    "name": "İstasyon",
    "lat": 37.288071,
    "lon": 40.710428,
    "routes": [
      "00030",
      "00040",
      "10030",
      "10211",
      "51020",
      "51030",
      "90040",
      "90041",
      "90042"
    ]
  },
  {
    "id": "60207",
    "name": "SGK",
    "lat": 37.325989,
    "lon": 40.7154745,
    "routes": [
      "00010",
      "00020",
      "00040",
      "00160",
      "00171",
      "00190",
      "10040",
      "10050",
      "10060",
      "10070",
      "10080",
      "10090",
      "90042",
      "90050",
      "90060",
      "90070",
      "90071",
      "90080"
    ]
  },
  {
    "id": "10171",
    "name": "İl Sağlık Müdürlüğü",
    "lat": 37.328013,
    "lon": 40.712787,
    "routes": [
      "00010",
      "00020",
      "00040",
      "00160",
      "00171",
      "00172",
      "00190",
      "10000",
      "10040",
      "10050",
      "10060",
      "10070",
      "10080",
      "10090",
      "10100",
      "10191",
      "10200",
      "10201",
      "10211",
      "51020",
      "90042",
      "90050",
      "90060",
      "90070",
      "90071",
      "90080"
    ]
  },
  {
    "id": "10102",
    "name": "AVM",
    "lat": 37.33112,
    "lon": 40.710777,
    "routes": [
      "00010",
      "00020",
      "00040",
      "00160",
      "00171",
      "00172",
      "00190",
      "10000",
      "10040",
      "10050",
      "10060",
      "10070",
      "10080",
      "10090",
      "10100",
      "10191",
      "10200",
      "10201",
      "10211",
      "51020",
      "90042",
      "90050",
      "90060",
      "90070",
      "90071",
      "90080"
    ]
  },
  {
    "id": "10060",
    "name": "Şahmeran",
    "lat": 37.332659,
    "lon": 40.709565,
    "routes": [
      "00010",
      "00020",
      "00040",
      "00160",
      "00171",
      "00172",
      "00190",
      "10000",
      "10040",
      "10050",
      "10060",
      "10070",
      "10080",
      "10090",
      "10100",
      "10191",
      "10200",
      "10201",
      "10211",
      "51020",
      "90042",
      "90050",
      "90060",
      "90070",
      "90071",
      "90080"
    ]
  },
  {
    "id": "10105",
    "name": "Mardin Devlet Hastanesi",
    "lat": 37.335477,
    "lon": 40.705486,
    "routes": [
      "00010",
      "00020",
      "00040",
      "00151",
      "00160",
      "00171",
      "00172",
      "00190",
      "10000",
      "10040",
      "10050",
      "10060",
      "10070",
      "10080",
      "10090",
      "10100",
      "10211",
      "51020",
      "90041",
      "90042",
      "90050",
      "90060",
      "90070",
      "90071",
      "90080"
    ]
  },
  {
    "id": "10114",
    "name": "İstiklal",
    "lat": 37.335489,
    "lon": 40.704079,
    "routes": [
      "00010",
      "00020",
      "00040",
      "00151",
      "00160",
      "00171",
      "00172",
      "00190",
      "10000",
      "10040",
      "10050",
      "10060",
      "10070",
      "10080",
      "10090",
      "10100",
      "10190",
      "10191",
      "10200",
      "10201",
      "90041",
      "90042",
      "90050",
      "90060",
      "90070",
      "90071",
      "90080"
    ]
  },
  {
    "id": "10080",
    "name": "Şahmeran",
    "lat": 37.333371,
    "lon": 40.708496,
    "routes": [
      "00010",
      "00020",
      "00040",
      "00160",
      "00171",
      "00172",
      "00190",
      "10000",
      "10040",
      "10050",
      "10060",
      "10070",
      "10080",
      "10090",
      "10100",
      "10191",
      "10200",
      "10201",
      "10211",
      "51020",
      "90041",
      "90042",
      "90050",
      "90060",
      "90070",
      "90071",
      "90080"
    ]
  },
  {
    "id": "10115",
    "name": "Dedaş Park",
    "lat": 37.3320508,
    "lon": 40.7096631,
    "routes": [
      "00010",
      "00020",
      "00040",
      "00160",
      "00171",
      "00172",
      "00190",
      "10000",
      "10040",
      "10050",
      "10060",
      "10070",
      "10080",
      "10090",
      "10100",
      "10191",
      "10200",
      "10201",
      "10211",
      "51020",
      "90041",
      "90042",
      "90050",
      "90060",
      "90070",
      "90071",
      "90080"
    ]
  },
  {
    "id": "10103",
    "name": "Sağlık Müdürlüğü",
    "lat": 37.3279772,
    "lon": 40.7125129,
    "routes": [
      "00010",
      "00020",
      "00040",
      "00160",
      "00171",
      "00172",
      "00190",
      "10000",
      "10040",
      "10050",
      "10060",
      "10070",
      "10080",
      "10100",
      "10191",
      "10200",
      "10201",
      "10211",
      "51020",
      "90041",
      "90042",
      "90050",
      "90070",
      "90071",
      "90080"
    ]
  },
  {
    "id": "10067",
    "name": "PTT",
    "lat": 37.325772,
    "lon": 40.714866,
    "routes": [
      "00010",
      "00020",
      "00040",
      "00160",
      "00171",
      "00172",
      "00190",
      "10000",
      "10040",
      "10050",
      "10060",
      "10070",
      "10080",
      "10090",
      "10100",
      "10191",
      "10200",
      "10201",
      "10211",
      "51020",
      "90041",
      "90042",
      "90050",
      "90060",
      "90070",
      "90071",
      "90080"
    ]
  },
  {
    "id": "20003",
    "name": "Göllü Mahallesi",
    "lat": 37.2497878,
    "lon": 40.7134034,
    "routes": [
      "90042",
      "90050"
    ]
  },
  {
    "id": "10157",
    "name": "Meslek Yüksek Okulu",
    "lat": 37.278772,
    "lon": 40.695046,
    "routes": [
      "00030",
      "00040",
      "10020",
      "10030",
      "10211",
      "51020",
      "51030",
      "51040",
      "90042"
    ]
  },
  {
    "id": "10066",
    "name": "Anadolu Lisesi",
    "lat": 37.280712,
    "lon": 40.697758,
    "routes": [
      "00030",
      "00040",
      "10020",
      "10030",
      "10211",
      "51020",
      "51030",
      "51040",
      "90042"
    ]
  },
  {
    "id": "10155",
    "name": "Sayın Kışlası",
    "lat": 37.283726,
    "lon": 40.702073,
    "routes": [
      "00030",
      "00040",
      "10020",
      "10030",
      "10211",
      "51020",
      "51030",
      "51040",
      "90042"
    ]
  },
  {
    "id": "10153",
    "name": "Büyükşehir",
    "lat": 37.285431,
    "lon": 40.704469,
    "routes": [
      "00030",
      "00040",
      "10020",
      "10030",
      "10211",
      "51020",
      "51030",
      "51040",
      "90042"
    ]
  },
  {
    "id": "10169",
    "name": "İstiklal",
    "lat": 37.335804,
    "lon": 40.704605,
    "routes": [
      "00010",
      "00020",
      "00160",
      "00171",
      "00172",
      "00190",
      "10000",
      "10050",
      "10070",
      "51020",
      "90042",
      "90050",
      "90060",
      "90070",
      "90071",
      "90080"
    ]
  },
  {
    "id": "10152",
    "name": "Büyükşehir",
    "lat": 37.286425,
    "lon": 40.705486,
    "routes": [
      "00030",
      "00040",
      "10030",
      "10211",
      "51020",
      "51030",
      "90042"
    ]
  },
  {
    "id": "10154",
    "name": "Sayın Kışlası",
    "lat": 37.284847,
    "lon": 40.703129,
    "routes": [
      "00030",
      "00040",
      "10030",
      "10211",
      "51020",
      "51030",
      "90042"
    ]
  },
  {
    "id": "10062",
    "name": "Kubbeli Camii",
    "lat": 37.282078,
    "lon": 40.69923,
    "routes": [
      "00030",
      "00040",
      "10030",
      "10211",
      "51020",
      "51030",
      "90042"
    ]
  },
  {
    "id": "10063",
    "name": "Anadolu Lisesi",
    "lat": 37.280643,
    "lon": 40.697177,
    "routes": [
      "00030",
      "00040",
      "10030",
      "10211",
      "51020",
      "51030",
      "90042"
    ]
  },
  {
    "id": "10156",
    "name": "Meslek Yüksek Okulu",
    "lat": 37.278727,
    "lon": 40.694482,
    "routes": [
      "00030",
      "00040",
      "10030",
      "10211",
      "51020",
      "51030",
      "90042"
    ]
  },
  {
    "id": "30108",
    "name": "Gökçe Merkez",
    "lat": 37.204349,
    "lon": 40.6976999,
    "routes": [
      "90050"
    ]
  },
  {
    "id": "20010",
    "name": "Gökçe Parkı",
    "lat": 37.2063197,
    "lon": 40.6974823,
    "routes": [
      "90050"
    ]
  },
  {
    "id": "30107",
    "name": "Gökçe Mahallesi",
    "lat": 37.2008615,
    "lon": 40.6944456,
    "routes": [
      "90051"
    ]
  },
  {
    "id": "30057",
    "name": "Eybeyli Mahallesi",
    "lat": 37.178449,
    "lon": 40.642506,
    "routes": [
      "20020",
      "20021",
      "90051",
      "90072"
    ]
  },
  {
    "id": "30050",
    "name": "Kabala Mahallesi",
    "lat": 37.3528151,
    "lon": 40.8053552,
    "routes": [
      "90060"
    ]
  },
  {
    "id": "60226",
    "name": "Atatürk Ortaokulu",
    "lat": 37.3508501,
    "lon": 40.8026919,
    "routes": [
      "90060"
    ]
  },
  {
    "id": "60224",
    "name": "Şen Ortaklar",
    "lat": 37.3485004,
    "lon": 40.8028314,
    "routes": [
      "90060"
    ]
  },
  {
    "id": "60242",
    "name": "Çimento Fabrikası",
    "lat": 37.3402524,
    "lon": 40.795678,
    "routes": [
      "10040",
      "10060",
      "10080",
      "10100",
      "90060"
    ]
  },
  {
    "id": "60243",
    "name": "İsmail Kaya Camii",
    "lat": 37.3403782,
    "lon": 40.7896242,
    "routes": [
      "10040",
      "10060",
      "10080",
      "10100",
      "90060"
    ]
  },
  {
    "id": "60219",
    "name": "Kabala Köprüsü",
    "lat": 37.3395764,
    "lon": 40.7871888,
    "routes": [
      "10040",
      "10060",
      "10080",
      "10100",
      "90060"
    ]
  },
  {
    "id": "10142",
    "name": "Mavişehir Sitesi",
    "lat": 37.327129,
    "lon": 40.755731,
    "routes": [
      "00191",
      "00220",
      "10000",
      "10030",
      "10040",
      "10050",
      "10060",
      "10070",
      "10080",
      "10090",
      "10100",
      "10201",
      "10211",
      "51020",
      "51030",
      "90060",
      "90070",
      "90071",
      "90080"
    ]
  },
  {
    "id": "10143",
    "name": "Altınşehir Sitesi",
    "lat": 37.324679,
    "lon": 40.747934,
    "routes": [
      "00191",
      "00220",
      "10000",
      "10030",
      "10040",
      "10050",
      "10060",
      "10070",
      "10080",
      "10090",
      "10100",
      "10201",
      "10211",
      "51020",
      "51030",
      "90060",
      "90070",
      "90071",
      "90080"
    ]
  },
  {
    "id": "10144",
    "name": "Meridyen",
    "lat": 37.324705,
    "lon": 40.746053,
    "routes": [
      "00191",
      "00220",
      "10000",
      "10030",
      "10040",
      "10050",
      "10060",
      "10070",
      "10080",
      "10090",
      "10100",
      "10201",
      "10211",
      "51020",
      "51030",
      "90060",
      "90070",
      "90071",
      "90080"
    ]
  },
  {
    "id": "10145",
    "name": "Yalım Mah.",
    "lat": 37.322419,
    "lon": 40.736893,
    "routes": [
      "10000",
      "10030",
      "10040",
      "10050",
      "10060",
      "10070",
      "10080",
      "10090",
      "10100",
      "10201",
      "10211",
      "51020",
      "51030",
      "90060",
      "90070",
      "90071",
      "90080"
    ]
  },
  {
    "id": "60206",
    "name": "Saruhan Camii",
    "lat": 37.3221134,
    "lon": 40.7320318,
    "routes": [
      "10030",
      "10040",
      "10050",
      "10060",
      "10070",
      "10080",
      "10090",
      "10201",
      "10211",
      "90060",
      "90070",
      "90080"
    ]
  },
  {
    "id": "10146",
    "name": "Kız Yurdu",
    "lat": 37.321082,
    "lon": 40.728288,
    "routes": [
      "10000",
      "10030",
      "10040",
      "10050",
      "10060",
      "10070",
      "10080",
      "10090",
      "10100",
      "10201",
      "10211",
      "51020",
      "51030",
      "90060",
      "90070",
      "90071",
      "90080"
    ]
  },
  {
    "id": "10116",
    "name": "15 Temmuz Parkı",
    "lat": 37.322753,
    "lon": 40.722809,
    "routes": [
      "00010",
      "00020",
      "00030",
      "00180",
      "00190",
      "00220",
      "10000",
      "10020",
      "10030",
      "10050",
      "10070",
      "10090",
      "10100",
      "10191",
      "10210",
      "10211",
      "51020",
      "51030",
      "51040",
      "90060"
    ]
  },
  {
    "id": "10148",
    "name": "Kız Yurdu",
    "lat": 37.320653,
    "lon": 40.727775,
    "routes": [
      "10000",
      "10020",
      "10030",
      "10040",
      "10050",
      "10060",
      "10070",
      "10080",
      "10090",
      "10100",
      "10201",
      "10211",
      "51020",
      "51040",
      "90060",
      "90070",
      "90071",
      "90080"
    ]
  },
  {
    "id": "10141",
    "name": "Şehit Tufan Kansuva",
    "lat": 37.329018,
    "lon": 40.759783,
    "routes": [
      "10040",
      "10060",
      "10080",
      "10090",
      "10100",
      "90060"
    ]
  },
  {
    "id": "60218",
    "name": "Kabala Köprüsü",
    "lat": 37.3393056,
    "lon": 40.787229,
    "routes": [
      "10040",
      "10080",
      "10100",
      "90060"
    ]
  },
  {
    "id": "60220",
    "name": "İsmail Kaya Camii",
    "lat": 37.340118,
    "lon": 40.7896966,
    "routes": [
      "10040",
      "10080",
      "10100",
      "90060"
    ]
  },
  {
    "id": "60221",
    "name": "Çimento Fabrikası",
    "lat": 37.3400029,
    "lon": 40.7955734,
    "routes": [
      "10040",
      "10060",
      "10080",
      "10100",
      "90060"
    ]
  },
  {
    "id": "60222",
    "name": "Jandarma",
    "lat": 37.3447646,
    "lon": 40.8006159,
    "routes": [
      "10040",
      "10060",
      "10080",
      "10100",
      "90060"
    ]
  },
  {
    "id": "60223",
    "name": "Şen Ortaklar",
    "lat": 37.3484385,
    "lon": 40.8028797,
    "routes": [
      "90060"
    ]
  },
  {
    "id": "60225",
    "name": "Atatürk Ortaokulu",
    "lat": 37.3507328,
    "lon": 40.8028716,
    "routes": [
      "90060"
    ]
  },
  {
    "id": "60231",
    "name": "Deyrulzafaran Manastırı",
    "lat": 37.2990714,
    "lon": 40.7902706,
    "routes": [
      "90070"
    ]
  },
  {
    "id": "60229",
    "name": "Eski Kale",
    "lat": 37.3049365,
    "lon": 40.7715408,
    "routes": [
      "90070"
    ]
  },
  {
    "id": "10134",
    "name": "Meydanbaşı",
    "lat": 37.316227,
    "lon": 40.754167,
    "routes": [
      "00010",
      "00020",
      "00030",
      "00171",
      "00172",
      "00210",
      "10191",
      "10200",
      "90070"
    ]
  },
  {
    "id": "10135",
    "name": "Meydanbaşı",
    "lat": 37.3159,
    "lon": 40.754687,
    "routes": [
      "00010",
      "00020",
      "00030",
      "00171",
      "00172",
      "00210",
      "00220",
      "10191",
      "10200",
      "90070"
    ]
  },
  {
    "id": "60228",
    "name": "Eski Kale",
    "lat": 37.3048064,
    "lon": 40.7716507,
    "routes": [
      "90070"
    ]
  },
  {
    "id": "60230",
    "name": "Deyrulzafaran Manastırı",
    "lat": 37.299097,
    "lon": 40.7900829,
    "routes": [
      "90070"
    ]
  },
  {
    "id": "60235",
    "name": "Ovaköy",
    "lat": 37.2502781,
    "lon": 40.8182675,
    "routes": [
      "90071"
    ]
  },
  {
    "id": "60233",
    "name": "Yolbaşı",
    "lat": 37.2601712,
    "lon": 40.7842035,
    "routes": [
      "90071"
    ]
  },
  {
    "id": "60232",
    "name": "Yolbaşı",
    "lat": 37.2601008,
    "lon": 40.7843215,
    "routes": [
      "90071"
    ]
  },
  {
    "id": "60234",
    "name": "Ovaköy",
    "lat": 37.2502461,
    "lon": 40.8179618,
    "routes": [
      "90071"
    ]
  },
  {
    "id": "30040",
    "name": "Yüce Mahallesi",
    "lat": 37.4537963,
    "lon": 40.6224436,
    "routes": [
      "10050",
      "90080"
    ]
  },
  {
    "id": "20004",
    "name": "Sultanköy Mahallesi",
    "lat": 37.4460064,
    "lon": 40.6332107,
    "routes": [
      "10050",
      "90080"
    ]
  },
  {
    "id": "20007",
    "name": "Yayla Mahallesi",
    "lat": 37.4323537,
    "lon": 40.6353712,
    "routes": [
      "10050",
      "90080"
    ]
  },
  {
    "id": "60320",
    "name": "Davutoğlu",
    "lat": 37.4019784,
    "lon": 40.6476669,
    "routes": [
      "90080"
    ]
  },
  {
    "id": "10079",
    "name": "Kampüs Giriş",
    "lat": 37.349744,
    "lon": 40.659414,
    "routes": [
      "00010",
      "00020",
      "00040",
      "00151",
      "00160",
      "00191",
      "10000",
      "10050",
      "10190",
      "10200",
      "10201",
      "90080"
    ]
  },
  {
    "id": "10098",
    "name": "Veske",
    "lat": 37.347015,
    "lon": 40.670547,
    "routes": [
      "00010",
      "00020",
      "00040",
      "00151",
      "00160",
      "00191",
      "10000",
      "10050",
      "10190",
      "10200",
      "10201",
      "90080"
    ]
  },
  {
    "id": "10108",
    "name": "Bayverdi",
    "lat": 37.344891,
    "lon": 40.677078,
    "routes": [
      "00010",
      "00020",
      "00040",
      "00151",
      "00160",
      "00191",
      "10000",
      "10050",
      "10190",
      "10200",
      "10201",
      "90080"
    ]
  },
  {
    "id": "10109",
    "name": "Nasıroğlu Halı Saha",
    "lat": 37.341771,
    "lon": 40.68163,
    "routes": [
      "00010",
      "00020",
      "00040",
      "00151",
      "00160",
      "00191",
      "10000",
      "10050",
      "10190",
      "10200",
      "10201",
      "90080"
    ]
  },
  {
    "id": "10110",
    "name": "Vefa Evleri",
    "lat": 37.33886,
    "lon": 40.685118,
    "routes": [
      "00010",
      "00020",
      "00040",
      "00151",
      "00160",
      "00191",
      "10000",
      "10050",
      "10190",
      "10200",
      "10201",
      "90080"
    ]
  },
  {
    "id": "10092",
    "name": "Toki Giriş",
    "lat": 37.336152,
    "lon": 40.693432,
    "routes": [
      "00010",
      "00020",
      "00040",
      "00160",
      "00191",
      "10000",
      "10050",
      "10190",
      "10191",
      "10200",
      "10201",
      "90080"
    ]
  },
  {
    "id": "10112",
    "name": "Sınav Lisesi",
    "lat": 37.336012,
    "lon": 40.697876,
    "routes": [
      "00010",
      "00020",
      "00040",
      "00151",
      "00160",
      "00171",
      "00172",
      "00191",
      "10000",
      "10050",
      "10190",
      "10191",
      "10200",
      "10201",
      "90080"
    ]
  },
  {
    "id": "10113",
    "name": "Kaymakamlık",
    "lat": 37.336062,
    "lon": 40.700698,
    "routes": [
      "00010",
      "00020",
      "00040",
      "00151",
      "00160",
      "00171",
      "00172",
      "00191",
      "10000",
      "10050",
      "10190",
      "10191",
      "10200",
      "10201",
      "90080"
    ]
  },
  {
    "id": "10090",
    "name": "Konbay Sitesi",
    "lat": 37.335908,
    "lon": 40.703847,
    "routes": [
      "00010",
      "00020",
      "00040",
      "00151",
      "00160",
      "00171",
      "00172",
      "00191",
      "10000",
      "10050",
      "10190",
      "10191",
      "10200",
      "10201",
      "90080"
    ]
  },
  {
    "id": "10096",
    "name": "Kaymakamlık",
    "lat": 37.336273,
    "lon": 40.701142,
    "routes": [
      "00010",
      "00020",
      "00040",
      "00151",
      "00160",
      "00171",
      "00172",
      "00191",
      "10000",
      "10050",
      "10190",
      "10191",
      "10200",
      "10201",
      "90080"
    ]
  },
  {
    "id": "10091",
    "name": "Yaygrand Otel",
    "lat": 37.336221,
    "lon": 40.696963,
    "routes": [
      "00010",
      "00020",
      "00040",
      "00160",
      "00171",
      "00191",
      "10000",
      "10050",
      "10190",
      "10191",
      "10200",
      "10201",
      "90080"
    ]
  },
  {
    "id": "10093",
    "name": "Vefa Evleri",
    "lat": 37.338814,
    "lon": 40.6856,
    "routes": [
      "00010",
      "00020",
      "00040",
      "00151",
      "00160",
      "00191",
      "10000",
      "10050",
      "10190",
      "10200",
      "10201",
      "90080"
    ]
  },
  {
    "id": "10094",
    "name": "Nasıroğlu Halı Saha",
    "lat": 37.342238,
    "lon": 40.68151,
    "routes": [
      "00010",
      "00020",
      "00040",
      "00151",
      "00160",
      "00191",
      "10000",
      "10050",
      "10190",
      "10200",
      "10201",
      "90080"
    ]
  },
  {
    "id": "10095",
    "name": "Veske Sitesi",
    "lat": 37.346632,
    "lon": 40.672593,
    "routes": [
      "00010",
      "00020",
      "00040",
      "00151",
      "00160",
      "00191",
      "10000",
      "10050",
      "10190",
      "10200",
      "10201",
      "90080"
    ]
  },
  {
    "id": "30069",
    "name": "Özlüce Mahallesi",
    "lat": 37.4575088,
    "lon": 40.6185548,
    "routes": [
      "10050",
      "90080"
    ]
  },
  {
    "id": "20013",
    "name": "Fen İşleri",
    "lat": 37.3485379,
    "lon": 40.2691703,
    "routes": [
      "10211",
      "60010",
      "60040"
    ]
  },
  {
    "id": "60040",
    "name": "Vatan",
    "lat": 37.3549338,
    "lon": 40.2698167,
    "routes": [
      "60010"
    ]
  },
  {
    "id": "60048",
    "name": "Namık Kemal İ.Ö.O",
    "lat": 37.3587724,
    "lon": 40.2709592,
    "routes": [
      "60010"
    ]
  },
  {
    "id": "60088",
    "name": "Derik Devlet Hastanesi",
    "lat": 37.3719454,
    "lon": 40.2718008,
    "routes": [
      "60010",
      "60020",
      "60030",
      "60040"
    ]
  },
  {
    "id": "20015",
    "name": "Derik Devlet Hastanesi",
    "lat": 37.371916,
    "lon": 40.271634,
    "routes": [
      "60010",
      "60020",
      "60030",
      "60040"
    ]
  },
  {
    "id": "60067",
    "name": "Namık Kemal İ.Ö.O",
    "lat": 37.3587335,
    "lon": 40.2708385,
    "routes": [
      "60010"
    ]
  },
  {
    "id": "30080",
    "name": "Vatan",
    "lat": 37.3546923,
    "lon": 40.269643,
    "routes": [
      "60010"
    ]
  },
  {
    "id": "60321",
    "name": "Kayalar İ.Ö.O",
    "lat": 37.3314367,
    "lon": 40.2366961,
    "routes": [
      "60020"
    ]
  },
  {
    "id": "60322",
    "name": "Söğütözü Cami",
    "lat": 37.3420122,
    "lon": 40.2472255,
    "routes": [
      "60020"
    ]
  },
  {
    "id": "30002",
    "name": "Gazi Yatılı Bölge Okulu",
    "lat": 37.3468325,
    "lon": 40.2607207,
    "routes": [
      "60020",
      "60040"
    ]
  },
  {
    "id": "10172",
    "name": "Söğütözü Mahallesi",
    "lat": 37.3443832,
    "lon": 40.2497546,
    "routes": [
      "60020"
    ]
  },
  {
    "id": "40054",
    "name": "Söğütözü Mahallesi",
    "lat": 37.3487424,
    "lon": 40.2523863,
    "routes": [
      "60020"
    ]
  },
  {
    "id": "60021",
    "name": "Derik Tedaş",
    "lat": 37.3545983,
    "lon": 40.2552487,
    "routes": [
      "60020"
    ]
  },
  {
    "id": "30072",
    "name": "Derik Cezaevi",
    "lat": 37.3571392,
    "lon": 40.2583009,
    "routes": [
      "60020"
    ]
  },
  {
    "id": "20020",
    "name": "Dörtyol",
    "lat": 37.3621714,
    "lon": 40.2649022,
    "routes": [
      "60020",
      "60030"
    ]
  },
  {
    "id": "60086",
    "name": "Muhammed Fatih Safitürk",
    "lat": 37.3657408,
    "lon": 40.267669,
    "routes": [
      "60020",
      "60040"
    ]
  },
  {
    "id": "60087",
    "name": "Muhammed Fatih Safitürk",
    "lat": 37.3657434,
    "lon": 40.2673713,
    "routes": [
      "60020",
      "60040"
    ]
  },
  {
    "id": "20019",
    "name": "Dörtyol",
    "lat": 37.3623601,
    "lon": 40.2646795,
    "routes": [
      "60020",
      "60030"
    ]
  },
  {
    "id": "60078",
    "name": "Zeytin Pınar",
    "lat": 37.3692583,
    "lon": 40.2607979,
    "routes": [
      "60030"
    ]
  },
  {
    "id": "30079",
    "name": "Derik Lisesi",
    "lat": 37.3565308,
    "lon": 40.2674456,
    "routes": [
      "10211",
      "60040"
    ]
  },
  {
    "id": "30076",
    "name": "Derik Lisesi",
    "lat": 37.3565256,
    "lon": 40.2679285,
    "routes": [
      "10211",
      "60040"
    ]
  },
  {
    "id": "10106",
    "name": "Kampüs",
    "lat": 37.349843,
    "lon": 40.640409,
    "routes": [
      "00010",
      "00020",
      "00040",
      "00151",
      "00160",
      "00191",
      "10000",
      "10190",
      "10200",
      "10201"
    ]
  },
  {
    "id": "10078",
    "name": "Kampüs Spor Sahası",
    "lat": 37.347756,
    "lon": 40.648722,
    "routes": [
      "00010",
      "00020",
      "00040",
      "00151",
      "00160",
      "00191",
      "10000",
      "10190",
      "10200",
      "10201"
    ]
  },
  {
    "id": "10165",
    "name": "Organize B",
    "lat": 37.261592,
    "lon": 40.671027,
    "routes": [
      "00030",
      "00040",
      "10020",
      "10030",
      "10211",
      "51020",
      "51030",
      "51040"
    ]
  },
  {
    "id": "10163",
    "name": "Yukarı Azıklı",
    "lat": 37.266631,
    "lon": 40.678062,
    "routes": [
      "00030",
      "00040",
      "10020",
      "10030",
      "10211",
      "51020",
      "51030",
      "51040"
    ]
  },
  {
    "id": "10161",
    "name": "Organize A",
    "lat": 37.269467,
    "lon": 40.682094,
    "routes": [
      "00030",
      "00040",
      "10020",
      "10030",
      "10211",
      "51020",
      "51030",
      "51040"
    ]
  },
  {
    "id": "10159",
    "name": "Gülseren İlköğretim Okulu",
    "lat": 37.273411,
    "lon": 40.687514,
    "routes": [
      "00030",
      "00040",
      "10020",
      "10030",
      "10211",
      "51020",
      "51030",
      "51040"
    ]
  },
  {
    "id": "10065",
    "name": "Toprak Mahsülleri",
    "lat": 37.276062,
    "lon": 40.691207,
    "routes": [
      "00030",
      "00040",
      "10020",
      "10030",
      "10211",
      "51020",
      "51030",
      "51040"
    ]
  },
  {
    "id": "10064",
    "name": "Toprak Mahsülleri",
    "lat": 37.276339,
    "lon": 40.691132,
    "routes": [
      "00030",
      "10030",
      "10211",
      "51020",
      "51030"
    ]
  },
  {
    "id": "10158",
    "name": "Gülseren İlköğretim Okulu",
    "lat": 37.273607,
    "lon": 40.687295,
    "routes": [
      "00030",
      "00040",
      "10030",
      "10211",
      "51020",
      "51030"
    ]
  },
  {
    "id": "10160",
    "name": "Organize A",
    "lat": 37.27095,
    "lon": 40.683617,
    "routes": [
      "00030",
      "00040",
      "10030",
      "10211",
      "51020",
      "51030"
    ]
  },
  {
    "id": "10162",
    "name": "Yukarı Azıklı",
    "lat": 37.266399,
    "lon": 40.677278,
    "routes": [
      "00030",
      "00040",
      "10030",
      "10211",
      "51020",
      "51030"
    ]
  },
  {
    "id": "10164",
    "name": "Organize B",
    "lat": 37.263111,
    "lon": 40.672607,
    "routes": [
      "00030",
      "00040",
      "10030",
      "10211",
      "51020",
      "51030"
    ]
  },
  {
    "id": "40011",
    "name": "Organize B Kapı",
    "lat": 37.261722,
    "lon": 40.670671,
    "routes": [
      "00030",
      "10030",
      "10211",
      "51020",
      "51030"
    ]
  },
  {
    "id": "10107",
    "name": "Öğrenci Yurdu",
    "lat": 37.339794,
    "lon": 40.650049,
    "routes": [
      "00040",
      "00191"
    ]
  },
  {
    "id": "30039",
    "name": "Sürekli Mahallesi",
    "lat": 37.194747,
    "lon": 40.396237,
    "routes": [
      "10211",
      "20010",
      "20011",
      "20021"
    ]
  },
  {
    "id": "30046",
    "name": "Akça Mahallesi",
    "lat": 37.1934491,
    "lon": 40.4438108,
    "routes": [
      "10211",
      "20010",
      "20011"
    ]
  },
  {
    "id": "60312",
    "name": "Buğday Pazarı",
    "lat": 37.1924883,
    "lon": 40.4988433,
    "routes": [
      "10211",
      "20010"
    ]
  },
  {
    "id": "40078",
    "name": "Akziyaret",
    "lat": 37.191939,
    "lon": 40.505851,
    "routes": [
      "20010",
      "20011"
    ]
  },
  {
    "id": "30055",
    "name": "Galericiler Sitesi",
    "lat": 37.191582,
    "lon": 40.519633,
    "routes": [
      "10211",
      "20010",
      "20011"
    ]
  },
  {
    "id": "40079",
    "name": "Nesil Lisesi",
    "lat": 37.191221,
    "lon": 40.537256,
    "routes": [
      "10211",
      "20010",
      "20011"
    ]
  },
  {
    "id": "30047",
    "name": "Işıklar Mah.",
    "lat": 37.190929,
    "lon": 40.546477,
    "routes": [
      "10211",
      "20010",
      "20011"
    ]
  },
  {
    "id": "40080",
    "name": "Mezbahane",
    "lat": 37.190641,
    "lon": 40.558587,
    "routes": [
      "10211",
      "20010",
      "20011"
    ]
  },
  {
    "id": "40082",
    "name": "Şahin",
    "lat": 37.190576,
    "lon": 40.561341,
    "routes": [
      "10211",
      "20010",
      "20011"
    ]
  },
  {
    "id": "40083",
    "name": "Kızıltepe Fen Lisesi",
    "lat": 37.190235,
    "lon": 40.566127,
    "routes": [
      "10211",
      "20010",
      "20011"
    ]
  },
  {
    "id": "40084",
    "name": "Öztopraklar",
    "lat": 37.18924,
    "lon": 40.572234,
    "routes": [
      "10211",
      "20010",
      "20011"
    ]
  },
  {
    "id": "40042",
    "name": "Çarşı",
    "lat": 37.193127,
    "lon": 40.586645,
    "routes": [
      "20010",
      "20011",
      "20020",
      "20021",
      "20030",
      "20040",
      "20050",
      "20051",
      "20060",
      "20061",
      "20070"
    ]
  },
  {
    "id": "40043",
    "name": "İbrahim Özmen Parkı",
    "lat": 37.193858,
    "lon": 40.583131,
    "routes": [
      "20010",
      "20011",
      "20020",
      "20021",
      "20030",
      "20040",
      "20050",
      "20051",
      "20060",
      "20061",
      "20070",
      "20080"
    ]
  },
  {
    "id": "40044",
    "name": "Şahkulubey",
    "lat": 37.192188,
    "lon": 40.581577,
    "routes": [
      "20010",
      "20011",
      "20020",
      "20021",
      "20030",
      "20040",
      "20050",
      "20051",
      "20060",
      "20061",
      "20070",
      "20080"
    ]
  },
  {
    "id": "40001",
    "name": "Öğretmen Evi",
    "lat": 37.189985,
    "lon": 40.577834,
    "routes": [
      "20010",
      "20011",
      "20020",
      "20021",
      "20030",
      "20040",
      "20050",
      "20051",
      "20060",
      "20061",
      "20080"
    ]
  },
  {
    "id": "40045",
    "name": "Emniyet Müdürlüğü",
    "lat": 37.189282,
    "lon": 40.574677,
    "routes": [
      "10211",
      "20010",
      "20011",
      "20021"
    ]
  },
  {
    "id": "40068",
    "name": "Öztopraklar",
    "lat": 37.189647,
    "lon": 40.572187,
    "routes": [
      "10211",
      "20010"
    ]
  },
  {
    "id": "40069",
    "name": "Halı Saha",
    "lat": 37.190136,
    "lon": 40.569096,
    "routes": [
      "10211",
      "20010",
      "20011",
      "20021"
    ]
  },
  {
    "id": "40071",
    "name": "Fen Lisesi",
    "lat": 37.190765,
    "lon": 40.564675,
    "routes": [
      "10211",
      "20010"
    ]
  },
  {
    "id": "40072",
    "name": "Şahin",
    "lat": 37.190981,
    "lon": 40.561178,
    "routes": [
      "10211",
      "20010",
      "20011",
      "20021"
    ]
  },
  {
    "id": "40073",
    "name": "Mezbahane",
    "lat": 37.191022,
    "lon": 40.557846,
    "routes": [
      "10211",
      "20010"
    ]
  },
  {
    "id": "40074",
    "name": "Işıklar Mahallesi",
    "lat": 37.191263,
    "lon": 40.546252,
    "routes": [
      "10211",
      "20010",
      "20011",
      "20021"
    ]
  },
  {
    "id": "40075",
    "name": "Nesil Lisesi",
    "lat": 37.191441,
    "lon": 40.538274,
    "routes": [
      "10211",
      "20010",
      "20011",
      "20021"
    ]
  },
  {
    "id": "40076",
    "name": "Galericiler Sitesi",
    "lat": 37.191872,
    "lon": 40.519938,
    "routes": [
      "10211",
      "20010",
      "20011",
      "20021"
    ]
  },
  {
    "id": "40077",
    "name": "Akziyaret",
    "lat": 37.192194,
    "lon": 40.505628,
    "routes": [
      "10211",
      "20010",
      "20011",
      "20021"
    ]
  },
  {
    "id": "40030",
    "name": "Cihanpol",
    "lat": 37.212842,
    "lon": 40.614413,
    "routes": [
      "10030",
      "10211",
      "20011",
      "20021",
      "20030",
      "20040",
      "20051",
      "20061",
      "20080",
      "51020",
      "51030"
    ]
  },
  {
    "id": "30018",
    "name": "Doyuran Mahallesi",
    "lat": 37.121122,
    "lon": 40.63284,
    "routes": [
      "20110"
    ]
  },
  {
    "id": "30012",
    "name": "Şenyurt Mahallesi 2",
    "lat": 37.081818,
    "lon": 40.648882,
    "routes": [
      "20110"
    ]
  },
  {
    "id": "40103",
    "name": "Aziz Usta Üst Geçit",
    "lat": 37.188222,
    "lon": 40.597527,
    "routes": [
      "10211",
      "20011"
    ]
  },
  {
    "id": "40047",
    "name": "Erdemler",
    "lat": 37.200054,
    "lon": 40.602725,
    "routes": [
      "10030",
      "10211",
      "20011",
      "20021",
      "20030",
      "20040",
      "20051",
      "20061",
      "20080",
      "51020",
      "51030"
    ]
  },
  {
    "id": "40039",
    "name": "Toprak Mahsülleri Ofisi",
    "lat": 37.202706,
    "lon": 40.605089,
    "routes": [
      "10030",
      "10211",
      "20011",
      "20021",
      "20030",
      "20040",
      "20051",
      "20061",
      "20080",
      "51020",
      "51030"
    ]
  },
  {
    "id": "40037",
    "name": "Kalender",
    "lat": 37.204524,
    "lon": 40.606767,
    "routes": [
      "10030",
      "10211",
      "20011",
      "20021",
      "20030",
      "20040",
      "20051",
      "20061",
      "20080",
      "51020",
      "51030"
    ]
  },
  {
    "id": "40036",
    "name": "Moil Petrol",
    "lat": 37.206437,
    "lon": 40.608553,
    "routes": [
      "10030",
      "10211",
      "20011",
      "20021",
      "20030",
      "20040",
      "20051",
      "20061",
      "20080",
      "51020",
      "51030"
    ]
  },
  {
    "id": "40033",
    "name": "Kızıltepe Stadyum",
    "lat": 37.210096,
    "lon": 40.611948,
    "routes": [
      "10030",
      "10211",
      "20011",
      "20021",
      "20030",
      "20040",
      "20051",
      "20061",
      "20080",
      "51020",
      "51030"
    ]
  },
  {
    "id": "40029",
    "name": "Kızıltepe İtfaiye",
    "lat": 37.216853,
    "lon": 40.61812,
    "routes": [
      "10030",
      "10211",
      "20011",
      "20021",
      "20030",
      "20051",
      "20061",
      "20080",
      "51020",
      "51030"
    ]
  },
  {
    "id": "40027",
    "name": "Kızıltepe Devlet Hastanesi",
    "lat": 37.226336,
    "lon": 40.626951,
    "routes": [
      "10030",
      "10211",
      "20011",
      "20021",
      "20030",
      "20051",
      "20061",
      "20080",
      "51020",
      "51030"
    ]
  },
  {
    "id": "40023",
    "name": "Kızıltepe Toki",
    "lat": 37.228969,
    "lon": 40.629325,
    "routes": [
      "10030",
      "10211",
      "20011",
      "20021",
      "20051",
      "20061",
      "20080",
      "51020",
      "51030"
    ]
  },
  {
    "id": "40020",
    "name": "Mardin Havaalanı",
    "lat": 37.235869,
    "lon": 40.635754,
    "routes": [
      "10020",
      "10030",
      "10211",
      "20011",
      "20021",
      "20051",
      "20061",
      "20080",
      "51020",
      "51030"
    ]
  },
  {
    "id": "40021",
    "name": "Mardin Havaalanı",
    "lat": 37.234895,
    "lon": 40.634381,
    "routes": [
      "10030",
      "10211",
      "20011",
      "20021",
      "20051",
      "20061",
      "20080",
      "51020",
      "51030"
    ]
  },
  {
    "id": "40022",
    "name": "Kızıltepe Toki",
    "lat": 37.229135,
    "lon": 40.629076,
    "routes": [
      "10030",
      "10211",
      "20011",
      "20021",
      "20051",
      "20061",
      "20080",
      "51020",
      "51030"
    ]
  },
  {
    "id": "40026",
    "name": "Kızıltepe Devlet Hastanesi",
    "lat": 37.227838,
    "lon": 40.627802,
    "routes": [
      "10030",
      "10211",
      "20011",
      "20021",
      "20051",
      "20061",
      "20080",
      "51020",
      "51030"
    ]
  },
  {
    "id": "40070",
    "name": "Ekrem Dağ",
    "lat": 37.219351,
    "lon": 40.620062,
    "routes": [
      "10030",
      "10211",
      "20011",
      "20021",
      "20030",
      "20051",
      "20061",
      "20080",
      "51020",
      "51030"
    ]
  },
  {
    "id": "40028",
    "name": "Kızıltepe İtfaiye",
    "lat": 37.217163,
    "lon": 40.618034,
    "routes": [
      "10030",
      "10211",
      "20011",
      "20021",
      "20030",
      "20051",
      "20061",
      "20080",
      "51020",
      "51030"
    ]
  },
  {
    "id": "40031",
    "name": "Cihanpol",
    "lat": 37.214187,
    "lon": 40.615253,
    "routes": [
      "10030",
      "10211",
      "20011",
      "20021",
      "20030",
      "20040",
      "20051",
      "20061",
      "20080",
      "51020",
      "51030"
    ]
  },
  {
    "id": "40032",
    "name": "Kızıltepe Stadyum",
    "lat": 37.210717,
    "lon": 40.612039,
    "routes": [
      "10030",
      "10211",
      "20011",
      "20021",
      "20030",
      "20040",
      "20051",
      "20061",
      "20080",
      "51020",
      "51030"
    ]
  },
  {
    "id": "40034",
    "name": "Hacı Halil Camii",
    "lat": 37.20823,
    "lon": 40.609775,
    "routes": [
      "10030",
      "10211",
      "20011",
      "20021",
      "20030",
      "20040",
      "20051",
      "20061",
      "20080",
      "51020",
      "51030"
    ]
  },
  {
    "id": "40035",
    "name": "Moil Petrol",
    "lat": 37.206424,
    "lon": 40.608105,
    "routes": [
      "10030",
      "10211",
      "20011",
      "20021",
      "20030",
      "20040",
      "20051",
      "20061",
      "20080",
      "51020",
      "51030"
    ]
  },
  {
    "id": "40038",
    "name": "Toprak Mahsülleri Ofisi",
    "lat": 37.20298,
    "lon": 40.604912,
    "routes": [
      "10030",
      "10211",
      "20011",
      "20021",
      "20030",
      "20040",
      "20051",
      "20061",
      "20080",
      "51020",
      "51030"
    ]
  },
  {
    "id": "40092",
    "name": "Vatan",
    "lat": 37.192842,
    "lon": 40.5989,
    "routes": [
      "10211",
      "20011",
      "20021"
    ]
  },
  {
    "id": "40062",
    "name": "Askerlik Şubesi",
    "lat": 37.197246,
    "lon": 40.59773,
    "routes": [
      "10030",
      "20011",
      "20021",
      "20030",
      "20040",
      "20051",
      "20061",
      "20080",
      "51020",
      "51030"
    ]
  },
  {
    "id": "40123",
    "name": "Kıbrıs",
    "lat": 37.18247,
    "lon": 40.581524,
    "routes": [
      "20011",
      "20020",
      "20021"
    ]
  },
  {
    "id": "40136",
    "name": "Adnan Menderes İ.Ö.O",
    "lat": 37.180195,
    "lon": 40.587655,
    "routes": [
      "20011",
      "20020",
      "20021"
    ]
  },
  {
    "id": "40138",
    "name": "Sanayi",
    "lat": 37.183111,
    "lon": 40.59088,
    "routes": [
      "20011",
      "20020",
      "20021"
    ]
  },
  {
    "id": "30068",
    "name": "Eymirli Mahallesi",
    "lat": 37.171448,
    "lon": 40.6848494,
    "routes": [
      "20020"
    ]
  },
  {
    "id": "40132",
    "name": "Sanayi",
    "lat": 37.183217,
    "lon": 40.590777,
    "routes": [
      "20020",
      "20021"
    ]
  },
  {
    "id": "40133",
    "name": "Elmar",
    "lat": 37.183162,
    "lon": 40.587863,
    "routes": [
      "20020",
      "20021"
    ]
  },
  {
    "id": "40135",
    "name": "Adnan Menderes İ.Ö.O",
    "lat": 37.180164,
    "lon": 40.587529,
    "routes": [
      "20020",
      "20021"
    ]
  },
  {
    "id": "40137",
    "name": "İpek Mah. Sağlık Ocağı",
    "lat": 37.180998,
    "lon": 40.581298,
    "routes": [
      "20020",
      "20021"
    ]
  },
  {
    "id": "40122",
    "name": "Kıbrıs",
    "lat": 37.182485,
    "lon": 40.581709,
    "routes": [
      "20020",
      "20021"
    ]
  },
  {
    "id": "40124",
    "name": "Aksoy",
    "lat": 37.184895,
    "lon": 40.582888,
    "routes": [
      "20020",
      "20021"
    ]
  },
  {
    "id": "40125",
    "name": "Aksoy",
    "lat": 37.184941,
    "lon": 40.582746,
    "routes": [
      "20020"
    ]
  },
  {
    "id": "40134",
    "name": "Akyol",
    "lat": 37.183009,
    "lon": 40.587789,
    "routes": [
      "20020"
    ]
  },
  {
    "id": "40064",
    "name": "Şirik Dere",
    "lat": 37.194482,
    "lon": 40.59221,
    "routes": [
      "10030",
      "20021",
      "20030",
      "20040",
      "20051",
      "20061",
      "20080",
      "51020",
      "51030"
    ]
  },
  {
    "id": "40063",
    "name": "Yazgan",
    "lat": 37.195041,
    "lon": 40.593547,
    "routes": [
      "10030",
      "20021",
      "20030",
      "20040",
      "20051",
      "20061",
      "20080",
      "51020",
      "51030"
    ]
  },
  {
    "id": "40040",
    "name": "Kızıltepe Askerlik Şubesi",
    "lat": 37.197926,
    "lon": 40.599401,
    "routes": [
      "10030",
      "20021",
      "20030",
      "20040",
      "20051",
      "20061",
      "20080",
      "51020",
      "51030"
    ]
  },
  {
    "id": "40061",
    "name": "Üçyol",
    "lat": 37.19856,
    "lon": 40.600262,
    "routes": [
      "10030",
      "20021",
      "20030",
      "20040",
      "20051",
      "20061",
      "20080",
      "51020",
      "51030"
    ]
  },
  {
    "id": "40019",
    "name": "Mova Park",
    "lat": 37.23712,
    "lon": 40.636915,
    "routes": [
      "10020",
      "10030",
      "10211",
      "20021",
      "20051",
      "20061",
      "20080",
      "51020",
      "51030",
      "51040"
    ]
  },
  {
    "id": "40052",
    "name": "Toki Park",
    "lat": 37.23814,
    "lon": 40.630168,
    "routes": [
      "20030",
      "20040"
    ]
  },
  {
    "id": "40053",
    "name": "Doğa Yapı",
    "lat": 37.236159,
    "lon": 40.627902,
    "routes": [
      "20030",
      "20040"
    ]
  },
  {
    "id": "40049",
    "name": "Adliye Lojmanları",
    "lat": 37.232076,
    "lon": 40.623642,
    "routes": [
      "20030"
    ]
  },
  {
    "id": "40025",
    "name": "Kızıltepe Devlet Hastanesi",
    "lat": 37.227946,
    "lon": 40.625954,
    "routes": [
      "20030",
      "20040"
    ]
  },
  {
    "id": "40060",
    "name": "Üçyol",
    "lat": 37.199249,
    "lon": 40.600866,
    "routes": [
      "10030",
      "20030",
      "20040",
      "20051",
      "20061",
      "20080",
      "51020",
      "51030"
    ]
  },
  {
    "id": "40050",
    "name": "Adliye Lojmanları",
    "lat": 37.231982,
    "lon": 40.623756,
    "routes": [
      "20030",
      "20040"
    ]
  },
  {
    "id": "40051",
    "name": "Toki A101",
    "lat": 37.235813,
    "lon": 40.627824,
    "routes": [
      "20030",
      "20040"
    ]
  },
  {
    "id": "60250",
    "name": "Yüceli Mahallesi 2",
    "lat": 37.2945436,
    "lon": 40.6354213,
    "routes": [
      "20040"
    ]
  },
  {
    "id": "60249",
    "name": "Ali Paşa Mahallesi 2",
    "lat": 37.2881121,
    "lon": 40.6373633,
    "routes": [
      "20040"
    ]
  },
  {
    "id": "60248",
    "name": "Karaman Mahallesi 2",
    "lat": 37.2781565,
    "lon": 40.6395546,
    "routes": [
      "20040"
    ]
  },
  {
    "id": "60247",
    "name": "Kocalar Mahallesi 2",
    "lat": 37.2648654,
    "lon": 40.6432266,
    "routes": [
      "20040"
    ]
  },
  {
    "id": "60246",
    "name": "Ziyaret Mahallesi 2",
    "lat": 37.2467574,
    "lon": 40.6354106,
    "routes": [
      "20040"
    ]
  },
  {
    "id": "60245",
    "name": "Eroğlu Mahallesi 2",
    "lat": 37.2401766,
    "lon": 40.6312049,
    "routes": [
      "20040"
    ]
  },
  {
    "id": "40003",
    "name": "Kızıltepe Adliye Lojmanları",
    "lat": 37.232267,
    "lon": 40.623831,
    "routes": [
      "20040"
    ]
  },
  {
    "id": "40024",
    "name": "Kızıltepe Lojmanlar",
    "lat": 37.229467,
    "lon": 40.628049,
    "routes": [
      "20040"
    ]
  },
  {
    "id": "30006",
    "name": "Eroğlu Mahallesi",
    "lat": 37.2400808,
    "lon": 40.6312951,
    "routes": [
      "20040"
    ]
  },
  {
    "id": "60060",
    "name": "Ziyaret Mahallesi",
    "lat": 37.2469435,
    "lon": 40.6356545,
    "routes": [
      "20040"
    ]
  },
  {
    "id": "60061",
    "name": "Kocalar Mahallesi",
    "lat": 37.2647341,
    "lon": 40.6433845,
    "routes": [
      "20040"
    ]
  },
  {
    "id": "60037",
    "name": "Karaman Mahallesi",
    "lat": 37.2780439,
    "lon": 40.6397707,
    "routes": [
      "20040"
    ]
  },
  {
    "id": "60038",
    "name": "Ali Paşa Mahallesi",
    "lat": 37.2882484,
    "lon": 40.6375806,
    "routes": [
      "20040"
    ]
  },
  {
    "id": "40115",
    "name": "Vatan İ.Ö.O",
    "lat": 37.195469,
    "lon": 40.559635,
    "routes": [
      "20070"
    ]
  },
  {
    "id": "40113",
    "name": "Ersoylu Camii",
    "lat": 37.194995,
    "lon": 40.565085,
    "routes": [
      "20070"
    ]
  },
  {
    "id": "40111",
    "name": "Çelik",
    "lat": 37.194428,
    "lon": 40.568717,
    "routes": [
      "20070"
    ]
  },
  {
    "id": "40109",
    "name": "Ersoylu",
    "lat": 37.193979,
    "lon": 40.573218,
    "routes": [
      "20070"
    ]
  },
  {
    "id": "40002",
    "name": "Reşit Gündoğdu",
    "lat": 37.193544,
    "lon": 40.575628,
    "routes": [
      "20070"
    ]
  },
  {
    "id": "40046",
    "name": "Turgut Özal Taziye Evi",
    "lat": 37.193082,
    "lon": 40.577361,
    "routes": [
      "20070"
    ]
  },
  {
    "id": "60313",
    "name": "Ersoylu Mahallesi",
    "lat": 37.1964026,
    "lon": 40.5553628,
    "routes": [
      "20070"
    ]
  },
  {
    "id": "40117",
    "name": "Turgut Özal Taziye Evi",
    "lat": 37.193176,
    "lon": 40.57744,
    "routes": [
      "20070"
    ]
  },
  {
    "id": "40107",
    "name": "Reşit Gündoğdu Sağlık Ocağı",
    "lat": 37.193755,
    "lon": 40.575336,
    "routes": [
      "20070"
    ]
  },
  {
    "id": "40108",
    "name": "Ersoylu",
    "lat": 37.19409,
    "lon": 40.573308,
    "routes": [
      "20070"
    ]
  },
  {
    "id": "40110",
    "name": "Çelik",
    "lat": 37.194548,
    "lon": 40.568541,
    "routes": [
      "20070"
    ]
  },
  {
    "id": "40112",
    "name": "Ersoylu Camii",
    "lat": 37.195055,
    "lon": 40.565285,
    "routes": [
      "20070"
    ]
  },
  {
    "id": "40116",
    "name": "Vatan İ.Ö.O",
    "lat": 37.195676,
    "lon": 40.559573,
    "routes": [
      "20070"
    ]
  },
  {
    "id": "60314",
    "name": "Mehmet Sincar Parkı",
    "lat": 37.19655,
    "lon": 40.5874232,
    "routes": [
      "20090"
    ]
  },
  {
    "id": "30038",
    "name": "Esenli Mah.",
    "lat": 37.222378,
    "lon": 40.558184,
    "routes": [
      "20090"
    ]
  },
  {
    "id": "40016",
    "name": "Trafo",
    "lat": 37.241134,
    "lon": 40.642199,
    "routes": [
      "10020",
      "10030",
      "10211",
      "51020",
      "51030",
      "51040"
    ]
  },
  {
    "id": "40015",
    "name": "Bahçeşehir Koleji",
    "lat": 37.248079,
    "lon": 40.652086,
    "routes": [
      "10020",
      "10030",
      "10211",
      "51020",
      "51030",
      "51040"
    ]
  },
  {
    "id": "40055",
    "name": "Türkler Beton",
    "lat": 37.250178,
    "lon": 40.655043,
    "routes": [
      "10020",
      "10030",
      "10211",
      "51020",
      "51030",
      "51040"
    ]
  },
  {
    "id": "40057",
    "name": "Gurs",
    "lat": 37.253997,
    "lon": 40.660352,
    "routes": [
      "10020",
      "10030",
      "10211",
      "51020",
      "51030",
      "51040"
    ]
  },
  {
    "id": "40013",
    "name": "Mehmet Akif İnan İ.Ö.O",
    "lat": 37.256824,
    "lon": 40.664312,
    "routes": [
      "10020",
      "10030",
      "10211",
      "51020",
      "51030",
      "51040"
    ]
  },
  {
    "id": "40058",
    "name": "Yukarı Azıklı Mah.",
    "lat": 37.258558,
    "lon": 40.666663,
    "routes": [
      "10020",
      "10030",
      "10211",
      "51020",
      "51030",
      "51040"
    ]
  },
  {
    "id": "40012",
    "name": "Mehmet Akif İnan İ.Ö.O",
    "lat": 37.257121,
    "lon": 40.664116,
    "routes": [
      "10030",
      "10211",
      "51020",
      "51030"
    ]
  },
  {
    "id": "40014",
    "name": "Gurs",
    "lat": 37.254538,
    "lon": 40.660653,
    "routes": [
      "10030",
      "10211",
      "51020",
      "51030"
    ]
  },
  {
    "id": "40056",
    "name": "Selen Kışlası",
    "lat": 37.251677,
    "lon": 40.656546,
    "routes": [
      "10030",
      "10211",
      "51020",
      "51030"
    ]
  },
  {
    "id": "40048",
    "name": "Selen Kışlası",
    "lat": 37.249844,
    "lon": 40.654144,
    "routes": [
      "10030",
      "10211",
      "51020",
      "51030"
    ]
  },
  {
    "id": "40059",
    "name": "Türkler Beton",
    "lat": 37.243882,
    "lon": 40.645658,
    "routes": [
      "10030",
      "10211",
      "51020",
      "51030"
    ]
  },
  {
    "id": "40017",
    "name": "Trafo",
    "lat": 37.240644,
    "lon": 40.641,
    "routes": [
      "10030",
      "10211",
      "51020",
      "51030"
    ]
  },
  {
    "id": "40018",
    "name": "Mova Park",
    "lat": 37.238094,
    "lon": 40.637555,
    "routes": [
      "10030",
      "10211",
      "51020",
      "51030"
    ]
  },
  {
    "id": "10104",
    "name": "Mardin Devlet Hastanesi",
    "lat": 37.33607,
    "lon": 40.705964,
    "routes": [
      "00151",
      "00180",
      "00190",
      "00191",
      "10190"
    ]
  },
  {
    "id": "10070",
    "name": "Sevgi Aile Sağlık Merkezi",
    "lat": 37.332861,
    "lon": 40.709962,
    "routes": [
      "00151",
      "00180",
      "00191"
    ]
  },
  {
    "id": "10059",
    "name": "Sümer",
    "lat": 37.330746,
    "lon": 40.711735,
    "routes": [
      "00151",
      "00180",
      "00191"
    ]
  },
  {
    "id": "10057",
    "name": "Asur",
    "lat": 37.328726,
    "lon": 40.712939,
    "routes": [
      "00151",
      "00180",
      "00191"
    ]
  },
  {
    "id": "10052",
    "name": "Maliye Lojmanları",
    "lat": 37.327197,
    "lon": 40.714526,
    "routes": [
      "00151",
      "00180",
      "00191"
    ]
  },
  {
    "id": "10053",
    "name": "Kültür Lisesi",
    "lat": 37.326474,
    "lon": 40.716193,
    "routes": [
      "00151",
      "00180",
      "00191"
    ]
  },
  {
    "id": "10054",
    "name": "İldo",
    "lat": 37.325936,
    "lon": 40.717582,
    "routes": [
      "00151",
      "00180",
      "00191"
    ]
  },
  {
    "id": "10055",
    "name": "Işık Caddesi",
    "lat": 37.325103,
    "lon": 40.720101,
    "routes": [
      "00151",
      "00180",
      "00191"
    ]
  },
  {
    "id": "10087",
    "name": "Mimar Lole",
    "lat": 37.326625,
    "lon": 40.723446,
    "routes": [
      "00180",
      "00191",
      "10190",
      "10210"
    ]
  },
  {
    "id": "10147",
    "name": "Kız Yurdu",
    "lat": 37.32357,
    "lon": 40.737324,
    "routes": [
      "00191"
    ]
  },
  {
    "id": "60217",
    "name": "Yalım Meydan",
    "lat": 37.3235873,
    "lon": 40.7373936,
    "routes": [
      "00191",
      "00220",
      "10190"
    ]
  },
  {
    "id": "10051",
    "name": "Karataş",
    "lat": 37.327641,
    "lon": 40.715806,
    "routes": [
      "00151",
      "00180",
      "00191"
    ]
  },
  {
    "id": "10089",
    "name": "Final",
    "lat": 37.328353,
    "lon": 40.714597,
    "routes": [
      "00151",
      "00180",
      "00191"
    ]
  },
  {
    "id": "10056",
    "name": "Asur",
    "lat": 37.32875,
    "lon": 40.713215,
    "routes": [
      "00151",
      "00180",
      "00191"
    ]
  },
  {
    "id": "10058",
    "name": "Sümer",
    "lat": 37.330781,
    "lon": 40.711863,
    "routes": [
      "00151",
      "00180",
      "00191"
    ]
  },
  {
    "id": "10189",
    "name": "Vefa Sitesi",
    "lat": 37.336148,
    "lon": 40.684352,
    "routes": [
      "00151"
    ]
  },
  {
    "id": "10181",
    "name": "Fen Lisesi",
    "lat": 37.33455,
    "lon": 40.680732,
    "routes": [
      "00151"
    ]
  },
  {
    "id": "10175",
    "name": "Said Nursi",
    "lat": 37.331728,
    "lon": 40.677644,
    "routes": [
      "00151",
      "00171",
      "00172",
      "10191"
    ]
  },
  {
    "id": "10176",
    "name": "Yeni Toki Son Durak",
    "lat": 37.331513,
    "lon": 40.675998,
    "routes": [
      "00151",
      "00171",
      "00172",
      "10191"
    ]
  },
  {
    "id": "10179",
    "name": "Toki AVM",
    "lat": 37.329836,
    "lon": 40.679819,
    "routes": [
      "00151",
      "00171",
      "00172",
      "10191"
    ]
  },
  {
    "id": "10173",
    "name": "Yeni Toki",
    "lat": 37.330959,
    "lon": 40.682589,
    "routes": [
      "00151",
      "00171",
      "10191"
    ]
  },